% program   : RTKLIB ver.demo5 gdsc_2022
% inp file  : supplemental\gnss_log.obs
% inp file  : ..\slac2500.23o
% inp file  : ..\BRDM00DLR_S_20232500000_01D_MN.rnx
% obs start : 2023/09/07 19:33:45.0 GPST (week2278 416025.0s)
% obs end   : 2023/09/07 19:51:52.0 GPST (week2278 417112.0s)
% pos mode  : Kinematic
% freqs     : L1+L2/E5b+L5
% solution  : Combined-No Phase Reset
% elev mask : 5.0 deg
% dynamics  : on
% tidecorr  : off
% ionos opt : Broadcast
% tropo opt : Saastamoinen
% ephemeris : Broadcast
% navi sys  : GPS GLONASS Galileo
% amb res   : OFF
% amb glo   : OFF
% val thres : 3.0
% antenna1  :                       ( 0.0000  0.0000  0.0000)
% antenna2  :                       ( 0.0000  0.0000  0.0000)
% ref pos   : 37.416519040-122.204268280   63.7780
%
% (lat/lon/height=WGS84/ellipsoidal,Q=1:fix,2:float,3:sbas,4:dgps,5:single,6:ppp,ns=# of satellites)
%  GPST          latitude(deg) longitude(deg)  height(m)   Q  ns   sdn(m)   sde(m)   sdu(m)  sdne(m)  sdeu(m)  sdun(m) age(s)  ratio
2278 416025.000   37.692850263 -122.089926867  -166.6208   2   4   0.6505   0.7311   1.2328  -0.3530   0.7146  -0.5161 -15.00    0.0
2278 416026.000   37.692199225 -122.088425240    31.7605   2  12   1.1251   1.3651   3.8634   0.4206   1.8004   0.3477 -14.00    0.0
2278 416027.000   37.692480198 -122.088932850   -50.5061   2   5   0.4131   0.5193   1.0632  -0.0420   0.5492  -0.1855 -13.00    0.0
2278 416028.000   37.692392123 -122.088781144   -36.8305   2   5   0.4207   0.4619   0.9460   0.1387   0.4199  -0.0987 -12.00    0.0
2278 416029.000   37.692340405 -122.088518401   -25.9259   2   5   0.4322   0.4451   0.7971   0.2926   0.1178   0.2160 -11.00    0.0
2278 416030.000   37.691868181 -122.087533370   103.5011   2   7   0.7922   0.9927   2.5261  -0.2530   1.2315  -0.1776 -10.00    0.0
2278 416031.000   37.692177392 -122.088465256    -1.0437   2   7   0.4095   0.3633   0.8211   0.1755   0.0890   0.3280  -9.00    0.0
2278 416032.000   37.692153012 -122.088420608     4.9364   2   6   0.3649   0.3451   0.7320   0.1384   0.1422   0.2565  -8.00    0.0
2278 416033.000   37.692197478 -122.088385043    20.5825   2   4   0.3773   0.3360   0.7676   0.0964   0.0753   0.3115  -7.00    0.0
2278 416034.000   37.692136256 -122.088470423     4.9324   2   8   0.4522   0.3959   0.8877   0.1838  -0.1139   0.3803  -6.00    0.0
2278 416035.000   37.692160044 -122.088301920    16.5348   2   5   0.3909   0.3407   0.7877   0.0977  -0.0243   0.3309  -5.00    0.0
2278 416036.000   37.692122698 -122.088479914     2.9787   2   6   0.4958   0.4263   0.9591   0.1927  -0.1729   0.4427  -4.00    0.0
2278 416037.000   37.692140238 -122.088484957     6.7991   2   7   0.5158   0.4371   0.9823   0.1917  -0.1813   0.4699  -3.00    0.0
2278 416038.000   37.692126023 -122.088492075     7.7198   2   5   0.5555   0.4588   1.0361   0.1929  -0.2294   0.5180  -2.00    0.0
2278 416039.000   37.692112064 -122.088474983     5.1128   2   6   0.5939   0.4845   1.0926   0.1963  -0.2736   0.5666  -1.00    0.0
2278 416040.000   37.692113103 -122.088453569     3.8502   2   6   0.6753   0.5848   1.1383   0.3475  -0.2901   0.6050   0.00    0.0
2278 416041.000   37.692082222 -122.088484379     2.0076   2   4   0.6413   0.5221   1.2039   0.1831  -0.3526   0.6398   1.00    0.0
2278 416042.000   37.692118205 -122.088500456    12.4117   2   4   0.6196   0.5698   1.2375   0.1090  -0.4621   0.6293   2.00    0.0
2278 416043.000   37.692097740 -122.088481166     3.4933   2   5   0.6793   0.5671   1.3146   0.1446  -0.4503   0.7002   3.00    0.0
2278 416044.000   37.692127145 -122.088504371     8.0529   2   5   0.6768   0.5532   1.2168   0.2184  -0.3526   0.6488   4.00    0.0
2278 416045.000   37.692097764 -122.088481932    -6.5590   2   5   0.8275   0.5739   1.4900   0.0833  -0.4579   0.8953   5.00    0.0
2278 416046.000   37.692160660 -122.088509448    -0.7742   2   4   0.7950   0.5644   1.3982   0.1566  -0.3715   0.8357   6.00    0.0
2278 416047.000   37.692235575 -122.088501166     0.7328   2   9   0.7379   0.5476   1.3063   0.1331  -0.3030   0.7577   7.00    0.0
2278 416048.000   37.692271395 -122.088498088    -6.4553   2   8   0.7278   0.5399   1.3369   0.1502  -0.3037   0.7667   8.00    0.0
2278 416049.000   37.692329922 -122.088514006    -8.8396   2   7   0.7159   0.5435   1.2445   0.1637  -0.2684   0.7146   9.00    0.0
2278 416050.000   37.692152499 -122.088571979   -44.3521   2   4   1.2696   0.8856   2.1644   0.4514  -0.6762   1.4007  10.00    0.0
2278 416051.000   37.692442843 -122.088590541   -20.0842   2   4   0.7925   0.5772   1.3616   0.1607  -0.2730   0.8384  11.00    0.0
2278 416052.000   37.692479770 -122.088671502   -33.3518   2   5   0.7825   0.5956   1.4039   0.2093  -0.2946   0.8355  12.00    0.0
2278 416053.000   37.692568684 -122.088745985   -29.1922   2   4   0.7257   0.5477   1.3641   0.0983  -0.1955   0.7755  13.00    0.0
2278 416054.000   37.692710986 -122.088763946   -16.0931   2   4   0.6695   0.5474   1.2956  -0.0819  -0.0476   0.7107  14.00    0.0
2278 416055.000   37.692738646 -122.088506346   -31.0800   2   6   1.2028   1.2760   3.2257  -0.7994  -1.7578   1.6602 -15.00    0.0
2278 416056.000   37.692962194 -122.088741688    10.7840   2   6   0.6557   0.5101   1.1946  -0.1640  -0.2170   0.6551 -14.00    0.0
2278 416057.000   37.693033157 -122.088742956    22.4536   2   4   0.7179   0.5285   1.1964  -0.2034  -0.1822   0.6976 -13.00    0.0
2278 416058.000   37.693126876 -122.088731164    41.8642   2   5   0.8114   0.6865   1.2539  -0.4954  -0.4524   0.7718 -12.00    0.0
2278 416059.000   37.693718131 -122.089832779   276.2233   2   4   3.2996   4.8317  11.6479  -3.5941  -7.3408   5.9247 -11.00    0.0
2278 416060.000   37.693305071 -122.088774716    76.1556   4   3   0.8000   0.6844   1.4303  -0.5183  -0.4312   0.8476 -10.00    0.0
2278 416061.000   37.693378865 -122.088817853    89.3924   2   5   1.7057   1.7006   2.0584  -1.5770  -0.2808   1.1435  -9.00    0.0
2278 416062.000   37.693284528 -122.088830819    73.3276   2   6   1.0735   0.8343   2.1088  -0.7811  -0.8630   1.3277  -8.00    0.0
2278 416063.000   37.693498808 -122.088978613    92.0848   2   4   2.1181   1.7735   3.1262  -1.7853  -1.3301   2.1346  -7.00    0.0
2278 416064.000   37.693267139 -122.088792361    74.0221   2   6   1.2291   0.8559   2.4929  -0.8411  -0.9311   1.5842  -6.00    0.0
2278 416065.000   37.693258240 -122.088779806    71.9935   2   4   0.7863   0.6750   1.4534  -0.5369  -0.3854   0.8145  -5.00    0.0
2278 416066.000   37.693202322 -122.088762338    49.4906   2   7   0.7674   0.6967   1.4263  -0.5449   0.3083   0.6411  -4.00    0.0
2278 416067.000   37.693282870 -122.088776636    80.7915   4   3   0.7080   0.6086   1.2813  -0.4654  -0.1836   0.6534  -3.00    0.0
2278 416068.000   37.693301809 -122.088776660    90.4058   4   3   0.7157   0.6382   1.2357  -0.4996   0.0602   0.5920  -2.00    0.0
2278 416069.000   37.693290157 -122.088868602   105.6479   2   5   0.6565   0.6362   1.1955  -0.4722  -0.3152   0.5768  -1.00    0.0
2278 416070.000   37.693058591 -122.088874938    29.4557   2   4   0.7340   0.8483   1.4122  -0.4334  -0.5300   0.5347   0.00    0.0
2278 416071.000   37.693320108 -122.089165923   127.2209   4   0   0.7107   1.0880   1.1856  -0.3894  -0.5198   0.3879   1.00    0.0
2278 416072.000   37.693250623 -122.089212830   108.9597   2   6   0.7338   1.0467   1.2431  -0.5963  -0.3551   0.2561   2.00    0.0
2278 416073.000   37.693286500 -122.089145841    81.5887   2   4   0.5648   0.7542   1.3602  -0.3949  -0.2060   0.3017   3.00    0.0
2278 416074.000   37.693148996 -122.088868590     4.4893   2   5   0.8198   1.2962   2.7160  -0.5803   0.9123   0.6428   4.00    0.0
2278 416075.000   37.693177210 -122.088866480     4.6434   2   6   0.7636   0.6308   1.2754  -0.1268  -0.0937   0.6227   5.00    0.0
2278 416076.000   37.693231188 -122.088854049    -1.6704   2   5   0.7921   0.6800   1.1887   0.1046  -0.2501   0.4841   6.00    0.0
2278 416077.000   37.693178036 -122.088845452    -3.1267   2   4   0.7868   0.7299   1.2381  -0.4492  -0.3186   0.5915   7.00    0.0
2278 416078.000   37.693102223 -122.088906518     7.4686   4   3   0.7657   0.8794   1.2979  -0.4966  -0.4515   0.6440   8.00    0.0
2278 416079.000   37.692921539 -122.088908652    19.1373   2   4   1.1103   1.4461   1.5667  -0.9955  -0.8323   0.7001   9.00    0.0
2278 416080.000   37.693206244 -122.089200439    49.1102   2   5   0.9110   0.9678   2.5337   0.2930  -0.3607   0.2916  10.00    0.0
2278 416081.000   37.692886503 -122.089117513    60.8931   2   5   0.6652   0.7289   1.4572   0.3410  -0.5603  -0.4767  11.00    0.0
2278 416082.000   37.693146890 -122.089228847    20.8022   2   7   1.5006   1.5245   3.1226  -0.5333   1.3244  -0.4286  12.00    0.0
2278 416083.000   37.692577331 -122.089246389   125.7665   4   2   0.9069   0.9449   1.8346  -0.5066  -0.8834   0.8023  13.00    0.0
2278 416084.000   37.692527937 -122.089270307   148.7210   4   2   0.6392   0.8812   1.7246   0.2478  -0.8606  -0.3707  14.00    0.0
2278 416085.000   37.692555046 -122.089265349   165.6684   4   1   0.8986   1.0149   1.8439   0.6346  -0.9749  -0.9141 -15.00    0.0
2278 416086.000   37.695760907 -122.087582444  -209.9173   2   4  15.7193   8.6164  13.8057  11.4382 -10.4495 -14.5719 -14.00    0.0
2278 416087.000   37.692974914 -122.088893416   139.4439   4   2   2.1132   1.3659   2.4112   1.4250  -1.5365  -1.8592 -13.00    0.0
2278 416088.000   37.695313711 -122.087773901  -198.7065   2   4  11.0114   6.4358   9.8941   8.1152  -7.3745 -10.0418 -12.00    0.0
2278 416089.000   37.693373616 -122.088932917    64.0270   4   3   2.0848   1.9091   2.4011   0.8903  -0.6513  -0.2173 -11.00    0.0
2278 416090.000   37.695356768 -122.087753277  -231.9161   4   3   8.2996   5.3204   7.4255   6.1870  -5.4319  -7.3652 -10.00    0.0
2278 416091.000   37.694042976 -122.089735378   117.7547   2   4   4.7269   3.1599   4.7810  -2.7369  -1.9751   4.0124  -9.00    0.0
2278 416092.000   37.693526370 -122.089742780    67.9005   2   7   3.7103   3.2430   4.5326  -2.0357  -2.3396   2.8096  -8.00    0.0
2278 416093.000   37.693138337 -122.089447116     3.1434   2   6   2.0227   2.4533   3.3914   0.6575   1.2646   1.3051  -7.00    0.0
2278 416094.000   37.692935400 -122.089350256    -8.9865   2   5   1.8178   2.0846   2.8910  -0.4037   0.9475   0.8391  -6.00    0.0
2278 416095.000   37.692899245 -122.089356041   -33.3712   2   5   1.9952   2.3568   2.9489  -0.3371   1.4733   1.1938  -5.00    0.0
2278 416096.000   37.693291849 -122.089168777   -51.4129   2   6   0.8741   0.8616   1.2975   0.2435   0.4236  -0.5845  -4.00    0.0
2278 416097.000   37.692963400 -122.089202555   -15.3433   2   7   1.2415   1.2763   2.1898   0.1653   0.7581   1.1162  -3.00    0.0
2278 416098.000   37.692994419 -122.089133037   -16.3322   2   7   1.0365   1.2374   1.9884  -0.1992   0.4162   0.8615  -2.00    0.0
2278 416099.000   37.693195590 -122.089220043   -27.1788   2   7   0.5677   0.7472   1.0884   0.2134   0.4087   0.2637  -1.00    0.0
2278 416100.000   37.693095735 -122.089210438   -12.3795   2   8   0.5355   0.7020   1.0724   0.1291   0.4288   0.3018   0.00    0.0
2278 416101.000   37.693010107 -122.089255286     1.0691   2   5   0.5477   0.7140   1.1068   0.1446   0.4219   0.3158   1.00    0.0
2278 416102.000   37.693013925 -122.089265676    -0.1538   2   9   0.7032   0.8607   1.3655   0.2033   0.6040   0.4723   2.00    0.0
2278 416103.000   37.693006815 -122.089254121     3.0749   2   5   0.6087   0.7308   1.1421  -0.1377   0.4074   0.3322   3.00    0.0
2278 416104.000   37.693015820 -122.089241852     1.7825   2   7   0.5792   0.7485   1.1267   0.2295   0.4943   0.3352   4.00    0.0
2278 416105.000   37.693016309 -122.089259791    -1.6678   2   5   0.6121   0.7663   1.2256   0.2313   0.5377   0.3700   5.00    0.0
2278 416106.000   37.693024992 -122.089252699     0.3124   2   4   0.7113   0.7993   1.2428   0.3929   0.5147   0.3257   6.00    0.0
2278 416107.000   37.693032548 -122.089249578    13.8254   4   3   0.4609   0.7075   1.1539   0.1579   0.5545   0.3206   7.00    0.0
2278 416108.000   37.693049764 -122.089194258     2.9795   2   4   0.7444   0.9521   1.6008   0.3210   0.8245   0.4574   8.00    0.0
2278 416109.000   37.693064772 -122.089470330    21.1159   2   4   0.5207   1.0475   1.3655  -0.3374   0.8213   0.3339   9.00    0.0
2278 416110.000   37.693092681 -122.089602308    18.7424   4   3   0.4790   0.9627   1.4512  -0.2171   0.8349   0.3605  10.00    0.0
2278 416111.000   37.693060742 -122.089525746    23.8058   2   6   0.5463   0.8368   1.5221  -0.1476   0.6066   0.3602  11.00    0.0
2278 416112.000   37.693016066 -122.089539607    20.4005   4   3   0.5650   0.8724   1.4873  -0.3704  -0.1005   0.5630  12.00    0.0
2278 416113.000   37.692992355 -122.089616375    26.6282   4   3   0.7348   1.1114   1.4998  -0.5136  -0.4257   0.5456  13.00    0.0
2278 416114.000   37.692962990 -122.089679098    26.2246   2   5   0.5633   0.9591   1.3436  -0.4160   0.1809   0.4360  14.00    0.0
2278 416115.000   37.692935892 -122.089857288    19.6339   2   4   0.7681   1.1969   1.5217  -0.5462  -0.1416   0.5615 -15.00    0.0
2278 416116.000   37.692859206 -122.089741114    33.9256   4   2   0.5381   0.9528   1.4263  -0.4100   0.5535   0.3495 -14.00    0.0
2278 416117.000   37.692835332 -122.089915830    29.7353   2   4   0.5768   0.9159   1.6931  -0.3972  -0.2355   0.5477 -13.00    0.0
2278 416118.000   37.692769458 -122.089979857    38.3536   4   2   0.5044   0.7748   1.2653  -0.2728   0.4346   0.2916 -12.00    0.0
2278 416119.000   37.692687196 -122.090305179    31.9877   2   6   0.6576   0.8279   1.4261  -0.1872   0.5360   0.2520 -11.00    0.0
2278 416120.000   37.692640161 -122.090532018    42.9351   4   2   0.8369   0.8083   1.3735   0.1944   0.6044  -0.4383 -10.00    0.0
2278 416121.000   37.692539302 -122.090834327    35.8960   2   9   1.6063   1.7092   1.9008   0.8371   0.8621  -0.4456  -9.00    0.0
2278 416122.000   37.692475813 -122.090884653    37.0041   2   6   0.8270   1.2296   1.8118  -0.2894   1.0482  -0.2506  -8.00    0.0
2278 416123.000   37.692382726 -122.091013608    37.0628   4   3   0.7982   1.0870   2.2499  -0.4958   0.9774   0.2968  -7.00    0.0
2278 416124.000   37.692296277 -122.091161957    41.3332   2   5   0.9630   1.3703   2.7845  -0.6541   1.2452   0.4193  -6.00    0.0
2278 416125.000   37.692215292 -122.091339904    35.5205   2   7   0.7411   0.8508   1.4781  -0.4426   0.6730  -0.2273  -5.00    0.0
2278 416126.000   37.692156258 -122.091435949    37.9549   2   4   0.7414   0.8427   1.4136  -0.4205   0.6429  -0.1373  -4.00    0.0
2278 416127.000   37.692123752 -122.091416511    37.0100   2   5   0.9100   0.9251   1.3152  -0.4985   0.6260  -0.2733  -3.00    0.0
2278 416128.000   37.692132423 -122.091419725    32.0156   4   3   1.6349   1.4722   1.3602  -0.2914   0.5053  -0.6006  -2.00    0.0
2278 416129.000   37.691949020 -122.091895967    33.5695   2   6   1.9407   1.6542   1.5845  -0.9984   0.4782  -0.1928  -1.00    0.0
2278 416130.000   37.691876404 -122.092125753    31.4134   2   4   1.0474   1.0304   1.9201  -0.4879   0.8795   0.2964   0.00    0.0
2278 416131.000   37.691773075 -122.092407812    27.4608   2   7   0.9086   0.9457   2.0617  -0.3687   0.9324   0.5490   1.00    0.0
2278 416132.000   37.691703181 -122.092598978    48.4930   2   6   0.8292   1.2744   2.0892  -0.4895   0.6832   0.6895   2.00    0.0
2278 416133.000   37.691576586 -122.092766384    34.0142   4   3   0.9191   1.1665   2.1392  -0.6915   0.8113   0.6054   3.00    0.0
2278 416134.000   37.691400849 -122.092924972     7.3192   2   6   0.9162   0.8552   1.9788  -0.5426   0.2156   0.8774   4.00    0.0
2278 416135.000   37.690892793 -122.092762309   -23.9797   2   6   0.7275   0.7529   1.4048  -0.3892   0.3911   0.3918   5.00    0.0
2278 416136.000   37.690208636 -122.092076227   -34.7501   4   2   0.9625   0.9866   1.3008  -0.6217  -0.2015   0.4244   6.00    0.0
2278 416137.000   37.688551646 -122.090062267   -28.1457   4   1   2.0242   2.0643   1.2877  -1.5089   0.2059   0.4947   7.00    0.0
2278 416138.000   37.691616817 -122.096558236   414.1849   4   1   1.4890   2.3703   5.1919  -1.6258  -3.2753   2.3842   8.00    0.0
2278 416139.000   37.684486619 -122.085160324   -25.1926   2   5   5.3908   5.8359   1.7448  -5.2673  -0.6277   1.1239   9.00    0.0
2278 416140.000   37.691215476 -122.095557169   285.3948   4   3   1.7266   1.8304   3.0767  -1.5732  -1.8046   1.4090  10.00    0.0
2278 416141.000   37.690689270 -122.094668018   144.7862   4   3   1.8066   1.8586   1.8298  -1.6379  -0.9189   0.8434  11.00    0.0
2278 416142.000   37.690788839 -122.094967435   178.9944   2   5   1.7179   2.1295   1.6196  -1.0843  -0.4915   0.5444  12.00    0.0
2278 416143.000   37.690751479 -122.094845510   134.6145   4   1   0.9282   1.6708   1.1605  -0.6913   0.5025   0.3115  13.00    0.0
2278 416144.000   37.690765787 -122.095077360    96.1245   4   3   0.4811   1.0290   0.8511  -0.4994   0.3357   0.1747  14.00    0.0
2278 416145.000   37.690766199 -122.095389735    61.7135   4   2   0.2522   0.4277   0.6585  -0.1778   0.0800   0.0648 -15.00    0.0
2278 416146.000   37.690812389 -122.095751734    14.3026   2   8   1.8015   2.4153   5.7244   1.0938   1.3684  -1.7737 -14.00    0.0
2278 416147.000   37.690737976 -122.096080993    21.7103   2   7   0.2302   0.2531   0.5718  -0.0209  -0.1860   0.0984 -13.00    0.0
2278 416148.000   37.690728870 -122.096365272    21.1791   2   8   0.2311   0.2593   0.5760  -0.0261  -0.1956   0.0977 -12.00    0.0
2278 416149.000   37.690727387 -122.096645538    20.3454   2   7   0.2299   0.2496   0.5691   0.0092  -0.1818   0.0939 -11.00    0.0
2278 416150.000   37.690743818 -122.096922776    19.9851   2   6   0.2303   0.2469   0.5682  -0.0263  -0.1776   0.0995 -10.00    0.0
2278 416151.000   37.690771917 -122.097200842    20.6061   2   8   0.2308   0.2467   0.5679  -0.0167  -0.1758   0.0968  -9.00    0.0
2278 416152.000   37.690808738 -122.097476850    21.1316   2   7   0.2307   0.2470   0.5688  -0.0261  -0.1772   0.0999  -8.00    0.0
2278 416153.000   37.690850739 -122.097747230    20.4187   2   4   0.2323   0.2476   0.5729  -0.0275  -0.1756   0.0975  -7.00    0.0
2278 416154.000   37.690907801 -122.098023692    20.5708   2   7   0.2333   0.2470   0.5776  -0.0318  -0.1748   0.0929  -6.00    0.0
2278 416155.000   37.690970275 -122.098300658    20.3662   2   7   0.2437   0.2560   0.6027  -0.0282  -0.1691   0.0649  -5.00    0.0
2278 416156.000   37.691044145 -122.098563541    20.3140   2   7   0.3304   0.3425   0.5864   0.1085  -0.1937  -0.1162  -4.00    0.0
2278 416157.000   37.691118345 -122.098875170    20.5875   4   0   0.2209   0.2346   0.5461  -0.0649  -0.1816   0.1357  -3.00    0.0
2278 416158.000   37.691208957 -122.099161803    20.3137   2   7   0.2298   0.2458   0.5616  -0.0810  -0.1639   0.1541  -2.00    0.0
2278 416159.000   37.691310970 -122.099440985    20.5751   2   9   0.2226   0.2323   0.5188  -0.0708  -0.1914   0.1438  -1.00    0.0
2278 416160.000   37.691419285 -122.099708744    19.2381   2   6   0.3043   0.2540   0.6150  -0.1423  -0.2409   0.1201   0.00    0.0
2278 416161.000   37.691579597 -122.099906456     9.8787   2   4   0.5181   0.5165   1.4575   0.1335   0.3706  -0.4069   1.00    0.0
2278 416162.000   37.691682155 -122.100244622    20.3928   2   7   0.2259   0.2309   0.5231  -0.0824  -0.1985   0.1807   2.00    0.0
2278 416163.000   37.691824873 -122.100500201    20.3912   2   6   0.2130   0.2300   0.4933  -0.0726  -0.1894   0.1408   3.00    0.0
2278 416164.000   37.691979558 -122.100744068    19.9585   2   8   0.2126   0.2205   0.4785  -0.0738  -0.1685   0.1418   4.00    0.0
2278 416165.000   37.692140994 -122.100980307    19.4721   2   5   0.2115   0.2177   0.4710  -0.0705  -0.1600   0.1370   5.00    0.0
2278 416166.000   37.692310461 -122.101209919    19.4964   2   9   0.2106   0.2164   0.4672  -0.0696  -0.1560   0.1344   6.00    0.0
2278 416167.000   37.692489497 -122.101432577    19.1135   2   9   0.2106   0.2172   0.4659  -0.0688  -0.1556   0.1348   7.00    0.0
2278 416168.000   37.692668942 -122.101653745    19.2995   2   9   0.2110   0.2173   0.4678  -0.0722  -0.1572   0.1376   8.00    0.0
2278 416169.000   37.692867291 -122.101846813    15.9671   2   6   0.2110   0.2174   0.4679  -0.0736  -0.1584   0.1381   9.00    0.0
2278 416170.000   37.693078106 -122.102044640    14.0187   2  10   0.2101   0.2149   0.4649  -0.0718  -0.1533   0.1358  10.00    0.0
2278 416171.000   37.693292443 -122.102249205    13.5135   2   6   0.2105   0.2143   0.4650  -0.0735  -0.1524   0.1378  11.00    0.0
2278 416172.000   37.693522145 -122.102438768    11.3069   2   7   0.2102   0.2134   0.4628  -0.0741  -0.1500   0.1371  12.00    0.0
2278 416173.000   37.693766581 -122.102652162    13.3610   2   4   0.2121   0.2168   0.4698  -0.0789  -0.1590   0.1443  13.00    0.0
2278 416174.000   37.693990019 -122.102872567    16.5260   2   6   0.2410   0.2263   0.4886  -0.0951  -0.1838   0.1722  14.00    0.0
2278 416175.000   37.694240440 -122.103065162    17.2941   2   5   0.2327   0.2268   0.4902  -0.0929  -0.1856   0.1638 -15.00    0.0
2278 416176.000   37.694502573 -122.103277944    20.5984   2   9   0.2872   0.2396   0.5071  -0.0951  -0.2115   0.1644 -14.00    0.0
2278 416177.000   37.694687486 -122.103472316    20.3932   2   4   0.2166   0.2235   0.4795  -0.0886  -0.1734   0.1551 -13.00    0.0
2278 416178.000   37.694906972 -122.103659571    20.3586   2   9   0.2248   0.2274   0.4883  -0.1041  -0.1849   0.1735 -12.00    0.0
2278 416179.000   37.695121848 -122.103845288    20.1622   2   5   0.2190   0.2243   0.4806  -0.0944  -0.1756   0.1605 -11.00    0.0
2278 416180.000   37.695329441 -122.104028690    19.9203   2   4   0.2206   0.2230   0.4750  -0.0911  -0.1704   0.1567 -10.00    0.0
2278 416181.000   37.695543161 -122.104210560    19.6573   2   9   0.2202   0.2206   0.4728  -0.0926  -0.1660   0.1589  -9.00    0.0
2278 416182.000   37.695746201 -122.104398370    20.0467   2  13   0.2203   0.2212   0.4761  -0.0959  -0.1695   0.1626  -8.00    0.0
2278 416183.000   37.695953613 -122.104548604    16.1810   2   4   0.2201   0.2172   0.4664  -0.0914  -0.1565   0.1556  -7.00    0.0
2278 416184.000   37.696143607 -122.104751147    19.2402   2   8   0.2434   0.2223   0.4711  -0.0863  -0.1672   0.1546  -6.00    0.0
2278 416185.000   37.696372360 -122.104908402    15.9076   2   4   0.2292   0.2227   0.4726  -0.0925  -0.1686   0.1563  -5.00    0.0
2278 416186.000   37.696588647 -122.105072265    13.5765   2   7   0.2287   0.2255   0.4763  -0.0994  -0.1754   0.1615  -4.00    0.0
2278 416187.000   37.696806137 -122.105263074    15.4392   2   5   0.2290   0.2227   0.4748  -0.0977  -0.1697   0.1616  -3.00    0.0
2278 416188.000   37.697014281 -122.105459550    15.9428   2   5   0.2298   0.2311   0.4880  -0.1043  -0.1897   0.1672  -2.00    0.0
2278 416189.000   37.697217964 -122.105649132    14.9441   2   7   0.2313   0.2424   0.5055  -0.1148  -0.2143   0.1798  -1.00    0.0
2278 416190.000   37.697434056 -122.105829889    14.3872   2   7   0.2300   0.2320   0.4890  -0.1056  -0.1922   0.1696   0.00    0.0
2278 416191.000   37.697648315 -122.106019333    15.0399   2   4   0.2310   0.2319   0.4867  -0.1062  -0.1899   0.1684   1.00    0.0
2278 416192.000   37.697865318 -122.106201497    14.3822   2   6   0.2319   0.2336   0.4891  -0.1083  -0.1934   0.1708   2.00    0.0
2278 416193.000   37.698077148 -122.106388227    14.4468   2   7   0.2331   0.2329   0.4876  -0.1094  -0.1910   0.1708   3.00    0.0
2278 416194.000   37.698289595 -122.106568702    14.0648   2   8   0.2329   0.2361   0.4928  -0.1093  -0.1979   0.1704   4.00    0.0
2278 416195.000   37.698429143 -122.106791950    20.2585   2   7   0.3037   0.3560   0.7059  -0.1600  -0.3393   0.2337   5.00    0.0
2278 416196.000   37.698661082 -122.106942130    15.0116   2   5   0.2709   0.2395   0.4926  -0.1062  -0.2010   0.1683   6.00    0.0
2278 416197.000   37.698884334 -122.107095986    10.4691   2   6   0.2495   0.2404   0.4909  -0.1149  -0.2009   0.1757   7.00    0.0
2278 416198.000   37.699097892 -122.107281235    10.6044   2   5   0.2477   0.2332   0.4801  -0.1106  -0.1856   0.1708   8.00    0.0
2278 416199.000   37.699297032 -122.107462140    10.7956   2   4   0.2479   0.2327   0.4783  -0.1114  -0.1841   0.1698   9.00    0.0
2278 416200.000   37.699498953 -122.107644787    11.4800   2   8   0.2483   0.2307   0.4750  -0.1109  -0.1788   0.1700  10.00    0.0
2278 416201.000   37.699685515 -122.107831365    11.8106   2   5   0.2484   0.2313   0.4756  -0.1110  -0.1799   0.1686  11.00    0.0
2278 416202.000   37.699878121 -122.108014116    10.1679   2   4   0.2483   0.2306   0.4742  -0.1108  -0.1783   0.1687  12.00    0.0
2278 416203.000   37.700067081 -122.108215624     9.6278   2   4   0.2496   0.2331   0.4781  -0.1116  -0.1835   0.1679  13.00    0.0
2278 416204.000   37.700260207 -122.108413736     7.7878   2   6   0.2520   0.2340   0.4795  -0.1131  -0.1849   0.1712  14.00    0.0
2278 416205.000   37.700444309 -122.108634189     7.8888   2   5   0.2547   0.2353   0.4812  -0.1160  -0.1872   0.1738 -15.00    0.0
2278 416206.000   37.700623544 -122.108860174     7.6897   2   5   0.2555   0.2377   0.4846  -0.1176  -0.1919   0.1748 -14.00    0.0
2278 416207.000   37.700798410 -122.109097134     7.4205   2   4   0.2575   0.2395   0.4855  -0.1167  -0.1937   0.1745 -13.00    0.0
2278 416208.000   37.700885875 -122.109328656     7.2435   2   7   0.3689   0.3688   0.6840  -0.1575  -0.2580   0.2119 -12.00    0.0
2278 416209.000   37.701144437 -122.109616799    10.9278   2   6   0.2603   0.2423   0.4909  -0.1209  -0.2000   0.1794 -11.00    0.0
2278 416210.000   37.701262675 -122.109899094    23.4084   2   7   0.2691   0.3372   0.5086  -0.1726  -0.1957   0.1814 -10.00    0.0
2278 416211.000   37.701394297 -122.109913959    -7.0087   2   6   0.2623   0.2719   0.5134  -0.1272  -0.2336   0.1824  -9.00    0.0
2278 416212.000   37.701516766 -122.110361068     8.4820   2   8   0.3895   0.3857   0.7058  -0.1641  -0.2606   0.2203  -8.00    0.0
2278 416213.000   37.701675907 -122.110620534     7.6076   2   7   0.3936   0.3904   0.7105  -0.1659  -0.2614   0.2182  -7.00    0.0
2278 416214.000   37.701834936 -122.110886561     7.4773   2   8   0.4000   0.3961   0.7163  -0.1664  -0.2622   0.2212  -6.00    0.0
2278 416215.000   37.701997408 -122.111149825     6.4702   2   7   0.4070   0.4043   0.7261  -0.1650  -0.2705   0.2213  -5.00    0.0
2278 416216.000   37.702161660 -122.111413616     5.8151   2   8   0.4116   0.4087   0.7306  -0.1659  -0.2716   0.2254  -4.00    0.0
2278 416217.000   37.702322936 -122.111675050     5.9059   2   6   0.4199   0.4211   0.7443  -0.1649  -0.2854   0.2252  -3.00    0.0
2278 416218.000   37.702488928 -122.111941033     5.8539   2   7   0.4280   0.4284   0.7509  -0.1663  -0.2879   0.2276  -2.00    0.0
2278 416219.000   37.702650440 -122.112216451     6.8396   2   6   0.4373   0.4394   0.7635  -0.1635  -0.2990   0.2253  -1.00    0.0
2278 416220.000   37.702819450 -122.112484002     6.7714   2   9   0.4465   0.4458   0.7693  -0.1641  -0.2997   0.2269   0.00    0.0
2278 416221.000   37.702983951 -122.112755254     6.4329   2   6   0.4558   0.4530   0.7752  -0.1642  -0.3010   0.2275   1.00    0.0
2278 416222.000   37.703154082 -122.113026788     5.8995   2   9   0.4493   0.4483   0.7718  -0.1648  -0.2998   0.2297   2.00    0.0
2278 416223.000   37.703317565 -122.113298553     5.7794   2   6   0.4505   0.4497   0.7732  -0.1645  -0.3006   0.2289   3.00    0.0
2278 416224.000   37.703478091 -122.113570656     5.6246   2   6   0.4543   0.4472   0.7732  -0.1628  -0.2980   0.2248   4.00    0.0
2278 416225.000   37.703642696 -122.113823011     4.5919   2   5   0.4578   0.4539   0.7760  -0.1669  -0.3059   0.2247   5.00    0.0
2278 416226.000   37.703808425 -122.114072903     3.2533   2   5   0.4559   0.4478   0.7711  -0.1620  -0.2986   0.2259   6.00    0.0
2278 416227.000   37.704002982 -122.114283819    -1.7369   2   4   0.4611   0.4543   0.7761  -0.1635  -0.3069   0.2258   7.00    0.0
2278 416228.000   37.704209112 -122.114508497    -6.9461   2   4   0.4638   0.4664   0.7826  -0.1729  -0.3216   0.2204   8.00    0.0
2278 416229.000   37.704385346 -122.114712077    -9.0265   4   3   0.4705   0.4663   0.7728  -0.1586  -0.3099   0.2224   9.00    0.0
2278 416230.000   37.704530499 -122.115281809     5.0958   2   8   0.5554   0.5229   0.8252  -0.1758  -0.2928   0.2561  10.00    0.0
2278 416231.000   37.704695322 -122.115564918     4.8319   2   7   0.5747   0.5364   0.8339  -0.1734  -0.2925   0.2583  11.00    0.0
2278 416232.000   37.704858796 -122.115853296     4.3266   2  10   0.5865   0.5509   0.8489  -0.1718  -0.2992   0.2650  12.00    0.0
2278 416233.000   37.705019394 -122.116141484     3.5964   2   7   0.6598   0.6285   0.8727  -0.1671  -0.3213   0.2596  13.00    0.0
2278 416234.000   37.705136629 -122.116443702     4.2472   2   7   1.2764   1.2047   1.1490  -0.3744  -0.3986   0.2849  14.00    0.0
2278 416235.000   37.705349546 -122.116725212     1.3940   4   0   0.6525   0.6348   0.9366  -0.1425  -0.3442   0.2023 -15.00    0.0
2278 416236.000   37.705502996 -122.117006714    -8.1998   4   2   0.4102   0.3978   0.8232  -0.1507  -0.3190   0.2200 -14.00    0.0
2278 416237.000   37.705657890 -122.117323731    -0.4419   2  10   0.4182   0.4021   0.8351  -0.1472  -0.2977   0.2533 -13.00    0.0
2278 416238.000   37.705805617 -122.117624396    -1.5135   2   8   0.4249   0.4141   0.8514  -0.1438  -0.3091   0.2484 -12.00    0.0
2278 416239.000   37.705949860 -122.117928190    -2.0923   2   9   0.4292   0.4229   0.8700  -0.1351  -0.3190   0.2389 -11.00    0.0
2278 416240.000   37.706089678 -122.118236482    -1.9585   2   7   0.4380   0.4389   0.8923  -0.1338  -0.3376   0.2346 -10.00    0.0
2278 416241.000   37.706228926 -122.118541303    -2.7403   2   7   0.4477   0.4576   0.9175  -0.1317  -0.3606   0.2311  -9.00    0.0
2278 416242.000   37.706363236 -122.118849420    -2.9453   2   9   0.4569   0.4869   0.9583  -0.1287  -0.4054   0.2225  -8.00    0.0
2278 416243.000   37.706495876 -122.119159083    -3.7039   2  10   0.4704   0.5186   1.0031  -0.1324  -0.4506   0.2239  -7.00    0.0
2278 416244.000   37.706631072 -122.119468375    -5.0959   2   8   0.4672   0.5088   0.9809  -0.1131  -0.4282   0.2102  -6.00    0.0
2278 416245.000   37.706765638 -122.119776598    -6.3998   2   6   0.4664   0.5009   0.9672  -0.1152  -0.4066   0.2096  -5.00    0.0
2278 416246.000   37.706893251 -122.120091233    -7.2429   2   9   0.4629   0.4974   0.9624  -0.1112  -0.4053   0.1993  -4.00    0.0
2278 416247.000   37.707031736 -122.120394552    -8.6080   2   8   0.4596   0.4907   0.9552  -0.1125  -0.3901   0.2080  -3.00    0.0
2278 416248.000   37.707187389 -122.120693499   -10.8833   2   8   0.4601   0.4934   0.9601  -0.1231  -0.4020   0.2092  -2.00    0.0
2278 416249.000   37.707351023 -122.120979187   -12.5865   2   5   0.4592   0.4939   0.9603  -0.1248  -0.4019   0.2160  -1.00    0.0
2278 416250.000   37.707521524 -122.121251941   -14.0536   2   5   0.4607   0.4939   0.9625  -0.1375  -0.4027   0.2196   0.00    0.0
2278 416251.000   37.707702484 -122.121518233   -14.5889   2   6   0.4548   0.4914   0.9601  -0.1383  -0.4035   0.2270   1.00    0.0
2278 416252.000   37.707890447 -122.121771658   -15.0441   2   6   0.4554   0.4947   0.9592  -0.1257  -0.4026   0.2270   2.00    0.0
2278 416253.000   37.708088379 -122.122025754   -15.5940   2   7   0.4492   0.4912   0.9567  -0.1299  -0.4043   0.2284   3.00    0.0
2278 416254.000   37.708277583 -122.122262282   -16.3210   2   6   0.4653   0.5038   0.9577  -0.1373  -0.4033   0.2407   4.00    0.0
2278 416255.000   37.708454068 -122.122499062   -20.4570   2   8   0.5331   0.5701   1.0508  -0.1787  -0.4353   0.2924   5.00    0.0
2278 416257.000   37.708901118 -122.123006151   -17.8117   2   5   0.4995   0.5614   0.9617  -0.1069  -0.4425   0.1892   7.00    0.0
2278 416258.000   37.709049757 -122.122951104   -65.3957   2   5   0.4389   0.4960   0.9494  -0.1087  -0.4243   0.1936   8.00    0.0
2278 416259.000   37.709228849 -122.123026598   -83.0109   2   4   0.4533   0.5022   0.9805  -0.1103  -0.4563   0.2097   9.00    0.0
2278 416260.000   37.709518451 -122.123752262   -15.6650   2   5   0.6031   0.6371   1.2261   0.0690  -0.5053   0.1450  10.00    0.0
2278 416261.000   37.709516772 -122.123334268  -129.3901   2   4   0.5150   0.5838   1.0396  -0.1517  -0.5067   0.2573  11.00    0.0
2278 416262.000   37.709885626 -122.124281316   -13.3899   2   4   1.3069   1.4213   1.4304   0.3586  -0.5882  -0.3573  12.00    0.0
2278 416263.000   37.710111805 -122.124543361   -12.0618   4   0   0.6922   0.7292   1.3452  -0.1467  -0.6242   0.2745  13.00    0.0
2278 416264.000   37.710300060 -122.124803110   -11.7920   2   4   0.5261   0.5132   1.3116  -0.1667  -0.5758   0.3256  14.00    0.0
2278 416265.000   37.710414553 -122.124898304   -91.1183   4   3   0.5389   0.5091   1.2612  -0.1807  -0.5554   0.3346 -15.00    0.0
2278 416266.000   37.710597707 -122.125221163   -72.5130   4   1   0.5281   0.5078   1.2829  -0.1413  -0.5542   0.3131 -14.00    0.0
2278 416267.000   37.710791960 -122.125630656   -10.4438   2   6   0.5481   0.5244   1.3385  -0.1406  -0.5717   0.2979 -13.00    0.0
2278 416268.000   37.710943764 -122.125909590   -11.2932   2   4   0.6363   0.6257   1.3706  -0.3221  -0.5946   0.2851 -12.00    0.0
2278 416269.000   37.711099616 -122.126209955   -10.3841   2   5   0.5593   0.5162   1.3705   0.1115  -0.5775   0.2944 -11.00    0.0
2278 416270.000   37.711250248 -122.126494006    -9.4555   2   5   0.5775   0.5227   1.3975   0.1323  -0.5909   0.2907 -10.00    0.0
2278 416271.000   37.711402003 -122.126778586    -6.9658   2   6   0.5777   0.5347   1.4494   0.1099  -0.6152   0.3297  -9.00    0.0
2278 416272.000   37.711553478 -122.127062582    -2.9344   2   5   0.6052   0.5518   1.4956   0.1008  -0.6362   0.3678  -8.00    0.0
2278 416273.000   37.711688162 -122.127330699    -2.9980   2   5   0.6872   0.7167   1.7728  -0.1325  -0.7581   0.4308  -7.00    0.0
2278 416274.000   37.711882078 -122.127602497     1.8071   4   2   0.6858   0.5388   1.6021   0.1475  -0.6807   0.4524  -6.00    0.0
2278 416275.000   37.712054848 -122.127865074     2.2792   2   6   1.3861   0.6613   2.3542   0.4915  -1.0150   0.4791  -5.00    0.0
2278 416276.000   37.712195884 -122.128129073     8.1990   4   2   0.6877   0.5733   1.7899  -0.1115  -0.7637   0.6481  -4.00    0.0
2278 416277.000   37.712256142 -122.128406789    10.7330   2   4   0.5360   0.5399   1.4360  -0.2200  -0.6277   0.5646  -3.00    0.0
2278 416278.000   37.712205948 -122.128617438    -6.0353   2   6   2.1274   3.7748  10.0458  -1.7539  -5.2873   2.4458  -2.00    0.0
2278 416279.000   37.712466677 -122.128878395     5.5822   2   5   0.4387   0.5007   1.1425  -0.0620  -0.5001   0.3859  -1.00    0.0
2278 416280.000   37.712618228 -122.129110972     3.4938   2   6   0.4197   0.4928   1.1208  -0.0621  -0.4921   0.3619   0.00    0.0
2278 416281.000   37.712799708 -122.129334674     0.7198   2   8   0.4151   0.4870   1.0987  -0.0394  -0.4781   0.3469   1.00    0.0
2278 416282.000   37.712984772 -122.129547313    -0.8442   2   9   0.4091   0.4871   1.0886   0.0601  -0.4702   0.3332   2.00    0.0
2278 416283.000   37.713189689 -122.129756151    -0.2211   2   4   0.4194   0.4939   1.1061   0.0479  -0.4812   0.3489   3.00    0.0
2278 416284.000   37.713385713 -122.129970473     0.1176   2   8   0.4169   0.4967   1.1087   0.0431  -0.4910   0.3504   4.00    0.0
2278 416285.000   37.713587405 -122.130162614    -3.8109   2   9   0.4373   0.5273   1.0775   0.2002  -0.4817   0.3008   5.00    0.0
2278 416286.000   37.713810061 -122.130342530    -5.7131   2   7   0.4049   0.4698   1.0789  -0.0559  -0.4587   0.3369   6.00    0.0
2278 416287.000   37.714032535 -122.130523721    -6.8723   2   8   0.4118   0.4734   1.1000  -0.0795  -0.4721   0.3576   7.00    0.0
2278 416288.000   37.714268035 -122.130717985    -3.7979   2   8   0.4143   0.4772   1.1107  -0.0845  -0.4794   0.3719   8.00    0.0
2278 416289.000   37.714528797 -122.130897203     2.9022   2   5   0.4204   0.4799   1.1178  -0.0773  -0.4819   0.3761   9.00    0.0
2278 416290.000   37.714796788 -122.131074546    11.2893   2   7   0.4312   0.4819   1.1334  -0.0922  -0.4881   0.4042  10.00    0.0
2278 416291.000   37.715013604 -122.131213743     7.5901   2   6   0.4343   0.4807   1.1384  -0.0931  -0.4869   0.4113  11.00    0.0
2278 416292.000   37.715256992 -122.131359991    10.4607   2   7   0.4458   0.4869   1.1858  -0.1440  -0.5170   0.4590  12.00    0.0
2278 416293.000   37.715444444 -122.131467703     3.1938   2   6   0.5058   0.6879   1.4874   0.1492  -0.6810   0.2615  13.00    0.0
2278 416294.000   37.715737847 -122.131637158    15.8240   2   7   0.4023   0.4735   1.0861  -0.0552  -0.4675   0.3539  14.00    0.0
2278 416295.000   37.715900388 -122.131713407     1.4429   2   6   0.4832   0.6185   1.3655   0.1123  -0.5923   0.2917 -15.00    0.0
2278 416296.000   37.716166713 -122.131862030     8.9412   2   8   0.3736   0.4439   0.9814   0.1176  -0.3820   0.2471 -14.00    0.0
2278 416297.000   37.716378569 -122.131938268     0.3429   2   6   0.3856   0.4409   0.9606   0.1566  -0.3536   0.2350 -13.00    0.0
2278 416298.000   37.716568229 -122.132074210    -3.8130   2   4   0.3749   0.4331   0.9600   0.1375  -0.3515   0.2288 -12.00    0.0
2278 416299.000   37.716782342 -122.132191352    -4.7495   2   9   0.3726   0.4245   0.9541   0.1260  -0.3443   0.2347 -11.00    0.0
2278 416300.000   37.717013096 -122.132301339    -4.7824   2   5   0.3773   0.4273   0.9621   0.1251  -0.3484   0.2399 -10.00    0.0
2278 416301.000   37.717236428 -122.132416827    -4.4951   2   7   0.3782   0.4256   0.9653   0.1175  -0.3494   0.2477  -9.00    0.0
2278 416302.000   37.717473384 -122.132526196    -2.3754   2   7   0.3839   0.4285   0.9791   0.1068  -0.3597   0.2642  -8.00    0.0
2278 416303.000   37.717706885 -122.132630111    -1.9980   2   5   0.3789   0.4360   0.9814   0.1132  -0.3667   0.2556  -7.00    0.0
2278 416304.000   37.717928788 -122.132742083     0.3177   2   4   0.3842   0.4338   0.9843   0.1145  -0.3664   0.2647  -6.00    0.0
2278 416305.000   37.718165360 -122.132842250     2.9188   2   5   0.3941   0.4453   1.0261   0.0848  -0.3980   0.3072  -5.00    0.0
2278 416306.000   37.718382895 -122.132941246     3.9630   2   5   0.4797   0.5244   1.0712   0.2531  -0.4277   0.3593  -4.00    0.0
2278 416307.000   37.718614639 -122.133018653     3.1688   2   6   0.4210   0.4783   1.0700   0.1177  -0.4412   0.3454  -3.00    0.0
2278 416308.000   37.718830938 -122.133118123     3.4265   2   5   0.4071   0.4497   1.0073   0.1460  -0.3751   0.2946  -2.00    0.0
2278 416309.000   37.719056222 -122.133209750     3.2488   2   7   0.4081   0.4487   1.0030   0.1498  -0.3692   0.2930  -1.00    0.0
2278 416310.000   37.719258380 -122.133335741     3.6348   2   4   0.5059   0.5416   1.0111   0.3322  -0.3796   0.2932   0.00    0.0
2278 416311.000   37.719492841 -122.133435821     5.0922   2   7   0.4276   0.4727   1.0116   0.1955  -0.3840   0.2900   1.00    0.0
2278 416312.000   37.719718207 -122.133555413     5.0367   2   5   0.4288   0.4684   1.0104   0.1963  -0.3752   0.2910   2.00    0.0
2278 416313.000   37.719940502 -122.133690228     6.1970   2   6   0.4198   0.4590   0.9921   0.1916  -0.3621   0.2866   3.00    0.0
2278 416314.000   37.720155563 -122.133832436     5.8262   2   6   0.4136   0.4492   0.9771   0.1838  -0.3569   0.2844   4.00    0.0
2278 416315.000   37.720378862 -122.133976831     6.3537   2   8   0.4030   0.4395   0.9631   0.1717  -0.3555   0.2768   5.00    0.0
2278 416316.000   37.720596939 -122.134115216     5.6248   2   6   0.3964   0.4348   0.9525   0.1674  -0.3540   0.2721   6.00    0.0
2278 416317.000   37.720815819 -122.134238502     4.2340   2   8   0.3875   0.4234   0.9364   0.1534  -0.3470   0.2687   7.00    0.0
2278 416318.000   37.721027738 -122.134372771     2.8680   2   5   0.3842   0.4175   0.9230   0.1539  -0.3391   0.2673   8.00    0.0
2278 416319.000   37.721242940 -122.134500814     1.9639   2   5   0.3794   0.4125   0.9185   0.1374  -0.3416   0.2744   9.00    0.0
2278 416320.000   37.721441171 -122.134655429     1.2418   2   6   0.4047   0.4128   0.9719   0.0999  -0.3711   0.3522  10.00    0.0
2278 416321.000   37.721588694 -122.134928666    -6.9232   2   6   0.3665   0.3887   0.8936   0.0684  -0.3703   0.3117  11.00    0.0
2278 416322.000   37.721871649 -122.134966348     6.4842   2   5   0.3880   0.4184   0.9660   0.0700  -0.3975   0.3366  12.00    0.0
2278 416323.000   37.722035023 -122.135177141    -7.1621   2   6   0.3777   0.3871   0.8848  -0.0248  -0.3701   0.3372  13.00    0.0
2278 416324.000   37.722177896 -122.135373208   -10.1599   2   5   0.5218   0.4803   0.8615   0.3307  -0.3263   0.3511  14.00    0.0
2278 416325.000   37.722391746 -122.135498547    -7.3059   2   5   0.5655   0.6684   0.8701   0.4856  -0.4511   0.1891 -15.00    0.0
2278 416326.000   37.722606097 -122.135738719    -4.9717   4   2   0.4592   0.5885   0.8487  -0.1923  -0.3395   0.3440 -14.00    0.0
2278 416327.000   37.722795745 -122.135911125    -3.6272   2   5   0.6711   0.7525   0.9088  -0.5809  -0.2709   0.4407 -13.00    0.0
2278 416328.000   37.723012398 -122.136011808    10.0660   2   4   0.4805   0.5423   0.8841  -0.3253  -0.2298   0.4129 -12.00    0.0
2278 416329.000   37.723214145 -122.136158910    13.6794   2   6   0.4831   0.5052   0.9476  -0.2933  -0.2818   0.4788 -11.00    0.0
2278 416330.000   37.723428690 -122.136323697    18.4296   2   5   0.5120   0.5022   1.0381  -0.3123  -0.3526   0.5542 -10.00    0.0
2278 416331.000   37.723637271 -122.136446614    11.5418   2   5   0.4985   0.6988   1.1074  -0.1628  -0.5959   0.4151  -9.00    0.0
2278 416332.000   37.723796626 -122.136640523     5.0037   2   6   0.4887   0.4943   0.9735  -0.2840  -0.3194   0.5111  -8.00    0.0
2278 416333.000   37.724035205 -122.136757704     8.5767   2   6   0.5149   0.6698   1.1423  -0.1744  -0.5948   0.4841  -7.00    0.0
2278 416334.000   37.724251044 -122.136889398    10.2835   2   6   0.4802   0.6455   1.1037  -0.1559  -0.5751   0.4382  -6.00    0.0
2278 416335.000   37.724476056 -122.137015036    11.7260   2   5   0.4733   0.6383   1.1020  -0.1634  -0.5772   0.4385  -5.00    0.0
2278 416336.000   37.724699368 -122.137096923     9.5591   2   4   0.4600   0.6214   1.0761  -0.1394  -0.5574   0.4177  -4.00    0.0
2278 416337.000   37.724898789 -122.137191445     5.8168   2   5   0.4687   0.5963   1.0865  -0.1551  -0.5405   0.4430  -3.00    0.0
2278 416338.000   37.725107437 -122.137291475     2.3262   2   6   0.6325   0.6690   1.2272  -0.3725  -0.5435   0.5869  -2.00    0.0
2278 416339.000   37.725421268 -122.137679374   -10.2597   2   6   0.3403   0.3800   0.7011   0.1693  -0.2318   0.2598  -1.00    0.0
2278 416340.000   37.725538914 -122.137597637   -15.0609   2   7   0.2692   0.2935   0.6540  -0.0817  -0.2610   0.1908   0.00    0.0
2278 416341.000   37.725686333 -122.137535245   -25.0681   2   7   0.2691   0.2936   0.6515  -0.0791  -0.2601   0.1862   1.00    0.0
2278 416342.000   37.725904826 -122.137607580   -22.0186   2   7   0.2690   0.2955   0.6546  -0.0775  -0.2638   0.1853   2.00    0.0
2278 416343.000   37.726136291 -122.137609720   -29.1816   2   5   0.2671   0.2932   0.6497  -0.0702  -0.2577   0.1775   3.00    0.0
2278 416344.000   37.726365022 -122.137747245   -14.4038   2   7   0.3588   0.3597   0.9053  -0.1183  -0.3344   0.2188   4.00    0.0
2278 416345.000   37.726553407 -122.137567781   -51.1770   2   4   0.3511   0.3042   0.6790  -0.1045  -0.2853   0.1754   5.00    0.0
2278 416346.000   37.726830870 -122.137817243   -14.4678   2   8   0.3768   0.3738   0.9340  -0.1407  -0.3527   0.2540   6.00    0.0
2278 416347.000   37.727034900 -122.137672303   -42.4730   2   5   0.3743   0.3405   0.7736  -0.1384  -0.3704   0.2195   7.00    0.0
2278 416348.000   37.727304059 -122.137889686   -13.4090   2   8   0.3925   0.3856   0.9586  -0.1509  -0.3601   0.2741   8.00    0.0
2278 416349.000   37.727519970 -122.137826674   -22.6422   2   6   0.4004   0.3659   0.8341  -0.1685  -0.4215   0.2717   9.00    0.0
2278 416350.000   37.727700933 -122.137665810   -60.6709   2   4   0.3882   0.3466   0.7749  -0.1575  -0.3760   0.2386  10.00    0.0
2278 416351.000   37.727988230 -122.137995953   -14.0745   2   7   0.4031   0.4025   0.9725  -0.1656  -0.3694   0.2751  11.00    0.0
2278 416352.000   37.728214706 -122.138036297   -14.0874   2   6   0.4136   0.4113   0.9880  -0.1773  -0.3782   0.2916  12.00    0.0
2278 416353.000   37.728441504 -122.138074321   -14.4971   2   7   0.4242   0.4192   1.0019  -0.1862  -0.3841   0.3055  13.00    0.0
2278 416354.000   37.728674839 -122.138124480   -14.7986   2   7   0.4357   0.4277   1.0170  -0.1981  -0.3916   0.3215  14.00    0.0
2278 416355.000   37.728911251 -122.138177814   -15.0746   2   7   0.4404   0.4328   1.0209  -0.1976  -0.3891   0.3211 -15.00    0.0
2278 416356.000   37.729143043 -122.138235768   -15.3433   2   9   0.4517   0.4425   1.0390  -0.2133  -0.3978   0.3396 -14.00    0.0
2278 416357.000   37.729371042 -122.138296497   -15.6650   2   7   0.4586   0.4501   1.0482  -0.2146  -0.3959   0.3414 -13.00    0.0
2278 416358.000   37.729597665 -122.138360927   -15.8091   2   8   0.5098   0.5017   1.1114  -0.2999  -0.4744   0.4363 -12.00    0.0
2278 416359.000   37.729641826 -122.137005176  -184.9749   2   5   0.9627   0.8860   1.7839  -0.4488  -1.0886   0.8297 -11.00    0.0
2278 416360.000   37.730032433 -122.138484147   -18.5669   2   6   0.4738   0.4638   1.0856  -0.2138  -0.3863   0.3632 -10.00    0.0
2278 416361.000   37.730245066 -122.138542719   -18.5594   2   7   0.4867   0.4757   1.1009  -0.2101  -0.3877   0.3685  -9.00    0.0
2278 416362.000   37.730461560 -122.138606737   -18.7061   2   9   0.5854   0.7121   1.2639   0.2628  -0.6403   0.3234  -8.00    0.0
2278 416363.000   37.730614945 -122.138552916   -33.9904   4   2   0.4525   0.4457   1.0006  -0.2373  -0.4340   0.4176  -7.00    0.0
2278 416364.000   37.730825360 -122.138648728   -24.0107   2   5   0.4548   0.4126   0.9898  -0.2217  -0.3997   0.4526  -6.00    0.0
2278 416365.000   37.731008457 -122.138665291   -39.0509   2   5   0.4572   0.4163   0.9779  -0.2168  -0.3911   0.4545  -5.00    0.0
2278 416366.000   37.731322503 -122.138853110   -21.4815   2   8   0.5317   0.4778   1.1807  -0.3144  -0.3584   0.4605  -4.00    0.0
2278 416367.000   37.731416643 -122.138772504   -44.7106   2   6   0.4737   0.4210   0.9900  -0.2186  -0.3927   0.4782  -3.00    0.0
2278 416368.000   37.731741928 -122.138975095   -23.5337   2   7   0.5580   0.4993   1.2160  -0.3354  -0.3479   0.4783  -2.00    0.0
2278 416369.000   37.731803444 -122.138883797   -50.5131   2   6   0.4976   0.4300   1.0098  -0.2228  -0.3983   0.5091  -1.00    0.0
2278 416370.000   37.732139636 -122.139079409   -28.2407   2   7   0.6350   0.5496   1.3221  -0.4040  -0.4107   0.5848   0.00    0.0
2278 416371.000   37.732058196 -122.138611979  -118.1067   2   6   1.3390   1.3268   1.8947   0.9398  -1.0087   1.0056   1.00    0.0
2278 416372.000   37.732417874 -122.139050881   -54.1261   2   4   0.5437   0.4568   1.0826  -0.2443  -0.4423   0.5836   2.00    0.0
2278 416373.000   37.732634328 -122.139099907   -54.7119   2   5   0.5557   0.4569   1.0908  -0.2350  -0.4347   0.5973   3.00    0.0
2278 416374.000   37.732836456 -122.139152417   -57.4824   2   5   0.5662   0.4600   1.0994  -0.2266  -0.4293   0.6098   4.00    0.0
2278 416375.000   37.733030614 -122.139190069   -64.3817   2   5   0.5975   0.4678   1.1422  -0.2387  -0.4397   0.6554   5.00    0.0
2278 416376.000   37.733252014 -122.139203723   -63.8342   2   4   0.5922   0.4683   1.1423  -0.2601  -0.4553   0.6516   6.00    0.0
2278 416377.000   37.733492259 -122.139246947   -60.7629   4   3   0.6020   0.4698   1.1676  -0.2707  -0.4720   0.6729   7.00    0.0
2278 416378.000   37.733760887 -122.139306120   -53.2430   2   5   0.6004   0.4703   1.1764  -0.2670  -0.4756   0.6743   8.00    0.0
2278 416379.000   37.734123119 -122.138970829   -83.5744   2   6   0.8158   0.8494   1.6429   0.3346  -0.8951   0.7586   9.00    0.0
2278 416380.000   37.734118379 -122.139561346   -71.8816   2   5   1.3023   0.9735   2.1499  -0.9161  -0.5725   1.2906  10.00    0.0
2278 416381.000   37.734351001 -122.139513982   -58.1070   2   5   0.7345   0.4869   1.3747  -0.1745  -0.4067   0.8659  11.00    0.0
2278 416382.000   37.734477538 -122.139579786   -74.1723   2   4   0.8232   0.4940   1.4732  -0.0513  -0.3602   0.9727  12.00    0.0
2278 416383.000   37.734893707 -122.139463200   -63.8963   2   6   1.4997   1.3730   1.5586   1.2553  -0.5579   0.9347  13.00    0.0
2278 416384.000   37.734590026 -122.139596586  -135.3749   2   5   2.3626   1.7779   3.2075  -1.8366  -1.0027   2.1955  14.00    0.0
2278 416385.000   37.735183008 -122.139763993   -65.8035   2   8   0.7503   0.4809   1.3914  -0.2646  -0.4711   0.8976 -15.00    0.0
2278 416386.000   37.735654795 -122.139658678   -42.4757   2   4   0.7945   0.8333   1.3944   0.5377  -0.7328   0.5774 -14.00    0.0
2278 416387.000   37.735797575 -122.139973113   -39.3158   2   6   0.4164   0.4248   0.9180   0.1194  -0.2942   0.4037 -13.00    0.0
2278 416388.000   37.736020425 -122.140035834   -42.8050   2   8   0.3818   0.4044   0.8572   0.0894  -0.3208   0.3353 -12.00    0.0
2278 416389.000   37.736191684 -122.140008206   -46.0439   2   4   0.3847   0.4012   0.8069  -0.1254  -0.3691   0.2852 -11.00    0.0
2278 416390.000   37.736628484 -122.140323702   -32.5710   2   4   0.5032   0.5696   1.1205  -0.3432  -0.4958   0.2401 -10.00    0.0
2278 416391.000   37.736833928 -122.140255353    -5.5011   2   4   0.3578   0.4353   0.8208  -0.0992  -0.3801   0.1763  -9.00    0.0
2278 416392.000   37.737033419 -122.140410525    16.5710   2   4   0.3699   0.4645   0.8944  -0.1036  -0.4183   0.1846  -8.00    0.0
2278 416393.000   37.737234123 -122.140497896    -1.0509   2   6   0.3842   0.5104   1.1708  -0.1258  -0.5514   0.2333  -7.00    0.0
2278 416394.000   37.737457463 -122.140705944    27.0737   2   4   0.3690   0.4984   1.0576  -0.0986  -0.5389   0.2742  -6.00    0.0
2278 416395.000   37.737662249 -122.140845415    23.3838   2   4   0.3759   0.5278   1.1217  -0.1442  -0.5852   0.3067  -5.00    0.0
2278 416396.000   37.737849080 -122.141003552    20.2459   2   5   0.3829   0.5536   1.2037  -0.1773  -0.6206   0.3070  -4.00    0.0
2278 416397.000   37.738048185 -122.141141933    15.7741   2   4   0.3925   0.5572   1.2426  -0.1847  -0.6301   0.2931  -3.00    0.0
2278 416398.000   37.738225111 -122.141291639    -0.7331   2   6   0.4217   0.5936   1.3189  -0.1531  -0.6600   0.2838  -2.00    0.0
2278 416399.000   37.738409176 -122.141487503     0.6691   2   8   0.4353   0.6053   1.3400  -0.1677  -0.6710   0.2844  -1.00    0.0
2278 416400.000   37.738591218 -122.141708440    11.1614   2   4   0.4895   0.6779   1.3070  -0.2986  -0.7538   0.4350   0.00    0.0
2278 416401.000   37.739955490 -122.144128938   487.5775   2   5   3.4463   5.9027  11.2680  -2.9784  -7.7596   5.3776   1.00    0.0
2278 416402.000   37.738929176 -122.142109700     7.9418   2   4   0.4205   0.6072   1.2905  -0.1317  -0.7078   0.3917   2.00    0.0
2278 416403.000   37.739075416 -122.142344131     1.0212   2   6   0.4575   0.6522   1.4805  -0.1288  -0.7441   0.3599   3.00    0.0
2278 416404.000   37.739276749 -122.142538516     6.8481   2   4   0.4342   0.6482   1.3676  -0.1586  -0.7691   0.4309   4.00    0.0
2278 416405.000   37.739439277 -122.142770672     5.0142   2   5   0.4539   0.6625   1.3800  -0.1022  -0.7737   0.4391   5.00    0.0
2278 416406.000   37.739613004 -122.143022896     8.5081   2   7   0.4623   0.6694   1.3597  -0.0389  -0.7644   0.4391   6.00    0.0
2278 416407.000   37.739788633 -122.143247741     7.8642   2   6   0.4764   0.6821   1.3620   0.1074  -0.7650   0.4434   7.00    0.0
2278 416408.000   37.739978056 -122.143458324     7.8901   2   6   0.4916   0.6987   1.3686   0.1565  -0.7758   0.4373   8.00    0.0
2278 416409.000   37.740169879 -122.143668145     8.1361   2   6   0.5140   0.7232   1.3961   0.1851  -0.7954   0.4625   9.00    0.0
2278 416410.000   37.740377087 -122.143835990     5.4029   2   5   0.5181   0.7384   1.3563   0.2557  -0.7839   0.4068  10.00    0.0
2278 416411.000   37.740578566 -122.144015708     4.4433   2   4   0.5555   0.7574   1.3240   0.3412  -0.7555   0.3922  11.00    0.0
2278 416412.000   37.740813424 -122.144176551     8.8397   2   4   0.4920   0.6927   1.3258   0.2099  -0.7410   0.4106  12.00    0.0
2278 416413.000   37.741029033 -122.144323783     8.5389   2   5   0.4960   0.7005   1.3679   0.1702  -0.7684   0.4435  13.00    0.0
2278 416414.000   37.741243013 -122.144471575     9.3139   2   5   0.4944   0.7062   1.3767   0.1493  -0.7800   0.4489  14.00    0.0
2278 416415.000   37.741458337 -122.144603471     8.1816   2   7   0.5027   0.7228   1.4104   0.1450  -0.8055   0.4658 -15.00    0.0
2278 416416.000   37.741653909 -122.144719055     2.4290   2   6   0.5064   0.7136   1.4129   0.1390  -0.8006   0.4693 -14.00    0.0
2278 416417.000   37.741861731 -122.144884230     5.3704   2   7   0.4952   0.6832   1.3392   0.1772  -0.7462   0.4237 -13.00    0.0
2278 416418.000   37.742070145 -122.145032109     4.2159   2   7   0.4949   0.6858   1.3333   0.1847  -0.7473   0.4113 -12.00    0.0
2278 416419.000   37.742275822 -122.145188856     4.3467   2   5   0.5117   0.7049   1.3530   0.2059  -0.7667   0.4226 -11.00    0.0
2278 416420.000   37.742486351 -122.145364207     5.9001   2   9   0.4943   0.6893   1.3115   0.2119  -0.7405   0.3861 -10.00    0.0
2278 416421.000   37.742688424 -122.145529905     4.4261   2   6   0.5008   0.6918   1.3433   0.1741  -0.7603   0.4214  -9.00    0.0
2278 416422.000   37.742882292 -122.145709414     4.1953   2  10   0.4914   0.6923   1.3215   0.1865  -0.7534   0.3956  -8.00    0.0
2278 416423.000   37.743076041 -122.145914612     5.8135   4   2   0.5188   0.7290   1.3995   0.1706  -0.8067   0.4566  -7.00    0.0
2278 416424.000   37.743233862 -122.146160873     7.2772   2   5   0.5914   0.7948   1.4088   0.3404  -0.8274   0.4467  -6.00    0.0
2278 416425.000   37.743413984 -122.146337725     2.2597   2   6   0.5001   0.7131   1.3760   0.1573  -0.8008   0.4382  -5.00    0.0
2278 416426.000   37.743579239 -122.146569866     3.2146   4   3   0.4923   0.7043   1.3708   0.1307  -0.7951   0.4436  -4.00    0.0
2278 416427.000   37.743737741 -122.146802099     2.8491   2   6   0.6718   0.8418   1.3733  -0.0324  -0.8041   0.4102  -3.00    0.0
2278 416428.000   37.743903081 -122.146999324    -0.0374   2   7   0.5086   0.7124   1.3516  -0.0231  -0.7876   0.4196  -2.00    0.0
2278 416429.000   37.744068943 -122.147222531     2.4927   2   7   0.4908   0.7002   1.3489  -0.0722  -0.7876   0.4132  -1.00    0.0
2278 416430.000   37.744208027 -122.147358235   -16.9151   2   7   0.4757   0.6770   1.3088  -0.0788  -0.7602   0.3980   0.00    0.0
2278 416431.000   37.744385230 -122.147614417     0.5660   4   2   0.4750   0.6849   1.3147  -0.0775  -0.7651   0.3944   1.00    0.0
2278 416432.000   37.744508786 -122.147819139    -3.3416   2   6   0.5808   0.7513   1.3133  -0.3542  -0.7528   0.4017   2.00    0.0
2278 416433.000   37.744671138 -122.147985617    -5.6758   2   4   0.4915   0.7080   1.3622  -0.2181  -0.7952   0.4312   3.00    0.0
2278 416434.000   37.744833815 -122.148135779    -9.6510   4   1   0.5841   0.8707   1.5353   0.2178  -0.9624   0.4505   4.00    0.0
2278 416435.000   37.745195702 -122.147767509   -25.5367   4   2   0.9518   0.9466   1.8203   0.4482  -1.1408   0.4545   5.00    0.0
2278 416436.000   37.745352008 -122.147447675   -17.0984   4   2   1.4009   1.1085   2.1672   0.6823  -1.3231  -0.4892   6.00    0.0
2278 416437.000   37.745056566 -122.148790161   -45.1797   4   2   0.6909   0.9121   1.6612   0.3708  -0.8471   0.5483   7.00    0.0
2278 416438.000   37.745241353 -122.149300176    -8.7467   4   1   0.6857   0.9947   1.7089   0.5028  -0.7812   0.5720   8.00    0.0
2278 416439.000   37.745584889 -122.149572100   -23.0248   2   4   1.3993   1.7718   2.7689   1.2554  -1.3598  -1.1713   9.00    0.0
2278 416440.000   37.745607381 -122.149577308    11.5078   2   5   1.1268   1.2263   2.1984   0.6484  -1.1283   0.4725  10.00    0.0
2278 416441.000   37.746049930 -122.149136026    34.1260   2   8   1.5026   2.1451   3.6780   0.7207  -1.5219  -0.5576  11.00    0.0
2278 416442.000   37.746233159 -122.149521406    -3.6905   4   3   1.0811   1.0453   2.4875  -0.4754  -0.9812   0.5335  12.00    0.0
2278 416443.000   37.746502124 -122.149539259     7.0075   2   7   1.0632   0.9296   2.1964  -0.4229  -0.7486   0.4079  13.00    0.0
2278 416444.000   37.746950645 -122.149642597    -0.1129   2   5   2.0045   1.2965   3.2239  -1.1298  -1.3865   1.5343  14.00    0.0
2278 416445.000   37.747183333 -122.149797298    18.9625   2   6   1.5929   1.2845   3.2265  -0.8252  -1.4805   1.4104 -15.00    0.0
2278 416446.000   37.747320089 -122.149878146     6.0877   2   6   1.5976   1.4608   3.5020  -0.8587  -1.7353   0.9327 -14.00    0.0
2278 416447.000   37.747470855 -122.149931554     5.6995   2   8   1.5882   1.5220   3.7577  -0.1717  -2.0130  -0.1317 -13.00    0.0
2278 416448.000   37.747696553 -122.150110966    22.9419   2   4   1.2990   1.2021   2.7425  -0.5270  -1.3603   0.5516 -12.00    0.0
2278 416449.000   37.747903805 -122.150192990    22.7976   2   7   1.1028   1.1073   2.5084  -0.3192  -1.2313   0.4447 -11.00    0.0
2278 416450.000   37.747333051 -122.148836303  -213.8651   2   4   4.2850   5.5641  11.4124  -4.1751  -7.3401   5.6747 -10.00    0.0
2278 416451.000   37.748123309 -122.149812370    -7.3234   2   4   0.9049   0.9582   1.9566   0.2167  -0.8252  -0.2387  -9.00    0.0
2278 416452.000   37.748051957 -122.149367175   -91.6860   2   5   1.3434   1.4280   1.9852  -0.4725  -0.8921   0.4280  -8.00    0.0
2278 416453.000   37.748136835 -122.148973663  -186.0631   2   4   2.3234   2.6373   2.2590   0.0420  -1.0374   0.8142  -7.00    0.0
2278 416454.000   37.748765979 -122.150170240  -140.0755   2   6   2.5093   3.1407   5.9055  -1.6290  -3.2043   2.1609  -6.00    0.0
2278 416455.000   37.748642626 -122.149892606  -321.0884   4   3   1.1682   2.3669   2.8324  -1.1640  -1.4219   1.0162  -5.00    0.0
2278 416456.000   37.748145583 -122.148424912  -615.3379   4   2   1.5277   3.2183   4.6197  -1.7614  -2.7386   2.0230  -4.00    0.0
2278 416457.000   37.750128491 -122.151567016  -126.9747   4   2   1.6399   2.0946   4.5301  -0.9952  -2.2793   1.3080  -3.00    0.0
2278 416458.000   37.747857142 -122.147195334 -1006.3110   4   2   2.7580   4.2079   7.7136  -2.5064  -4.5485   3.4801  -2.00    0.0
2278 416459.000   37.750226191 -122.151617189   -67.3422   4   3   1.1651   1.4891   4.0780  -0.5359  -2.0610   1.0482  -1.00    0.0
2278 416460.000   37.750234503 -122.151658792   -35.8633   2   5   1.7179   1.5118   3.8495   0.8778  -1.9164  -1.0280   0.00    0.0
2278 416461.000   37.750277981 -122.151124817   -89.7214   4   3   1.2666   1.4472   3.7452  -0.6280  -1.8791   1.2122   1.00    0.0
2278 416462.000   37.750425740 -122.150918890   -39.7911   2   4   1.0829   1.5129   3.4637  -0.7839  -1.7577   1.2370   2.00    0.0
2278 416463.000   37.750633987 -122.150557908   -29.9061   4   0   1.1433   1.8147   3.7501  -1.0681  -1.9181   1.5670   3.00    0.0
2278 416464.000   37.751089847 -122.151373012    34.7297   2   6   1.2900   1.8189   3.4378  -1.0906  -1.0457   1.2386   4.00    0.0
2278 416465.000   37.751242562 -122.151497757    86.4487   2   4   1.9619   2.0482   3.7709  -1.0097   0.6775   1.5200   5.00    0.0
2278 416466.000   37.751748278 -122.151798673   107.9078   4   3   2.9553   2.0804   3.9472  -2.1895  -1.6441   2.6580   6.00    0.0
2278 416467.000   37.751955027 -122.151812713   112.1591   4   2   2.3570   2.0341   3.5670  -1.9043  -0.6086   1.8310   7.00    0.0
2278 416468.000   37.752152437 -122.151839849   107.8971   4   3   1.5849   1.5072   3.1903  -1.1255   0.7250   1.0898   8.00    0.0
