$GPGGA,193327.00,3741.5323240,N,12205.3040060,W,1,0,0.0,21.0746,M,0.0000,M,0.0000,0000*5e
$GPRMC,193327.00,A,3741.5323240,N,12205.3040060,W,0.0019,288.2668,070923,,,,A*67
$GPGGA,193328.00,3741.5323240,N,12205.3040060,W,1,0,0.0,21.0746,M,0.0000,M,0.0000,0000*51
$GPRMC,193328.00,A,3741.5323240,N,12205.3040060,W,0.0000,288.2670,070923,,,,A*69
$GPGGA,193329.00,3741.5323240,N,12205.3040060,W,1,0,0.0,21.0746,M,0.0000,M,0.0000,0000*50
$GPRMC,193329.00,A,3741.5323240,N,12205.3040060,W,0.0000,288.2674,070923,,,,A*6c
$GPGGA,193330.00,3741.5323240,N,12205.3040060,W,1,0,0.0,21.0746,M,0.0000,M,0.0000,0000*58
$GPRMC,193330.00,A,3741.5323240,N,12205.3040060,W,0.0020,288.2677,070923,,,,A*65
$GPGGA,193331.00,3741.5323240,N,12205.3040060,W,1,0,0.0,21.0746,M,0.0000,M,0.0000,0000*59
$GPRMC,193331.00,A,3741.5323240,N,12205.3040060,W,0.0061,288.2679,070923,,,,A*6f
$GPGGA,193332.00,3741.5323240,N,12205.3040060,W,1,0,0.0,21.0746,M,0.0000,M,0.0000,0000*5a
$GPRMC,193332.00,A,3741.5323240,N,12205.3040060,W,0.0039,288.2678,070923,,,,A*60
$GPGGA,193333.00,3741.5323240,N,12205.3040060,W,1,0,0.0,21.0746,M,0.0000,M,0.0000,0000*5b
$GPRMC,193333.00,A,3741.5323240,N,12205.3040060,W,0.0027,288.2671,070923,,,,A*67
$GPGGA,193334.00,3741.5323240,N,12205.3040120,W,1,0,0.0,21.0746,M,0.0000,M,0.0000,0000*59
$GPRMC,193334.00,A,3741.5323240,N,12205.3040120,W,0.0070,288.2686,070923,,,,A*6f
$GPGGA,193335.00,3741.5323240,N,12205.3040120,W,1,0,0.0,21.0756,M,0.0000,M,0.0000,0000*59
$GPRMC,193335.00,A,3741.5323240,N,12205.3040120,W,0.0019,288.2652,070923,,,,A*68
$GPGGA,193336.00,3741.5323240,N,12205.3040120,W,1,0,0.0,21.0756,M,0.0000,M,0.0000,0000*5a
$GPRMC,193336.00,A,3741.5323240,N,12205.3040120,W,0.0019,288.2654,070923,,,,A*6d
$GPGGA,193337.00,3741.5323240,N,12205.3040060,W,1,0,0.0,21.0766,M,0.0000,M,0.0000,0000*5d
$GPRMC,193337.00,A,3741.5323240,N,12205.3040060,W,0.0868,288.2675,070923,,,,A*64
$GPGGA,193338.00,3741.5323000,N,12205.3039160,W,1,0,0.0,21.0826,M,0.0000,M,0.0000,0000*50
$GPRMC,193338.00,A,3741.5323000,N,12205.3039160,W,0.4845,288.3129,070923,,,,A*66
$GPGGA,193339.00,3741.5322400,N,12205.3036520,W,1,0,0.0,21.0976,M,0.0000,M,0.0000,0000*5f
$GPRMC,193339.00,A,3741.5322400,N,12205.3036520,W,1.0937,289.0272,070923,,,,A*63
$GPGGA,193340.00,3741.5322220,N,12205.3031420,W,1,0,0.0,21.1186,M,0.0000,M,0.0000,0000*55
$GPRMC,193340.00,A,3741.5322220,N,12205.3031420,W,1.5957,295.2473,070923,,,,A*64
$GPGGA,193341.00,3741.5321680,N,12205.3024520,W,1,0,0.0,21.1436,M,0.0000,M,0.0000,0000*52
$GPRMC,193341.00,A,3741.5321680,N,12205.3024520,W,1.9621,307.3303,070923,,,,A*64
$GPGGA,193342.00,3741.5320540,N,12205.3019720,W,1,0,0.0,21.1526,M,0.0000,M,0.0000,0000*53
$GPRMC,193342.00,A,3741.5320540,N,12205.3019720,W,0.2581,315.5365,070923,,,,A*63
$GPGGA,193343.00,3741.5320540,N,12205.3019660,W,1,0,0.0,21.1546,M,0.0000,M,0.0000,0000*51
$GPRMC,193343.00,A,3741.5320540,N,12205.3019660,W,0.0191,315.7686,070923,,,,A*6a
$GPGGA,193344.00,3741.5320960,N,12205.3020200,W,1,0,0.0,21.1446,M,0.0000,M,0.0000,0000*51
$GPRMC,193344.00,A,3741.5320960,N,12205.3020200,W,0.9201,315.9359,070923,,,,A*61
$GPGGA,193345.00,3741.5325280,N,12205.3024520,W,1,0,0.0,21.1166,M,0.0000,M,0.0000,0000*56
$GPRMC,193345.00,A,3741.5325280,N,12205.3024520,W,3.2255,318.1942,070923,,,,A*6d
$GPGGA,193346.00,3741.5336020,N,12205.3033460,W,1,0,0.0,21.0506,M,0.0000,M,0.0000,0000*5f
$GPRMC,193346.00,A,3741.5336020,N,12205.3033460,W,5.9591,324.3098,070923,,,,A*66
$GPGGA,193347.00,3741.5354080,N,12205.3044440,W,1,0,0.0,20.9456,M,0.0000,M,0.0000,0000*5e
$GPRMC,193347.00,A,3741.5354080,N,12205.3044440,W,8.3235,333.7313,070923,,,,A*67
$GPGGA,193348.00,3741.5379400,N,12205.3053320,W,1,0,0.0,20.8776,M,0.0000,M,0.0000,0000*55
$GPRMC,193348.00,A,3741.5379400,N,12205.3053320,W,10.1362,345.4393,070923,,,,A*5e
$GPGGA,193349.00,3741.5407540,N,12205.3058780,W,1,0,0.0,20.7996,M,0.0000,M,0.0000,0000*55
$GPRMC,193349.00,A,3741.5407540,N,12205.3058780,W,10.6699,351.1071,070923,,,,A*58
$GPGGA,193350.00,3741.5439460,N,12205.3065800,W,1,0,0.0,20.6626,M,0.0000,M,0.0000,0000*5f
$GPRMC,193350.00,A,3741.5439460,N,12205.3065800,W,12.6410,348.8182,070923,,,,A*5a
$GPGGA,193351.00,3741.5475520,N,12205.3080620,W,1,0,0.0,20.4926,M,0.0000,M,0.0000,0000*59
$GPRMC,193351.00,A,3741.5475520,N,12205.3080620,W,14.5150,339.7477,070923,,,,A*53
$GPGGA,193352.00,3741.5512900,N,12205.3102100,W,1,0,0.0,20.3046,M,0.0000,M,0.0000,0000*52
$GPRMC,193352.00,A,3741.5512900,N,12205.3102100,W,14.9688,334.2521,070923,,,,A*54
$GPGGA,193353.00,3741.5550100,N,12205.3126880,W,1,0,0.0,20.1246,M,0.0000,M,0.0000,0000*5a
$GPRMC,193353.00,A,3741.5550100,N,12205.3126880,W,15.2289,331.5127,070923,,,,A*53
$GPGGA,193354.00,3741.5587000,N,12205.3153160,W,1,0,0.0,19.9186,M,0.0000,M,0.0000,0000*5e
$GPRMC,193354.00,A,3741.5587000,N,12205.3153160,W,15.2709,330.0972,070923,,,,A*5b
$GPGGA,193355.00,3741.5623660,N,12205.3180160,W,1,0,0.0,19.7536,M,0.0000,M,0.0000,0000*5d
$GPRMC,193355.00,A,3741.5623660,N,12205.3180160,W,15.3088,329.4150,070923,,,,A*52
$GPGGA,193356.00,3741.5660080,N,12205.3207460,W,1,0,0.0,19.6096,M,0.0000,M,0.0000,0000*56
$GPRMC,193356.00,A,3741.5660080,N,12205.3207460,W,14.8990,328.9391,070923,,,,A*5e
$GPGGA,193357.00,3741.5693440,N,12205.3232420,W,1,0,0.0,19.4616,M,0.0000,M,0.0000,0000*5d
$GPRMC,193357.00,A,3741.5693440,N,12205.3232420,W,12.9642,329.4575,070923,,,,A*5e
$GPGGA,193358.00,3741.5722900,N,12205.3252160,W,1,0,0.0,19.3376,M,0.0000,M,0.0000,0000*53
$GPRMC,193358.00,A,3741.5722900,N,12205.3252160,W,11.1743,333.0300,070923,,,,A*54
$GPGGA,193359.00,3741.5750440,N,12205.3263680,W,1,0,0.0,19.2416,M,0.0000,M,0.0000,0000*55
$GPRMC,193359.00,A,3741.5750440,N,12205.3263680,W,9.7994,344.6587,070923,,,,A*66
$GPGGA,193400.00,3741.5777080,N,12205.3264880,W,1,0,0.0,19.1586,M,0.0000,M,0.0000,0000*51
$GPRMC,193400.00,A,3741.5777080,N,12205.3264880,W,9.3601,358.4937,070923,,,,A*66
$GPGGA,193401.00,3741.5801140,N,12205.3265420,W,1,0,0.0,19.0866,M,0.0000,M,0.0000,0000*56
$GPRMC,193401.00,A,3741.5801140,N,12205.3265420,W,7.7207,358.0915,070923,,,,A*6f
$GPGGA,193402.00,3741.5819260,N,12205.3267940,W,1,0,0.0,19.0446,M,0.0000,M,0.0000,0000*5a
$GPRMC,193402.00,A,3741.5819260,N,12205.3267940,W,5.2956,354.0545,070923,,,,A*60
$GPGGA,193403.00,3741.5830780,N,12205.3270880,W,1,0,0.0,19.0166,M,0.0000,M,0.0000,0000*57
$GPRMC,193403.00,A,3741.5830780,N,12205.3270880,W,3.3179,350.3749,070923,,,,A*61
$GPGGA,193404.00,3741.5837620,N,12205.3272980,W,1,0,0.0,19.0106,M,0.0000,M,0.0000,0000*59
$GPRMC,193404.00,A,3741.5837620,N,12205.3272980,W,1.6565,348.3073,070923,,,,A*60
$GPGGA,193405.00,3741.5839780,N,12205.3273760,W,1,0,0.0,18.9966,M,0.0000,M,0.0000,0000*5a
$GPRMC,193405.00,A,3741.5839780,N,12205.3273760,W,0.4953,347.5523,070923,,,,A*66
$GPGGA,193406.00,3741.5840620,N,12205.3274060,W,1,0,0.0,18.9906,M,0.0000,M,0.0000,0000*5a
$GPRMC,193406.00,A,3741.5840620,N,12205.3274060,W,0.0400,347.2705,070923,,,,A*6e
$GPGGA,193407.00,3741.5840740,N,12205.3274120,W,1,0,0.0,18.9876,M,0.0000,M,0.0000,0000*5f
$GPRMC,193407.00,A,3741.5840740,N,12205.3274120,W,0.0534,347.2265,070923,,,,A*68
$GPGGA,193408.00,3741.5841940,N,12205.3274540,W,1,0,0.0,18.9706,M,0.0000,M,0.0000,0000*55
$GPRMC,193408.00,A,3741.5841940,N,12205.3274540,W,1.1973,346.8251,070923,,,,A*69
$GPGGA,193409.00,3741.5847160,N,12205.3276580,W,1,0,0.0,18.9116,M,0.0000,M,0.0000,0000*51
$GPRMC,193409.00,A,3741.5847160,N,12205.3276580,W,2.6657,345.3539,070923,,,,A*66
$GPGGA,193410.00,3741.5855980,N,12205.3280300,W,1,0,0.0,18.7676,M,0.0000,M,0.0000,0000*54
$GPRMC,193410.00,A,3741.5855980,N,12205.3280300,W,3.4631,342.5917,070923,,,,A*6e
$GPGGA,193411.00,3741.5864500,N,12205.3284980,W,1,0,0.0,18.6265,M,0.0000,M,0.0000,0000*52
$GPRMC,193411.00,A,3741.5864500,N,12205.3284980,W,3.2784,339.1138,070923,,,,A*6b
$GPGGA,193412.00,3741.5872540,N,12205.3289960,W,1,0,0.0,18.5817,M,0.0000,M,0.0000,0000*5d
$GPRMC,193412.00,A,3741.5872540,N,12205.3289960,W,2.9961,335.5019,070923,,,,A*6d
$GPGGA,193413.00,3741.5879920,N,12205.3296800,W,1,0,0.0,18.6857,M,0.0000,M,0.0000,0000*53
$GPRMC,193413.00,A,3741.5879920,N,12205.3296800,W,3.5526,327.9804,070923,,,,A*6d
$GPGGA,193414.00,3741.5885920,N,12205.3306700,W,1,0,0.0,18.7857,M,0.0000,M,0.0000,0000*51
$GPRMC,193414.00,A,3741.5885920,N,12205.3306700,W,3.3357,314.9384,070923,,,,A*6b
$GPGGA,193415.00,3741.5888920,N,12205.3317020,W,1,0,0.0,18.8797,M,0.0000,M,0.0000,0000*54
$GPRMC,193415.00,A,3741.5888920,N,12205.3317020,W,2.4619,300.9680,070923,,,,A*6f
$GPGGA,193416.00,3741.5890240,N,12205.3325300,W,1,0,0.0,18.9216,M,0.0000,M,0.0000,0000*5e
$GPRMC,193416.00,A,3741.5890240,N,12205.3325300,W,2.6937,291.5231,070923,,,,A*62
$GPGGA,193417.00,3741.5891620,N,12205.3340120,W,1,0,0.0,18.9456,M,0.0000,M,0.0000,0000*5d
$GPRMC,193417.00,A,3741.5891620,N,12205.3340120,W,5.8412,281.7012,070923,,,,A*60
$GPGGA,193418.00,3741.5894200,N,12205.3364900,W,1,0,0.0,18.9916,M,0.0000,M,0.0000,0000*54
$GPRMC,193418.00,A,3741.5894200,N,12205.3364900,W,8.1885,277.7881,070923,,,,A*6d
$GPGGA,193419.00,3741.5895100,N,12205.3394780,W,1,0,0.0,19.0496,M,0.0000,M,0.0000,0000*53
$GPRMC,193419.00,A,3741.5895100,N,12205.3394780,W,8.6028,271.4119,070923,,,,A*62
$GPGGA,193420.00,3741.5893060,N,12205.3424180,W,1,0,0.0,19.0796,M,0.0000,M,0.0000,0000*51
$GPRMC,193420.00,A,3741.5893060,N,12205.3424180,W,8.4480,264.4377,070923,,,,A*69
$GPGGA,193421.00,3741.5888140,N,12205.3453820,W,1,0,0.0,19.1186,M,0.0000,M,0.0000,0000*5c
$GPRMC,193421.00,A,3741.5888140,N,12205.3453820,W,8.5999,257.6852,070923,,,,A*68
$GPGGA,193422.00,3741.5880760,N,12205.3481660,W,1,0,0.0,19.1656,M,0.0000,M,0.0000,0000*5c
$GPRMC,193422.00,A,3741.5880760,N,12205.3481660,W,8.1002,251.2109,070923,,,,A*68
$GPGGA,193423.00,3741.5872780,N,12205.3504460,W,1,0,0.0,19.2126,M,0.0000,M,0.0000,0000*53
$GPRMC,193423.00,A,3741.5872780,N,12205.3504460,W,5.9602,246.5280,070923,,,,A*64
$GPGGA,193424.00,3741.5866840,N,12205.3519940,W,1,0,0.0,19.2446,M,0.0000,M,0.0000,0000*52
$GPRMC,193424.00,A,3741.5866840,N,12205.3519940,W,3.9785,244.7160,070923,,,,A*63
$GPGGA,193425.00,3741.5862760,N,12205.3529900,W,1,0,0.0,19.2686,M,0.0000,M,0.0000,0000*53
$GPRMC,193425.00,A,3741.5862760,N,12205.3529900,W,2.5714,243.2807,070923,,,,A*63
$GPGGA,193426.00,3741.5859820,N,12205.3536800,W,1,0,0.0,19.2886,M,0.0000,M,0.0000,0000*52
$GPRMC,193426.00,A,3741.5859820,N,12205.3536800,W,1.8140,242.6961,070923,,,,A*61
$GPGGA,193427.00,3741.5858200,N,12205.3540760,W,1,0,0.0,19.2986,M,0.0000,M,0.0000,0000*53
$GPRMC,193427.00,A,3741.5858200,N,12205.3540760,W,0.7108,242.6181,070923,,,,A*65
$GPGGA,193428.00,3741.5857540,N,12205.3542440,W,1,0,0.0,19.3006,M,0.0000,M,0.0000,0000*53
$GPRMC,193428.00,A,3741.5857540,N,12205.3542440,W,0.4336,242.6422,070923,,,,A*65
$GPGGA,193429.00,3741.5857240,N,12205.3543160,W,1,0,0.0,19.3006,M,0.0000,M,0.0000,0000*53
$GPRMC,193429.00,A,3741.5857240,N,12205.3543160,W,0.1112,242.6484,070923,,,,A*68
$GPGGA,193430.00,3741.5857240,N,12205.3543220,W,1,0,0.0,19.2996,M,0.0000,M,0.0000,0000*5d
$GPRMC,193430.00,A,3741.5857240,N,12205.3543220,W,0.0043,242.6506,070923,,,,A*68
$GPGGA,193431.00,3741.5857240,N,12205.3543220,W,1,0,0.0,19.2986,M,0.0000,M,0.0000,0000*5d
$GPRMC,193431.00,A,3741.5857240,N,12205.3543220,W,0.0020,242.6503,070923,,,,A*69
$GPGGA,193432.00,3741.5857240,N,12205.3543220,W,1,0,0.0,19.2986,M,0.0000,M,0.0000,0000*5e
$GPRMC,193432.00,A,3741.5857240,N,12205.3543220,W,0.0019,242.6487,070923,,,,A*6d
$GPGGA,193433.00,3741.5857240,N,12205.3543220,W,1,0,0.0,19.2986,M,0.0000,M,0.0000,0000*5f
$GPRMC,193433.00,A,3741.5857240,N,12205.3543220,W,0.0000,242.6489,070923,,,,A*6a
$GPGGA,193434.00,3741.5857240,N,12205.3543220,W,1,0,0.0,19.2986,M,0.0000,M,0.0000,0000*58
$GPRMC,193434.00,A,3741.5857240,N,12205.3543220,W,0.0027,242.6486,070923,,,,A*67
$GPGGA,193435.00,3741.5857240,N,12205.3543220,W,1,0,0.0,19.2986,M,0.0000,M,0.0000,0000*59
$GPRMC,193435.00,A,3741.5857240,N,12205.3543220,W,0.0000,242.6484,070923,,,,A*61
$GPGGA,193436.00,3741.5857240,N,12205.3543220,W,1,0,0.0,19.2986,M,0.0000,M,0.0000,0000*5a
$GPRMC,193436.00,A,3741.5857240,N,12205.3543220,W,0.0000,242.6485,070923,,,,A*63
$GPGGA,193437.00,3741.5857240,N,12205.3543220,W,1,0,0.0,19.2986,M,0.0000,M,0.0000,0000*5b
$GPRMC,193437.00,A,3741.5857240,N,12205.3543220,W,0.0000,242.6484,070923,,,,A*63
$GPGGA,193438.00,3741.5857240,N,12205.3543220,W,1,0,0.0,19.2986,M,0.0000,M,0.0000,0000*54
$GPRMC,193438.00,A,3741.5857240,N,12205.3543220,W,0.0000,242.6482,070923,,,,A*6a
$GPGGA,193439.00,3741.5857240,N,12205.3543220,W,1,0,0.0,19.2986,M,0.0000,M,0.0000,0000*55
$GPRMC,193439.00,A,3741.5857240,N,12205.3543220,W,0.0000,242.6486,070923,,,,A*6f
$GPGGA,193440.00,3741.5857240,N,12205.3543220,W,1,0,0.0,19.2986,M,0.0000,M,0.0000,0000*5b
$GPRMC,193440.00,A,3741.5857240,N,12205.3543220,W,0.0000,242.6481,070923,,,,A*66
$GPGGA,193441.00,3741.5857240,N,12205.3543220,W,1,0,0.0,19.2986,M,0.0000,M,0.0000,0000*5a
$GPRMC,193441.00,A,3741.5857240,N,12205.3543220,W,0.0000,242.6477,070923,,,,A*6e
$GPGGA,193442.00,3741.5857240,N,12205.3543220,W,1,0,0.0,19.2986,M,0.0000,M,0.0000,0000*59
$GPRMC,193442.00,A,3741.5857240,N,12205.3543220,W,0.0019,242.6477,070923,,,,A*65
$GPGGA,193443.00,3741.5857240,N,12205.3543220,W,1,0,0.0,19.2986,M,0.0000,M,0.0000,0000*58
$GPRMC,193443.00,A,3741.5857240,N,12205.3543220,W,0.0027,242.6478,070923,,,,A*66
$GPGGA,193444.00,3741.5857240,N,12205.3543220,W,1,0,0.0,19.2986,M,0.0000,M,0.0000,0000*5f
$GPRMC,193444.00,A,3741.5857240,N,12205.3543220,W,0.0019,242.6480,070923,,,,A*6b
$GPGGA,193445.00,3741.5857240,N,12205.3543220,W,1,0,0.0,19.2986,M,0.0000,M,0.0000,0000*5e
$GPRMC,193445.00,A,3741.5857240,N,12205.3543220,W,0.0019,242.6479,070923,,,,A*6c
$GPGGA,193446.00,3741.5857180,N,12205.3543280,W,1,0,0.0,19.2966,M,0.0000,M,0.0000,0000*56
$GPRMC,193446.00,A,3741.5857180,N,12205.3543280,W,0.1534,242.6512,070923,,,,A*6d
$GPGGA,193447.00,3741.5856220,N,12205.3545740,W,1,0,0.0,19.3006,M,0.0000,M,0.0000,0000*5e
$GPRMC,193447.00,A,3741.5856220,N,12205.3545740,W,1.4340,242.6717,070923,,,,A*6d
$GPGGA,193448.00,3741.5853580,N,12205.3552160,W,1,0,0.0,19.3126,M,0.0000,M,0.0000,0000*58
$GPRMC,193448.00,A,3741.5853580,N,12205.3552160,W,2.9298,242.7361,070923,,,,A*66
$GPGGA,193449.00,3741.5848420,N,12205.3565120,W,1,0,0.0,19.3436,M,0.0000,M,0.0000,0000*5c
$GPRMC,193449.00,A,3741.5848420,N,12205.3565120,W,5.2984,242.8624,070923,,,,A*67
$GPGGA,193450.00,3741.5840200,N,12205.3585460,W,1,0,0.0,19.3897,M,0.0000,M,0.0000,0000*50
$GPRMC,193450.00,A,3741.5840200,N,12205.3585460,W,7.7455,243.0395,070923,,,,A*6c
$GPGGA,193451.00,3741.5829520,N,12205.3612280,W,1,0,0.0,19.4696,M,0.0000,M,0.0000,0000*56
$GPRMC,193451.00,A,3741.5829520,N,12205.3612280,W,9.1746,243.2607,070923,,,,A*67
$GPGGA,193452.00,3741.5816860,N,12205.3644860,W,1,0,0.0,19.5647,M,0.0000,M,0.0000,0000*5a
$GPRMC,193452.00,A,3741.5816860,N,12205.3644860,W,11.5153,243.9074,070923,,,,A*50
$GPGGA,193453.00,3741.5802280,N,12205.3685120,W,1,0,0.0,19.7297,M,0.0000,M,0.0000,0000*51
$GPRMC,193453.00,A,3741.5802280,N,12205.3685120,W,13.7546,245.7413,070923,,,,A*5d
$GPGGA,193454.00,3741.5787160,N,12205.3731680,W,1,0,0.0,19.8817,M,0.0000,M,0.0000,0000*57
$GPRMC,193454.00,A,3741.5787160,N,12205.3731680,W,14.5880,247.8895,070923,,,,A*5b
$GPGGA,193455.00,3741.5771500,N,12205.3782140,W,1,0,0.0,20.0187,M,0.0000,M,0.0000,0000*5c
$GPRMC,193455.00,A,3741.5771500,N,12205.3782140,W,16.4511,248.4370,070923,,,,A*57
$GPGGA,193456.00,3741.5752480,N,12205.3838240,W,1,0,0.0,20.2997,M,0.0000,M,0.0000,0000*51
$GPRMC,193456.00,A,3741.5752480,N,12205.3838240,W,18.3949,245.7801,070923,,,,A*5a
$GPGGA,193457.00,3741.5728780,N,12205.3899800,W,1,0,0.0,20.5847,M,0.0000,M,0.0000,0000*50
$GPRMC,193457.00,A,3741.5728780,N,12205.3899800,W,20.6956,243.3023,070923,,,,A*5a
$GPGGA,193458.00,3741.5701540,N,12205.3969280,W,1,0,0.0,20.8767,M,0.0000,M,0.0000,0000*56
$GPRMC,193458.00,A,3741.5701540,N,12205.3969280,W,23.6596,244.2003,070923,,,,A*5b
$GPGGA,193459.00,3741.5671840,N,12205.4048900,W,1,0,0.0,21.3478,M,0.0000,M,0.0000,0000*55
$GPRMC,193459.00,A,3741.5671840,N,12205.4048900,W,26.5951,244.8492,070923,,,,A*58
$GPGGA,193500.00,3741.5637280,N,12205.4136560,W,1,0,0.0,21.9928,M,0.0000,M,0.0000,0000*5c
$GPRMC,193500.00,A,3741.5637280,N,12205.4136560,W,29.2615,242.4635,070923,,,,A*51
$GPGGA,193501.00,3741.5596540,N,12205.4230220,W,1,0,0.0,22.6188,M,0.0000,M,0.0000,0000*56
$GPRMC,193501.00,A,3741.5596540,N,12205.4230220,W,31.5863,240.5437,070923,,,,A*57
$GPGGA,193502.00,3741.5551420,N,12205.4328200,W,1,0,0.0,23.2298,M,0.0000,M,0.0000,0000*54
$GPRMC,193502.00,A,3741.5551420,N,12205.4328200,W,32.9408,239.4243,070923,,,,A*56
$GPGGA,193503.00,3741.5503540,N,12205.4427800,W,1,0,0.0,23.7558,M,0.0000,M,0.0000,0000*59
$GPRMC,193503.00,A,3741.5503540,N,12205.4427800,W,33.2014,238.1674,070923,,,,A*52
$GPGGA,193504.00,3741.5454880,N,12205.4524460,W,1,0,0.0,24.2818,M,0.0000,M,0.0000,0000*5f
$GPRMC,193504.00,A,3741.5454880,N,12205.4524460,W,32.1628,237.1324,070923,,,,A*5b
$GPGGA,193505.00,3741.5405620,N,12205.4616440,W,1,0,0.0,24.8448,M,0.0000,M,0.0000,0000*5d
$GPRMC,193505.00,A,3741.5405620,N,12205.4616440,W,31.4987,235.2442,070923,,,,A*50
$GPGGA,193506.00,3741.5355340,N,12205.4707940,W,1,0,0.0,25.3738,M,0.0000,M,0.0000,0000*5d
$GPRMC,193506.00,A,3741.5355340,N,12205.4707940,W,32.1606,235.2949,070923,,,,A*58
$GPGGA,193507.00,3741.5303140,N,12205.4801180,W,1,0,0.0,25.7877,M,0.0000,M,0.0000,0000*50
$GPRMC,193507.00,A,3741.5303140,N,12205.4801180,W,33.0662,234.3482,070923,,,,A*5d
$GPGGA,193508.00,3741.5248780,N,12205.4896940,W,1,0,0.0,25.9917,M,0.0000,M,0.0000,0000*58
$GPRMC,193508.00,A,3741.5248780,N,12205.4896940,W,34.1668,234.3235,070923,,,,A*5a
$GPGGA,193509.00,3741.5192200,N,12205.4994980,W,1,0,0.0,26.1807,M,0.0000,M,0.0000,0000*54
$GPRMC,193509.00,A,3741.5192200,N,12205.4994980,W,35.0410,233.6521,070923,,,,A*50
$GPGGA,193510.00,3741.5133700,N,12205.5094760,W,1,0,0.0,26.3117,M,0.0000,M,0.0000,0000*50
$GPRMC,193510.00,A,3741.5133700,N,12205.5094760,W,35.8057,233.3666,070923,,,,A*54
$GPGGA,193511.00,3741.5073640,N,12205.5196400,W,1,0,0.0,26.4146,M,0.0000,M,0.0000,0000*54
$GPRMC,193511.00,A,3741.5073640,N,12205.5196400,W,36.5826,233.2902,070923,,,,A*5f
$GPGGA,193512.00,3741.5012560,N,12205.5300740,W,1,0,0.0,26.2906,M,0.0000,M,0.0000,0000*51
$GPRMC,193512.00,A,3741.5012560,N,12205.5300740,W,37.5394,233.8360,070923,,,,A*57
$GPGGA,193513.00,3741.4951420,N,12205.5408500,W,1,0,0.0,25.9575,M,0.0000,M,0.0000,0000*53
$GPRMC,193513.00,A,3741.4951420,N,12205.5408500,W,37.8911,234.8281,070923,,,,A*56
$GPGGA,193514.00,3741.4891180,N,12205.5517220,W,1,0,0.0,25.3814,M,0.0000,M,0.0000,0000*5c
$GPRMC,193514.00,A,3741.4891180,N,12205.5517220,W,37.8468,235.2593,070923,,,,A*55
$GPGGA,193515.00,3741.4831900,N,12205.5627200,W,1,0,0.0,24.5103,M,0.0000,M,0.0000,0000*5d
$GPRMC,193515.00,A,3741.4831900,N,12205.5627200,W,38.3274,236.3891,070923,,,,A*5e
$GPGGA,193516.00,3741.4772560,N,12205.5741500,W,1,0,0.0,23.7214,M,0.0000,M,0.0000,0000*5a
$GPRMC,193516.00,A,3741.4772560,N,12205.5741500,W,39.6917,237.4023,070923,,,,A*54
$GPGGA,193517.00,3741.4714120,N,12205.5861500,W,1,0,0.0,23.2816,M,0.0000,M,0.0000,0000*5b
$GPRMC,193517.00,A,3741.4714120,N,12205.5861500,W,40.6949,239.4041,070923,,,,A*57
$GPGGA,193518.00,3741.4660060,N,12205.5987140,W,1,0,0.0,23.3667,M,0.0000,M,0.0000,0000*53
$GPRMC,193518.00,A,3741.4660060,N,12205.5987140,W,40.6410,243.8343,070923,,,,A*57
$GPGGA,193519.00,3741.4615660,N,12205.6116380,W,1,0,0.0,23.6138,M,0.0000,M,0.0000,0000*53
$GPRMC,193519.00,A,3741.4615660,N,12205.6116380,W,39.9321,248.4881,070923,,,,A*59
$GPGGA,193520.00,3741.4579420,N,12205.6248560,W,1,0,0.0,23.7506,M,0.0000,M,0.0000,0000*5e
$GPRMC,193520.00,A,3741.4579420,N,12205.6248560,W,40.0495,252.6167,070923,,,,A*5b
$GPGGA,193521.00,3741.4550320,N,12205.6384340,W,1,0,0.0,23.7906,M,0.0000,M,0.0000,0000*5a
$GPRMC,193521.00,A,3741.4550320,N,12205.6384340,W,40.3953,256.5929,070923,,,,A*52
$GPGGA,193522.00,3741.4528360,N,12205.6524140,W,1,0,0.0,23.7106,M,0.0000,M,0.0000,0000*54
$GPRMC,193522.00,A,3741.4528360,N,12205.6524140,W,41.1286,260.3351,070923,,,,A*52
$GPGGA,193523.00,3741.4512340,N,12205.6668260,W,1,0,0.0,23.4755,M,0.0000,M,0.0000,0000*57
$GPRMC,193523.00,A,3741.4512340,N,12205.6668260,W,42.0589,262.8353,070923,,,,A*53
$GPGGA,193524.00,3741.4499200,N,12205.6816280,W,1,0,0.0,23.0435,M,0.0000,M,0.0000,0000*5f
$GPRMC,193524.00,A,3741.4499200,N,12205.6816280,W,43.0866,263.8461,070923,,,,A*50
$GPGGA,193525.00,3741.4487260,N,12205.6968200,W,1,0,0.0,22.5345,M,0.0000,M,0.0000,0000*53
$GPRMC,193525.00,A,3741.4487260,N,12205.6968200,W,44.1743,264.5493,070923,,,,A*51
$GPGGA,193526.00,3741.4476700,N,12205.7124020,W,1,0,0.0,21.9834,M,0.0000,M,0.0000,0000*5e
$GPRMC,193526.00,A,3741.4476700,N,12205.7124020,W,45.1575,265.3615,070923,,,,A*53
$GPGGA,193527.00,3741.4467760,N,12205.7282060,W,1,0,0.0,21.3824,M,0.0000,M,0.0000,0000*59
$GPRMC,193527.00,A,3741.4467760,N,12205.7282060,W,45.3671,266.1702,070923,,,,A*5c
$GPGGA,193528.00,3741.4460380,N,12205.7442260,W,1,0,0.0,20.7434,M,0.0000,M,0.0000,0000*5b
$GPRMC,193528.00,A,3741.4460380,N,12205.7442260,W,46.5419,266.7895,070923,,,,A*58
$GPGGA,193529.00,3741.4454260,N,12205.7607980,W,1,0,0.0,20.1385,M,0.0000,M,0.0000,0000*5f
$GPRMC,193529.00,A,3741.4454260,N,12205.7607980,W,48.2290,267.5269,070923,,,,A*53
$GPGGA,193530.00,3741.4450360,N,12205.7778200,W,1,0,0.0,19.8045,M,0.0000,M,0.0000,0000*54
$GPRMC,193530.00,A,3741.4450360,N,12205.7778200,W,48.7638,269.0172,070923,,,,A*55
$GPGGA,193531.00,3741.4451860,N,12205.7948240,W,1,0,0.0,19.5966,M,0.0000,M,0.0000,0000*53
$GPRMC,193531.00,A,3741.4451860,N,12205.7948240,W,48.3607,271.9084,070923,,,,A*57
$GPGGA,193532.00,3741.4459960,N,12205.8116060,W,1,0,0.0,19.4556,M,0.0000,M,0.0000,0000*5b
$GPRMC,193532.00,A,3741.4459960,N,12205.8116060,W,47.7457,274.8462,070923,,,,A*55
$GPGGA,193533.00,3741.4475260,N,12205.8280880,W,1,0,0.0,19.3846,M,0.0000,M,0.0000,0000*5e
$GPRMC,193533.00,A,3741.4475260,N,12205.8280880,W,47.2352,277.9229,070923,,,,A*57
$GPGGA,193534.00,3741.4496800,N,12205.8444560,W,1,0,0.0,19.3656,M,0.0000,M,0.0000,0000*5a
$GPRMC,193534.00,A,3741.4496800,N,12205.8444560,W,47.7018,280.3825,070923,,,,A*50
$GPGGA,193535.00,3741.4523740,N,12205.8609380,W,1,0,0.0,19.3946,M,0.0000,M,0.0000,0000*52
$GPRMC,193535.00,A,3741.4523740,N,12205.8609380,W,48.4507,282.6811,070923,,,,A*51
$GPGGA,193536.00,3741.4556800,N,12205.8775280,W,1,0,0.0,19.4406,M,0.0000,M,0.0000,0000*5d
$GPRMC,193536.00,A,3741.4556800,N,12205.8775280,W,49.3004,285.0006,070923,,,,A*5f
$GPGGA,193537.00,3741.4595380,N,12205.8942380,W,1,0,0.0,19.4746,M,0.0000,M,0.0000,0000*5c
$GPRMC,193537.00,A,3741.4595380,N,12205.8942380,W,50.2026,286.5832,070923,,,,A*59
$GPGGA,193538.00,3741.4637440,N,12205.9112300,W,1,0,0.0,19.4777,M,0.0000,M,0.0000,0000*55
$GPRMC,193538.00,A,3741.4637440,N,12205.9112300,W,51.5488,287.6658,070923,,,,A*54
$GPGGA,193539.00,3741.4684420,N,12205.9285220,W,1,0,0.0,19.4886,M,0.0000,M,0.0000,0000*55
$GPRMC,193539.00,A,3741.4684420,N,12205.9285220,W,52.7201,289.8426,070923,,,,A*58
$GPGGA,193540.00,3741.4738120,N,12205.9457240,W,1,0,0.0,19.4846,M,0.0000,M,0.0000,0000*5b
$GPRMC,193540.00,A,3741.4738120,N,12205.9457240,W,52.8890,293.0359,070923,,,,A*5b
$GPGGA,193541.00,3741.4799740,N,12205.9625540,W,1,0,0.0,19.3906,M,0.0000,M,0.0000,0000*53
$GPRMC,193541.00,A,3741.4799740,N,12205.9625540,W,53.0290,295.9265,070923,,,,A*53
$GPGGA,193542.00,3741.4868140,N,12205.9790300,W,1,0,0.0,19.2516,M,0.0000,M,0.0000,0000*56
$GPRMC,193542.00,A,3741.4868140,N,12205.9790300,W,53.2186,298.9679,070923,,,,A*58
$GPGGA,193543.00,3741.4943020,N,12205.9951280,W,1,0,0.0,19.1216,M,0.0000,M,0.0000,0000*56
$GPRMC,193543.00,A,3741.4943020,N,12205.9951280,W,53.3721,301.3499,070923,,,,A*51
$GPGGA,193544.00,3741.5023180,N,12206.0108660,W,1,0,0.0,19.0366,M,0.0000,M,0.0000,0000*57
$GPRMC,193544.00,A,3741.5023180,N,12206.0108660,W,53.5099,303.8131,070923,,,,A*5b
$GPGGA,193545.00,3741.5109280,N,12206.0261660,W,1,0,0.0,18.9426,M,0.0000,M,0.0000,0000*5b
$GPRMC,193545.00,A,3741.5109280,N,12206.0261660,W,53.6146,306.8233,070923,,,,A*58
$GPGGA,193546.00,3741.5202040,N,12206.0408900,W,1,0,0.0,18.7816,M,0.0000,M,0.0000,0000*5f
$GPRMC,193546.00,A,3741.5202040,N,12206.0408900,W,53.7528,309.7265,070923,,,,A*53
$GPGGA,193547.00,3741.5300140,N,12206.0551100,W,1,0,0.0,18.6296,M,0.0000,M,0.0000,0000*5a
$GPRMC,193547.00,A,3741.5300140,N,12206.0551100,W,53.9064,312.0592,070923,,,,A*54
$GPGGA,193548.00,3741.5402920,N,12206.0688920,W,1,0,0.0,18.4266,M,0.0000,M,0.0000,0000*5e
$GPRMC,193548.00,A,3741.5402920,N,12206.0688920,W,54.0787,313.9890,070923,,,,A*5e
$GPGGA,193549.00,3741.5509480,N,12206.0823200,W,1,0,0.0,18.2116,M,0.0000,M,0.0000,0000*56
$GPRMC,193549.00,A,3741.5509480,N,12206.0823200,W,54.4077,315.6578,070923,,,,A*5a
$GPGGA,193550.00,3741.5620720,N,12206.0954180,W,1,0,0.0,18.0086,M,0.0000,M,0.0000,0000*5f
$GPRMC,193550.00,A,3741.5620720,N,12206.0954180,W,55.2709,318.0718,070923,,,,A*5f
$GPGGA,193551.00,3741.5738860,N,12206.1081740,W,1,0,0.0,17.8056,M,0.0000,M,0.0000,0000*5d
$GPRMC,193551.00,A,3741.5738860,N,12206.1081740,W,56.8295,320.6536,070923,,,,A*5d
$GPGGA,193552.00,3741.5865940,N,12206.1206120,W,1,0,0.0,17.5945,M,0.0000,M,0.0000,0000*51
$GPRMC,193552.00,A,3741.5865940,N,12206.1206120,W,58.9474,323.1363,070923,,,,A*53
$GPGGA,193553.00,3741.6000220,N,12206.1329480,W,1,0,0.0,17.4596,M,0.0000,M,0.0000,0000*55
$GPRMC,193553.00,A,3741.6000220,N,12206.1329480,W,60.0755,324.3604,070923,,,,A*57
$GPGGA,193554.00,3741.6136060,N,12206.1450620,W,1,0,0.0,17.2545,M,0.0000,M,0.0000,0000*59
$GPRMC,193554.00,A,3741.6136060,N,12206.1450620,W,59.6254,324.5728,070923,,,,A*52
$GPGGA,193555.00,3741.6271000,N,12206.1570500,W,1,0,0.0,17.0066,M,0.0000,M,0.0000,0000*5a
$GPRMC,193555.00,A,3741.6271000,N,12206.1570500,W,59.1121,324.5299,070923,,,,A*5e
$GPGGA,193556.00,3741.6404500,N,12206.1689180,W,1,0,0.0,16.7835,M,0.0000,M,0.0000,0000*59
$GPRMC,193556.00,A,3741.6404500,N,12206.1689180,W,58.4369,324.7726,070923,,,,A*5c
$GPGGA,193557.00,3741.6536680,N,12206.1806000,W,1,0,0.0,16.5505,M,0.0000,M,0.0000,0000*5f
$GPRMC,193557.00,A,3741.6536680,N,12206.1806000,W,57.7402,324.7896,070923,,,,A*54
$GPGGA,193558.00,3741.6667240,N,12206.1921560,W,1,0,0.0,16.2775,M,0.0000,M,0.0000,0000*5a
$GPRMC,193558.00,A,3741.6667240,N,12206.1921560,W,57.0708,324.7034,070923,,,,A*5d
$GPGGA,193559.00,3741.6796120,N,12206.2036160,W,1,0,0.0,16.0406,M,0.0000,M,0.0000,0000*5c
$GPRMC,193559.00,A,3741.6796120,N,12206.2036160,W,56.4023,324.5741,070923,,,,A*52
$GPGGA,193600.00,3741.6923320,N,12206.2149560,W,1,0,0.0,15.8905,M,0.0000,M,0.0000,0000*59
$GPRMC,193600.00,A,3741.6923320,N,12206.2149560,W,55.7131,324.4329,070923,,,,A*5b
$GPGGA,193601.00,3741.7048660,N,12206.2262300,W,1,0,0.0,15.6816,M,0.0000,M,0.0000,0000*5b
$GPRMC,193601.00,A,3741.7048660,N,12206.2262300,W,55.0742,324.2644,070923,,,,A*59
$GPGGA,193602.00,3741.7172740,N,12206.2373780,W,1,0,0.0,15.5076,M,0.0000,M,0.0000,0000*53
$GPRMC,193602.00,A,3741.7172740,N,12206.2373780,W,54.6390,324.3853,070923,,,,A*59
$GPGGA,193603.00,3741.7296040,N,12206.2484540,W,1,0,0.0,15.3105,M,0.0000,M,0.0000,0000*5e
$GPRMC,193603.00,A,3741.7296040,N,12206.2484540,W,54.2618,324.3310,070923,,,,A*5a
$GPGGA,193604.00,3741.7418260,N,12206.2594520,W,1,0,0.0,15.1286,M,0.0000,M,0.0000,0000*55
$GPRMC,193604.00,A,3741.7418260,N,12206.2594520,W,53.7796,324.3674,070923,,,,A*59
$GPGGA,193605.00,3741.7539940,N,12206.2702760,W,1,0,0.0,14.8736,M,0.0000,M,0.0000,0000*52
$GPRMC,193605.00,A,3741.7539940,N,12206.2702760,W,53.5250,324.7740,070923,,,,A*57
$GPGGA,193606.00,3741.7661920,N,12206.2811060,W,1,0,0.0,14.6935,M,0.0000,M,0.0000,0000*50
$GPRMC,193606.00,A,3741.7661920,N,12206.2811060,W,53.8454,324.6564,070923,,,,A*5c
$GPGGA,193607.00,3741.7784740,N,12206.2919960,W,1,0,0.0,14.5026,M,0.0000,M,0.0000,0000*5b
$GPRMC,193607.00,A,3741.7784740,N,12206.2919960,W,54.2481,324.7192,070923,,,,A*56
$GPGGA,193608.00,3741.7908580,N,12206.3029760,W,1,0,0.0,14.2826,M,0.0000,M,0.0000,0000*5a
$GPRMC,193608.00,A,3741.7908580,N,12206.3029760,W,54.6965,324.6834,070923,,,,A*5f
$GPGGA,193609.00,3741.8033560,N,12206.3140640,W,1,0,0.0,14.0595,M,0.0000,M,0.0000,0000*51
$GPRMC,193609.00,A,3741.8033560,N,12206.3140640,W,55.2390,324.6471,070923,,,,A*5b
$GPGGA,193610.00,3741.8159380,N,12206.3252840,W,1,0,0.0,13.8536,M,0.0000,M,0.0000,0000*54
$GPRMC,193610.00,A,3741.8159380,N,12206.3252840,W,55.7331,324.4514,070923,,,,A*56
$GPGGA,193611.00,3741.8286220,N,12206.3366240,W,1,0,0.0,13.6285,M,0.0000,M,0.0000,0000*52
$GPRMC,193611.00,A,3741.8286220,N,12206.3366240,W,56.0875,324.5687,070923,,,,A*56
$GPGGA,193612.00,3741.8413540,N,12206.3479460,W,1,0,0.0,13.4386,M,0.0000,M,0.0000,0000*57
$GPRMC,193612.00,A,3741.8413540,N,12206.3479460,W,55.8189,324.6454,070923,,,,A*5d
$GPGGA,193613.00,3741.8539600,N,12206.3591720,W,1,0,0.0,13.2376,M,0.0000,M,0.0000,0000*51
$GPRMC,193613.00,A,3741.8539600,N,12206.3591720,W,55.3389,324.5594,070923,,,,A*55
$GPGGA,193614.00,3741.8665060,N,12206.3703560,W,1,0,0.0,13.0335,M,0.0000,M,0.0000,0000*56
$GPRMC,193614.00,A,3741.8665060,N,12206.3703560,W,55.2549,324.5526,070923,,,,A*55
$GPGGA,193615.00,3741.8790040,N,12206.3815040,W,1,0,0.0,12.8285,M,0.0000,M,0.0000,0000*52
$GPRMC,193615.00,A,3741.8790040,N,12206.3815040,W,54.8334,324.6042,070923,,,,A*51
$GPGGA,193616.00,3741.8914060,N,12206.3925140,W,1,0,0.0,12.5986,M,0.0000,M,0.0000,0000*57
$GPRMC,193616.00,A,3741.8914060,N,12206.3925140,W,54.3040,324.7036,070923,,,,A*58
$GPGGA,193617.00,3741.9036820,N,12206.4034100,W,1,0,0.0,12.4106,M,0.0000,M,0.0000,0000*59
$GPRMC,193617.00,A,3741.9036820,N,12206.4034100,W,53.7417,324.6232,070923,,,,A*55
$GPGGA,193618.00,3741.9158740,N,12206.4142880,W,1,0,0.0,12.2156,M,0.0000,M,0.0000,0000*54
$GPRMC,193618.00,A,3741.9158740,N,12206.4142880,W,53.8635,324.5358,070923,,,,A*58
$GPGGA,193619.00,3741.9281080,N,12206.4252080,W,1,0,0.0,12.0986,M,0.0000,M,0.0000,0000*54
$GPRMC,193619.00,A,3741.9281080,N,12206.4252080,W,53.8587,324.5563,070923,,,,A*5b
$GPGGA,193620.00,3741.9402460,N,12206.4360920,W,1,0,0.0,12.0477,M,0.0000,M,0.0000,0000*59
$GPRMC,193620.00,A,3741.9402460,N,12206.4360920,W,53.2765,324.3760,070923,,,,A*56
$GPGGA,193621.00,3741.9521920,N,12206.4469160,W,1,0,0.0,12.1156,M,0.0000,M,0.0000,0000*54
$GPRMC,193621.00,A,3741.9521920,N,12206.4469160,W,52.5307,323.8887,070923,,,,A*50
$GPGGA,193622.00,3741.9638260,N,12206.4578180,W,1,0,0.0,12.0686,M,0.0000,M,0.0000,0000*57
$GPRMC,193622.00,A,3741.9638260,N,12206.4578180,W,51.8493,322.7762,070923,,,,A*56
$GPGGA,193623.00,3741.9752380,N,12206.4689360,W,1,0,0.0,11.8676,M,0.0000,M,0.0000,0000*51
$GPRMC,193623.00,A,3741.9752380,N,12206.4689360,W,52.1279,321.6783,070923,,,,A*51
$GPGGA,193624.00,3741.9865960,N,12206.4805160,W,1,0,0.0,11.6686,M,0.0000,M,0.0000,0000*50
$GPRMC,193624.00,A,3741.9865960,N,12206.4805160,W,52.9384,320.2576,070923,,,,A*57
$GPGGA,193625.00,3741.9978880,N,12206.4925880,W,1,0,0.0,11.4735,M,0.0000,M,0.0000,0000*5c
$GPRMC,193625.00,A,3741.9978880,N,12206.4925880,W,53.6262,318.8911,070923,,,,A*5b
$GPGGA,193626.00,3742.0090780,N,12206.5051580,W,1,0,0.0,11.1565,M,0.0000,M,0.0000,0000*51
$GPRMC,193626.00,A,3742.0090780,N,12206.5051580,W,54.1774,317.3559,070923,,,,A*52
$GPGGA,193627.00,3742.0200400,N,12206.5182560,W,1,0,0.0,10.8905,M,0.0000,M,0.0000,0000*53
$GPRMC,193627.00,A,3742.0200400,N,12206.5182560,W,54.5099,315.5697,070923,,,,A*57
$GPGGA,193628.00,3742.0307620,N,12206.5318220,W,1,0,0.0,10.4435,M,0.0000,M,0.0000,0000*5a
$GPRMC,193628.00,A,3742.0307620,N,12206.5318220,W,54.8315,314.0120,070923,,,,A*59
$GPGGA,193629.00,3742.0412620,N,12206.5457840,W,1,0,0.0,9.8264,M,0.0000,M,0.0000,0000*6e
$GPRMC,193629.00,A,3742.0412620,N,12206.5457840,W,55.0467,312.7888,070923,,,,A*5a
$GPGGA,193630.00,3742.0515400,N,12206.5601060,W,1,0,0.0,9.2324,M,0.0000,M,0.0000,0000*64
$GPRMC,193630.00,A,3742.0515400,N,12206.5601060,W,55.1184,311.3262,070923,,,,A*5f
$GPGGA,193631.00,3742.0614820,N,12206.5747400,W,1,0,0.0,8.5525,M,0.0000,M,0.0000,0000*69
$GPRMC,193631.00,A,3742.0614820,N,12206.5747400,W,54.8716,309.5849,070923,,,,A*5a
$GPGGA,193632.00,3742.0710280,N,12206.5896620,W,1,0,0.0,7.8293,M,0.0000,M,0.0000,0000*64
$GPRMC,193632.00,A,3742.0710280,N,12206.5896620,W,54.6249,308.1187,070923,,,,A*50
$GPGGA,193633.00,3742.0803940,N,12206.6047940,W,1,0,0.0,6.8423,M,0.0000,M,0.0000,0000*6d
$GPRMC,193633.00,A,3742.0803940,N,12206.6047940,W,55.1289,307.6882,070923,,,,A*5b
$GPGGA,193634.00,3742.0898560,N,12206.6201600,W,1,0,0.0,5.8083,M,0.0000,M,0.0000,0000*60
$GPRMC,193634.00,A,3742.0898560,N,12206.6201600,W,55.9263,307.6226,070923,,,,A*53
$GPGGA,193635.00,3742.0994440,N,12206.6357480,W,1,0,0.0,4.8773,M,0.0000,M,0.0000,0000*6e
$GPRMC,193635.00,A,3742.0994440,N,12206.6357480,W,56.6906,307.6154,070923,,,,A*56
$GPGGA,193636.00,3742.1091520,N,12206.6515160,W,1,0,0.0,4.1104,M,0.0000,M,0.0000,0000*63
$GPRMC,193636.00,A,3742.1091520,N,12206.6515160,W,57.2677,307.6185,070923,,,,A*54
$GPGGA,193637.00,3742.1189560,N,12206.6673920,W,1,0,0.0,3.5505,M,0.0000,M,0.0000,0000*67
$GPRMC,193637.00,A,3742.1189560,N,12206.6673920,W,57.5323,307.6487,070923,,,,A*52
$GPGGA,193638.00,3742.1287480,N,12206.6833220,W,1,0,0.0,3.2146,M,0.0000,M,0.0000,0000*6f
$GPRMC,193638.00,A,3742.1287480,N,12206.6833220,W,57.5655,307.5912,070923,,,,A*58
$GPGGA,193639.00,3742.1385460,N,12206.6992520,W,1,0,0.0,2.9966,M,0.0000,M,0.0000,0000*6e
$GPRMC,193639.00,A,3742.1385460,N,12206.6992520,W,57.5491,307.7507,070923,,,,A*59
$GPGGA,193640.00,3742.1484040,N,12206.7151580,W,1,0,0.0,2.8516,M,0.0000,M,0.0000,0000*66
$GPRMC,193640.00,A,3742.1484040,N,12206.7151580,W,57.7566,307.8379,070923,,,,A*50
$GPGGA,193641.00,3742.1583100,N,12206.7311540,W,1,0,0.0,2.6936,M,0.0000,M,0.0000,0000*6e
$GPRMC,193641.00,A,3742.1583100,N,12206.7311540,W,58.1441,307.7205,070923,,,,A*50
$GPGGA,193642.00,3742.1682460,N,12206.7473120,W,1,0,0.0,2.5136,M,0.0000,M,0.0000,0000*66
$GPRMC,193642.00,A,3742.1682460,N,12206.7473120,W,58.5962,307.5792,070923,,,,A*52
$GPGGA,193643.00,3742.1782420,N,12206.7636020,W,1,0,0.0,2.3276,M,0.0000,M,0.0000,0000*61
$GPRMC,193643.00,A,3742.1782420,N,12206.7636020,W,59.0703,307.5082,070923,,,,A*5f
$GPGGA,193644.00,3742.1883280,N,12206.7800720,W,1,0,0.0,2.1386,M,0.0000,M,0.0000,0000*64
$GPRMC,193644.00,A,3742.1883280,N,12206.7800720,W,59.7561,307.5137,070923,,,,A*58
$GPGGA,193645.00,3742.1985340,N,12206.7967340,W,1,0,0.0,1.9446,M,0.0000,M,0.0000,0000*6d
$GPRMC,193645.00,A,3742.1985340,N,12206.7967340,W,60.4179,307.4527,070923,,,,A*51
$GPGGA,193646.00,3742.2087940,N,12206.8135700,W,1,0,0.0,1.7436,M,0.0000,M,0.0000,0000*65
$GPRMC,193646.00,A,3742.2087940,N,12206.8135700,W,60.7914,307.3007,070923,,,,A*50
$GPGGA,193647.00,3742.2190960,N,12206.8305020,W,1,0,0.0,1.5546,M,0.0000,M,0.0000,0000*61
$GPRMC,193647.00,A,3742.2190960,N,12206.8305020,W,61.0532,307.3506,070923,,,,A*5a
$GPGGA,193648.00,3742.2294460,N,12206.8474640,W,1,0,0.0,1.3585,M,0.0000,M,0.0000,0000*6c
$GPRMC,193648.00,A,3742.2294460,N,12206.8474640,W,61.1737,307.4030,070923,,,,A*5f
$GPGGA,193649.00,3742.2398380,N,12206.8644440,W,1,0,0.0,1.1676,M,0.0000,M,0.0000,0000*67
$GPRMC,193649.00,A,3742.2398380,N,12206.8644440,W,61.2316,307.6495,070923,,,,A*54
$GPGGA,193650.00,3742.2502960,N,12206.8813640,W,1,0,0.0,1.0686,M,0.0000,M,0.0000,0000*6e
$GPRMC,193650.00,A,3742.2502960,N,12206.8813640,W,61.2785,307.8105,070923,,,,A*5f
$GPGGA,193651.00,3742.2607300,N,12206.8983140,W,1,0,0.0,0.9896,M,0.0000,M,0.0000,0000*6d
$GPRMC,193651.00,A,3742.2607300,N,12206.8983140,W,61.0854,307.5981,070923,,,,A*53
$GPGGA,193652.00,3742.2710380,N,12206.9151860,W,1,0,0.0,0.8105,M,0.0000,M,0.0000,0000*6e
$GPRMC,193652.00,A,3742.2710380,N,12206.9151860,W,60.5836,307.3012,070923,,,,A*57
$GPGGA,193653.00,3742.2811840,N,12206.9321360,W,1,0,0.0,0.4285,M,0.0000,M,0.0000,0000*6f
$GPRMC,193653.00,A,3742.2811840,N,12206.9321360,W,60.6963,306.3930,070923,,,,A*5b
$GPGGA,193654.00,3742.2911500,N,12206.9493380,W,1,0,0.0,-0.0736,M,0.0000,M,0.0000,0000*44
$GPRMC,193654.00,A,3742.2911500,N,12206.9493380,W,60.9501,305.6611,070923,,,,A*59
$GPGGA,193655.00,3742.3009480,N,12206.9667080,W,1,0,0.0,-0.6916,M,0.0000,M,0.0000,0000*4d
$GPRMC,193655.00,A,3742.3009480,N,12206.9667080,W,60.7300,304.8900,070923,,,,A*53
$GPGGA,193656.00,3742.3105300,N,12206.9841500,W,1,0,0.0,-1.3966,M,0.0000,M,0.0000,0000*48
$GPRMC,193656.00,A,3742.3105300,N,12206.9841500,W,60.5013,304.3153,070923,,,,A*53
$GPGGA,193657.00,3742.3199860,N,12207.0017180,W,1,0,0.0,-2.2067,M,0.0000,M,0.0000,0000*44
$GPRMC,193657.00,A,3742.3199860,N,12207.0017180,W,60.7572,303.6989,070923,,,,A*58
$GPGGA,193658.00,3742.3292980,N,12207.0195260,W,1,0,0.0,-3.1207,M,0.0000,M,0.0000,0000*4c
$GPRMC,193658.00,A,3742.3292980,N,12207.0195260,W,61.0928,302.8143,070923,,,,A*52
$GPGGA,193659.00,3742.3384180,N,12207.0375500,W,1,0,0.0,-4.0417,M,0.0000,M,0.0000,0000*4f
$GPRMC,193659.00,A,3742.3384180,N,12207.0375500,W,60.9843,302.0078,070923,,,,A*55
$GPGGA,193700.00,3742.3473280,N,12207.0556640,W,1,0,0.0,-4.9927,M,0.0000,M,0.0000,0000*49
$GPRMC,193700.00,A,3742.3473280,N,12207.0556640,W,60.7371,301.3973,070923,,,,A*52
$GPGGA,193701.00,3742.3560340,N,12207.0738320,W,1,0,0.0,-5.8987,M,0.0000,M,0.0000,0000*45
$GPRMC,193701.00,A,3742.3560340,N,12207.0738320,W,60.4848,300.5940,070923,,,,A*51
$GPGGA,193702.00,3742.3644940,N,12207.0920840,W,1,0,0.0,-6.8337,M,0.0000,M,0.0000,0000*41
$GPRMC,193702.00,A,3742.3644940,N,12207.0920840,W,60.2496,299.8498,070923,,,,A*5a
$GPGGA,193703.00,3742.3727740,N,12207.1103660,W,1,0,0.0,-7.7827,M,0.0000,M,0.0000,0000*4a
$GPRMC,193703.00,A,3742.3727740,N,12207.1103660,W,60.0091,299.3106,070923,,,,A*5d
$GPGGA,193704.00,3742.3808860,N,12207.1286840,W,1,0,0.0,-8.8077,M,0.0000,M,0.0000,0000*4d
$GPRMC,193704.00,A,3742.3808860,N,12207.1286840,W,59.8559,298.7961,070923,,,,A*58
$GPGGA,193705.00,3742.3889140,N,12207.1470980,W,1,0,0.0,-9.8478,M,0.0000,M,0.0000,0000*46
$GPRMC,193705.00,A,3742.3889140,N,12207.1470980,W,60.1915,298.5783,070923,,,,A*5e
$GPGGA,193706.00,3742.3969900,N,12207.1656260,W,1,0,0.0,-10.8887,M,0.0000,M,0.0000,0000*71
$GPRMC,193706.00,A,3742.3969900,N,12207.1656260,W,60.5846,298.7868,070923,,,,A*56
$GPGGA,193707.00,3742.4051740,N,12207.1842380,W,1,0,0.0,-11.8537,M,0.0000,M,0.0000,0000*7c
$GPRMC,193707.00,A,3742.4051740,N,12207.1842380,W,60.9291,298.8612,070923,,,,A*5c
$GPGGA,193708.00,3742.4134240,N,12207.2028680,W,1,0,0.0,-12.9528,M,0.0000,M,0.0000,0000*7a
$GPRMC,193708.00,A,3742.4134240,N,12207.2028680,W,60.9219,299.1279,070923,,,,A*57
$GPGGA,193709.00,3742.4218360,N,12207.2213540,W,1,0,0.0,-14.1638,M,0.0000,M,0.0000,0000*7c
$GPRMC,193709.00,A,3742.4218360,N,12207.2213540,W,60.7767,300.5448,070923,,,,A*5e
$GPGGA,193710.00,3742.4308600,N,12207.2393000,W,1,0,0.0,-15.2617,M,0.0000,M,0.0000,0000*70
$GPRMC,193710.00,A,3742.4308600,N,12207.2393000,W,60.5685,303.6948,070923,,,,A*5f
$GPGGA,193711.00,3742.4405260,N,12207.2566100,W,1,0,0.0,-16.2147,M,0.0000,M,0.0000,0000*75
$GPRMC,193711.00,A,3742.4405260,N,12207.2566100,W,60.3057,306.3470,070923,,,,A*52
$GPGGA,193712.00,3742.4508100,N,12207.2732360,W,1,0,0.0,-17.1657,M,0.0000,M,0.0000,0000*7c
$GPRMC,193712.00,A,3742.4508100,N,12207.2732360,W,60.1855,309.2954,070923,,,,A*52
$GPGGA,193713.00,3742.4617600,N,12207.2891960,W,1,0,0.0,-18.0526,M,0.0000,M,0.0000,0000*70
$GPRMC,193713.00,A,3742.4617600,N,12207.2891960,W,60.3329,312.2376,070923,,,,A*57
$GPGGA,193714.00,3742.4733100,N,12207.3045440,W,1,0,0.0,-18.6755,M,0.0000,M,0.0000,0000*78
$GPRMC,193714.00,A,3742.4733100,N,12207.3045440,W,60.3992,314.2938,070923,,,,A*53
$GPGGA,193715.00,3742.4851180,N,12207.3195620,W,1,0,0.0,-19.0925,M,0.0000,M,0.0000,0000*7c
$GPRMC,193715.00,A,3742.4851180,N,12207.3195620,W,60.3286,314.7331,070923,,,,A*51
$GPGGA,193716.00,3742.4969440,N,12207.3345200,W,1,0,0.0,-19.4915,M,0.0000,M,0.0000,0000*72
$GPRMC,193716.00,A,3742.4969440,N,12207.3345200,W,60.2627,314.6906,070923,,,,A*59
$GPGGA,193717.00,3742.5087220,N,12207.3495020,W,1,0,0.0,-19.7274,M,0.0000,M,0.0000,0000*7e
$GPRMC,193717.00,A,3742.5087220,N,12207.3495020,W,60.1098,314.5202,070923,,,,A*57
$GPGGA,193718.00,3742.5204520,N,12207.3644420,W,1,0,0.0,-19.7803,M,0.0000,M,0.0000,0000*7f
$GPRMC,193718.00,A,3742.5204520,N,12207.3644420,W,59.8717,314.5294,070923,,,,A*50
$GPGGA,193719.00,3742.5321400,N,12207.3792920,W,1,0,0.0,-19.7093,M,0.0000,M,0.0000,0000*7d
$GPRMC,193719.00,A,3742.5321400,N,12207.3792920,W,59.6099,314.6870,070923,,,,A*5f
$GPGGA,193720.00,3742.5438160,N,12207.3941000,W,1,0,0.0,-19.6293,M,0.0000,M,0.0000,0000*73
$GPRMC,193720.00,A,3742.5438160,N,12207.3941000,W,59.5817,314.5425,070923,,,,A*50
$GPGGA,193721.00,3742.5554560,N,12207.4089500,W,1,0,0.0,-19.4803,M,0.0000,M,0.0000,0000*73
$GPRMC,193721.00,A,3742.5554560,N,12207.4089500,W,59.6593,314.4458,070923,,,,A*58
$GPGGA,193722.00,3742.5670960,N,12207.4238660,W,1,0,0.0,-19.1472,M,0.0000,M,0.0000,0000*7b
$GPRMC,193722.00,A,3742.5670960,N,12207.4238660,W,59.7846,314.3530,070923,,,,A*53
$GPGGA,193723.00,3742.5787060,N,12207.4388720,W,1,0,0.0,-18.7922,M,0.0000,M,0.0000,0000*7a
$GPRMC,193723.00,A,3742.5787060,N,12207.4388720,W,59.8904,313.8703,070923,,,,A*5b
$GPGGA,193724.00,3742.5900940,N,12207.4541660,W,1,0,0.0,-18.3832,M,0.0000,M,0.0000,0000*75
$GPRMC,193724.00,A,3742.5900940,N,12207.4541660,W,59.8161,312.4095,070923,,,,A*5e
$GPGGA,193725.00,3742.6011400,N,12207.4697720,W,1,0,0.0,-17.8672,M,0.0000,M,0.0000,0000*74
$GPRMC,193725.00,A,3742.6011400,N,12207.4697720,W,59.5859,310.6562,070923,,,,A*53
$GPGGA,193726.00,3742.6117120,N,12207.4857680,W,1,0,0.0,-17.3232,M,0.0000,M,0.0000,0000*75
$GPRMC,193726.00,A,3742.6117120,N,12207.4857680,W,59.3018,308.7610,070923,,,,A*5c
$GPGGA,193727.00,3742.6218220,N,12207.5021060,W,1,0,0.0,-16.7952,M,0.0000,M,0.0000,0000*73
$GPRMC,193727.00,A,3742.6218220,N,12207.5021060,W,59.0430,306.8808,070923,,,,A*59
$GPGGA,193728.00,3742.6315120,N,12207.5187800,W,1,0,0.0,-16.2582,M,0.0000,M,0.0000,0000*74
$GPRMC,193728.00,A,3742.6315120,N,12207.5187800,W,58.9789,305.3972,070923,,,,A*57
$GPGGA,193729.00,3742.6408300,N,12207.5357540,W,1,0,0.0,-15.7642,M,0.0000,M,0.0000,0000*71
$GPRMC,193729.00,A,3742.6408300,N,12207.5357540,W,58.9372,303.6863,070923,,,,A*59
$GPGGA,193730.00,3742.6498000,N,12207.5530280,W,1,0,0.0,-15.4293,M,0.0000,M,0.0000,0000*74
$GPRMC,193730.00,A,3742.6498000,N,12207.5530280,W,58.9488,302.4985,070923,,,,A*5f
$GPGGA,193731.00,3742.6585660,N,12207.5704220,W,1,0,0.0,-14.9071,M,0.0000,M,0.0000,0000*75
$GPRMC,193731.00,A,3742.6585660,N,12207.5704220,W,58.6534,302.1890,070923,,,,A*55
$GPGGA,193732.00,3742.6672540,N,12207.5876420,W,1,0,0.0,-14.0420,M,0.0000,M,0.0000,0000*79
$GPRMC,193732.00,A,3742.6672540,N,12207.5876420,W,57.7328,302.3366,070923,,,,A*55
$GPGGA,193733.00,3742.6757980,N,12207.6044780,W,1,0,0.0,-12.9750,M,0.0000,M,0.0000,0000*76
$GPRMC,193733.00,A,3742.6757980,N,12207.6044780,W,56.3720,302.5124,070923,,,,A*5a
$GPGGA,193734.00,3742.6841380,N,12207.6209420,W,1,0,0.0,-12.0260,M,0.0000,M,0.0000,0000*7e
$GPRMC,193734.00,A,3742.6841380,N,12207.6209420,W,55.3629,302.3664,070923,,,,A*53
$GPGGA,193735.00,3742.6923640,N,12207.6371900,W,1,0,0.0,-11.1761,M,0.0000,M,0.0000,0000*74
$GPRMC,193735.00,A,3742.6923640,N,12207.6371900,W,54.7380,302.4149,070923,,,,A*53
$GPGGA,193736.00,3742.7005540,N,12207.6532400,W,1,0,0.0,-10.5052,M,0.0000,M,0.0000,0000*76
$GPRMC,193736.00,A,3742.7005540,N,12207.6532400,W,54.2795,302.7628,070923,,,,A*55
$GPGGA,193737.00,3742.7088160,N,12207.6690860,W,1,0,0.0,-10.0762,M,0.0000,M,0.0000,0000*74
$GPRMC,193737.00,A,3742.7088160,N,12207.6690860,W,54.0209,303.6123,070923,,,,A*58
$GPGGA,193738.00,3742.7173480,N,12207.6846320,W,1,0,0.0,-9.5932,M,0.0000,M,0.0000,0000*49
$GPRMC,193738.00,A,3742.7173480,N,12207.6846320,W,53.9422,305.3365,070923,,,,A*51
$GPGGA,193739.00,3742.7262160,N,12207.6998660,W,1,0,0.0,-9.1502,M,0.0000,M,0.0000,0000*48
$GPRMC,193739.00,A,3742.7262160,N,12207.6998660,W,53.9850,307.0274,070923,,,,A*52
$GPGGA,193740.00,3742.7355160,N,12207.7147100,W,1,0,0.0,-8.7202,M,0.0000,M,0.0000,0000*49
$GPRMC,193740.00,A,3742.7355160,N,12207.7147100,W,54.0484,309.1713,070923,,,,A*53
$GPGGA,193741.00,3742.7452300,N,12207.7291760,W,1,0,0.0,-8.2972,M,0.0000,M,0.0000,0000*4d
$GPRMC,193741.00,A,3742.7452300,N,12207.7291760,W,54.2072,310.7791,070923,,,,A*55
$GPGGA,193742.00,3742.7553220,N,12207.7433780,W,1,0,0.0,-7.9012,M,0.0000,M,0.0000,0000*46
$GPRMC,193742.00,A,3742.7553220,N,12207.7433780,W,54.6559,312.6403,070923,,,,A*56
$GPGGA,193743.00,3742.7658580,N,12207.7573040,W,1,0,0.0,-7.5723,M,0.0000,M,0.0000,0000*45
$GPRMC,193743.00,A,3742.7658580,N,12207.7573040,W,55.2404,314.2705,070923,,,,A*57
$GPGGA,193744.00,3742.7768500,N,12207.7709480,W,1,0,0.0,-7.3323,M,0.0000,M,0.0000,0000*4d
$GPRMC,193744.00,A,3742.7768500,N,12207.7709480,W,55.7783,316.2527,070923,,,,A*54
$GPGGA,193745.00,3742.7883040,N,12207.7842500,W,1,0,0.0,-7.1743,M,0.0000,M,0.0000,0000*4e
$GPRMC,193745.00,A,3742.7883040,N,12207.7842500,W,56.2748,318.1407,070923,,,,A*58
$GPGGA,193746.00,3742.8002140,N,12207.7971800,W,1,0,0.0,-7.0973,M,0.0000,M,0.0000,0000*42
$GPRMC,193746.00,A,3742.8002140,N,12207.7971800,W,56.8478,319.9875,070923,,,,A*52
$GPGGA,193747.00,3742.8125500,N,12207.8097800,W,1,0,0.0,-7.0193,M,0.0000,M,0.0000,0000*4f
$GPRMC,193747.00,A,3742.8125500,N,12207.8097800,W,57.4021,321.7241,070923,,,,A*54
$GPGGA,193748.00,3742.8253300,N,12207.8219780,W,1,0,0.0,-6.9393,M,0.0000,M,0.0000,0000*4d
$GPRMC,193748.00,A,3742.8253300,N,12207.8219780,W,57.9246,323.5698,070923,,,,A*52
$GPGGA,193749.00,3742.8385000,N,12207.8337860,W,1,0,0.0,-6.8623,M,0.0000,M,0.0000,0000*46
$GPRMC,193749.00,A,3742.8385000,N,12207.8337860,W,58.2733,325.3090,070923,,,,A*5b
$GPGGA,193750.00,3742.8520000,N,12207.8450060,W,1,0,0.0,-6.7823,M,0.0000,M,0.0000,0000*48
$GPRMC,193750.00,A,3742.8520000,N,12207.8450060,W,57.9291,327.6383,070923,,,,A*5b
$GPGGA,193751.00,3742.8656800,N,12207.8554760,W,1,0,0.0,-6.7163,M,0.0000,M,0.0000,0000*4c
$GPRMC,193751.00,A,3742.8656800,N,12207.8554760,W,57.1855,329.5259,070923,,,,A*53
$GPGGA,193752.00,3742.8794260,N,12207.8652440,W,1,0,0.0,-6.6343,M,0.0000,M,0.0000,0000*49
$GPRMC,193752.00,A,3742.8794260,N,12207.8652440,W,56.4027,331.4331,070923,,,,A*59
$GPGGA,193753.00,3742.8932800,N,12207.8743160,W,1,0,0.0,-6.5863,M,0.0000,M,0.0000,0000*4a
$GPRMC,193753.00,A,3742.8932800,N,12207.8743160,W,56.0162,333.3212,070923,,,,A*51
$GPGGA,193754.00,3742.9073140,N,12207.8828600,W,1,0,0.0,-6.5143,M,0.0000,M,0.0000,0000*45
$GPRMC,193754.00,A,3742.9073140,N,12207.8828600,W,55.9781,334.9448,070923,,,,A*50
$GPGGA,193755.00,3742.9214560,N,12207.8907800,W,1,0,0.0,-6.4363,M,0.0000,M,0.0000,0000*42
$GPRMC,193755.00,A,3742.9214560,N,12207.8907800,W,55.3178,336.7027,070923,,,,A*5d
$GPGGA,193756.00,3742.9355620,N,12207.8981600,W,1,0,0.0,-6.2583,M,0.0000,M,0.0000,0000*4c
$GPRMC,193756.00,A,3742.9355620,N,12207.8981600,W,54.5122,337.9647,070923,,,,A*5a
$GPGGA,193757.00,3742.9495720,N,12207.9050900,W,1,0,0.0,-6.1894,M,0.0000,M,0.0000,0000*44
$GPRMC,193757.00,A,3742.9495720,N,12207.9050900,W,53.8167,338.6916,070923,,,,A*5a
$GPGGA,193758.00,3742.9634620,N,12207.9118640,W,1,0,0.0,-6.4635,M,0.0000,M,0.0000,0000*45
$GPRMC,193758.00,A,3742.9634620,N,12207.9118640,W,53.3200,338.7965,070923,,,,A*57
$GPGGA,193759.00,3742.9772380,N,12207.9185300,W,1,0,0.0,-6.7435,M,0.0000,M,0.0000,0000*4c
$GPRMC,193759.00,A,3742.9772380,N,12207.9185300,W,52.8510,338.8246,070923,,,,A*56
$GPGGA,193800.00,3742.9909120,N,12207.9251720,W,1,0,0.0,-7.0035,M,0.0000,M,0.0000,0000*4b
$GPRMC,193800.00,A,3742.9909120,N,12207.9251720,W,52.6554,338.7799,070923,,,,A*55
$GPGGA,193801.00,3743.0045740,N,12207.9318080,W,1,0,0.0,-7.1804,M,0.0000,M,0.0000,0000*49
$GPRMC,193801.00,A,3743.0045740,N,12207.9318080,W,52.6311,338.6612,070923,,,,A*58
$GPGGA,193802.00,3743.0182000,N,12207.9384800,W,1,0,0.0,-7.1493,M,0.0000,M,0.0000,0000*44
$GPRMC,193802.00,A,3743.0182000,N,12207.9384800,W,52.4877,338.5370,070923,,,,A*5c
$GPGGA,193803.00,3743.0317660,N,12207.9451520,W,1,0,0.0,-6.9833,M,0.0000,M,0.0000,0000*44
$GPRMC,193803.00,A,3743.0317660,N,12207.9451520,W,52.2557,338.5401,070923,,,,A*5b
$GPGGA,193804.00,3743.0452780,N,12207.9518000,W,1,0,0.0,-6.8363,M,0.0000,M,0.0000,0000*4e
$GPRMC,193804.00,A,3743.0452780,N,12207.9518000,W,52.0631,338.4900,070923,,,,A*52
$GPGGA,193805.00,3743.0587240,N,12207.9584300,W,1,0,0.0,-6.6133,M,0.0000,M,0.0000,0000*40
$GPRMC,193805.00,A,3743.0587240,N,12207.9584300,W,51.6956,338.4905,070923,,,,A*5b
$GPGGA,193806.00,3743.0720080,N,12207.9649700,W,1,0,0.0,-6.2802,M,0.0000,M,0.0000,0000*4b
$GPRMC,193806.00,A,3743.0720080,N,12207.9649700,W,50.8411,338.6650,070923,,,,A*53
$GPGGA,193807.00,3743.0850460,N,12207.9713960,W,1,0,0.0,-5.7642,M,0.0000,M,0.0000,0000*42
$GPRMC,193807.00,A,3743.0850460,N,12207.9713960,W,49.9974,338.3372,070923,,,,A*51
$GPGGA,193808.00,3743.0979280,N,12207.9778580,W,1,0,0.0,-5.2402,M,0.0000,M,0.0000,0000*43
$GPRMC,193808.00,A,3743.0979280,N,12207.9778580,W,49.7518,338.0102,070923,,,,A*5d
$GPGGA,193809.00,3743.1107140,N,12207.9844460,W,1,0,0.0,-4.7722,M,0.0000,M,0.0000,0000*47
$GPRMC,193809.00,A,3743.1107140,N,12207.9844460,W,49.5926,337.3769,070923,,,,A*58
$GPGGA,193810.00,3743.1234100,N,12207.9911720,W,1,0,0.0,-4.3392,M,0.0000,M,0.0000,0000*45
$GPRMC,193810.00,A,3743.1234100,N,12207.9911720,W,49.4860,336.8020,070923,,,,A*53
$GPGGA,193811.00,3743.1360460,N,12207.9980720,W,1,0,0.0,-3.8842,M,0.0000,M,0.0000,0000*45
$GPRMC,193811.00,A,3743.1360460,N,12207.9980720,W,49.6389,336.2274,070923,,,,A*5e
$GPGGA,193812.00,3743.1487300,N,12208.0051640,W,1,0,0.0,-3.4552,M,0.0000,M,0.0000,0000*4d
$GPRMC,193812.00,A,3743.1487300,N,12208.0051640,W,50.3277,335.7454,070923,,,,A*59
$GPGGA,193813.00,3743.1615880,N,12208.0125140,W,1,0,0.0,-3.1423,M,0.0000,M,0.0000,0000*41
$GPRMC,193813.00,A,3743.1615880,N,12208.0125140,W,51.1717,335.2062,070923,,,,A*53
$GPGGA,193814.00,3743.1745780,N,12208.0201520,W,1,0,0.0,-2.8613,M,0.0000,M,0.0000,0000*43
$GPRMC,193814.00,A,3743.1745780,N,12208.0201520,W,51.9358,334.5195,070923,,,,A*50
$GPGGA,193815.00,3743.1876820,N,12208.0281200,W,1,0,0.0,-2.6743,M,0.0000,M,0.0000,0000*4f
$GPRMC,193815.00,A,3743.1876820,N,12208.0281200,W,52.7245,333.8095,070923,,,,A*5d
$GPGGA,193816.00,3743.2009120,N,12208.0363880,W,1,0,0.0,-2.5864,M,0.0000,M,0.0000,0000*40
$GPRMC,193816.00,A,3743.2009120,N,12208.0363880,W,53.2654,333.2771,070923,,,,A*5c
$GPGGA,193817.00,3743.2140580,N,12208.0448060,W,1,0,0.0,-2.5934,M,0.0000,M,0.0000,0000*4f
$GPRMC,193817.00,A,3743.2140580,N,12208.0448060,W,52.7655,332.6198,070923,,,,A*56
$GPGGA,193818.00,3743.2269700,N,12208.0533500,W,1,0,0.0,-2.7124,M,0.0000,M,0.0000,0000*47
$GPRMC,193818.00,A,3743.2269700,N,12208.0533500,W,52.1615,331.9155,070923,,,,A*5a
$GPGGA,193819.00,3743.2396720,N,12208.0619600,W,1,0,0.0,-2.9135,M,0.0000,M,0.0000,0000*43
$GPRMC,193819.00,A,3743.2396720,N,12208.0619600,W,51.5685,331.3168,070923,,,,A*5a
$GPGGA,193820.00,3743.2521580,N,12208.0706360,W,1,0,0.0,-3.2005,M,0.0000,M,0.0000,0000*4f
$GPRMC,193820.00,A,3743.2521580,N,12208.0706360,W,51.0381,330.7923,070923,,,,A*58
$GPGGA,193821.00,3743.2644640,N,12208.0793900,W,1,0,0.0,-3.5605,M,0.0000,M,0.0000,0000*40
$GPRMC,193821.00,A,3743.2644640,N,12208.0793900,W,50.5850,330.0417,070923,,,,A*58
$GPGGA,193822.00,3743.2765660,N,12208.0882940,W,1,0,0.0,-4.0346,M,0.0000,M,0.0000,0000*48
$GPRMC,193822.00,A,3743.2765660,N,12208.0882940,W,50.2037,329.2063,070923,,,,A*53
$GPGGA,193823.00,3743.2884940,N,12208.0973000,W,1,0,0.0,-4.5966,M,0.0000,M,0.0000,0000*4b
$GPRMC,193823.00,A,3743.2884940,N,12208.0973000,W,49.9036,328.8766,070923,,,,A*56
$GPGGA,193824.00,3743.3003440,N,12208.1063240,W,1,0,0.0,-5.2997,M,0.0000,M,0.0000,0000*40
$GPRMC,193824.00,A,3743.3003440,N,12208.1063240,W,49.7061,328.5456,070923,,,,A*54
$GPGGA,193825.00,3743.3121100,N,12208.1154020,W,1,0,0.0,-6.0507,M,0.0000,M,0.0000,0000*44
$GPRMC,193825.00,A,3743.3121100,N,12208.1154020,W,49.5238,328.3953,070923,,,,A*56
$GPGGA,193826.00,3743.3238400,N,12208.1244440,W,1,0,0.0,-6.8017,M,0.0000,M,0.0000,0000*45
$GPRMC,193826.00,A,3743.3238400,N,12208.1244440,W,49.5267,328.3530,070923,,,,A*58
$GPGGA,193827.00,3743.3356720,N,12208.1335760,W,1,0,0.0,-7.4546,M,0.0000,M,0.0000,0000*46
$GPRMC,193827.00,A,3743.3356720,N,12208.1335760,W,50.3342,328.4062,070923,,,,A*5a
$GPGGA,193828.00,3743.3476600,N,12208.1428400,W,1,0,0.0,-7.8355,M,0.0000,M,0.0000,0000*49
$GPRMC,193828.00,A,3743.3476600,N,12208.1428400,W,50.5447,328.2860,070923,,,,A*55
$GPGGA,193829.00,3743.3595820,N,12208.1520500,W,1,0,0.0,-8.0304,M,0.0000,M,0.0000,0000*43
$GPRMC,193829.00,A,3743.3595820,N,12208.1520500,W,50.0734,328.1948,070923,,,,A*56
$GPGGA,193830.00,3743.3714260,N,12208.1612780,W,1,0,0.0,-8.0273,M,0.0000,M,0.0000,0000*47
$GPRMC,193830.00,A,3743.3714260,N,12208.1612780,W,50.1872,328.1494,070923,,,,A*53
$GPGGA,193831.00,3743.3833540,N,12208.1705240,W,1,0,0.0,-7.9853,M,0.0000,M,0.0000,0000*49
$GPRMC,193831.00,A,3743.3833540,N,12208.1705240,W,50.6250,328.3561,070923,,,,A*57
$GPGGA,193832.00,3743.3954320,N,12208.1798060,W,1,0,0.0,-7.9754,M,0.0000,M,0.0000,0000*46
$GPRMC,193832.00,A,3743.3954320,N,12208.1798060,W,51.1265,328.5994,070923,,,,A*50
$GPGGA,193833.00,3743.4076660,N,12208.1891240,W,1,0,0.0,-8.0234,M,0.0000,M,0.0000,0000*4b
$GPRMC,193833.00,A,3743.4076660,N,12208.1891240,W,51.7182,328.7383,070923,,,,A*5a
$GPGGA,193834.00,3743.4200800,N,12208.1985020,W,1,0,0.0,-8.1624,M,0.0000,M,0.0000,0000*43
$GPRMC,193834.00,A,3743.4200800,N,12208.1985020,W,52.3574,329.1566,070923,,,,A*56
$GPGGA,193835.00,3743.4327400,N,12208.2075380,W,1,0,0.0,-8.1243,M,0.0000,M,0.0000,0000*43
$GPRMC,193835.00,A,3743.4327400,N,12208.2075380,W,52.0929,331.4728,070923,,,,A*50
$GPGGA,193836.00,3743.4455200,N,12208.2158420,W,1,0,0.0,-7.8192,M,0.0000,M,0.0000,0000*4e
$GPRMC,193836.00,A,3743.4455200,N,12208.2158420,W,51.4852,333.6456,070923,,,,A*54
$GPGGA,193837.00,3743.4584860,N,12208.2235040,W,1,0,0.0,-7.3562,M,0.0000,M,0.0000,0000*44
$GPRMC,193837.00,A,3743.4584860,N,12208.2235040,W,51.5503,335.7178,070923,,,,A*58
$GPGGA,193838.00,3743.4716800,N,12208.2305600,W,1,0,0.0,-6.7201,M,0.0000,M,0.0000,0000*43
$GPRMC,193838.00,A,3743.4716800,N,12208.2305600,W,51.4989,337.9381,070923,,,,A*5f
$GPGGA,193839.00,3743.4850420,N,12208.2369560,W,1,0,0.0,-5.9310,M,0.0000,M,0.0000,0000*42
$GPRMC,193839.00,A,3743.4850420,N,12208.2369560,W,51.3505,340.0994,070923,,,,A*5a
$GPGGA,193840.00,3743.4985540,N,12208.2427160,W,1,0,0.0,-5.1281,M,0.0000,M,0.0000,0000*4a
$GPRMC,193840.00,A,3743.4985540,N,12208.2427160,W,51.1886,342.1322,070923,,,,A*53
$GPGGA,193841.00,3743.5121560,N,12208.2478640,W,1,0,0.0,-4.3331,M,0.0000,M,0.0000,0000*48
$GPRMC,193841.00,A,3743.5121560,N,12208.2478640,W,51.0350,344.0525,070923,,,,A*5f
$GPGGA,193842.00,3743.5258720,N,12208.2524000,W,1,0,0.0,-3.6181,M,0.0000,M,0.0000,0000*41
$GPRMC,193842.00,A,3743.5258720,N,12208.2524000,W,50.9751,346.2873,070923,,,,A*5e
$GPGGA,193843.00,3743.5397200,N,12208.2562280,W,1,0,0.0,-2.9872,M,0.0000,M,0.0000,0000*46
$GPRMC,193843.00,A,3743.5397200,N,12208.2562280,W,50.9560,348.5011,070923,,,,A*57
$GPGGA,193844.00,3743.5536640,N,12208.2594200,W,1,0,0.0,-2.4492,M,0.0000,M,0.0000,0000*42
$GPRMC,193844.00,A,3743.5536640,N,12208.2594200,W,50.9862,350.6167,070923,,,,A*59
$GPGGA,193845.00,3743.5676860,N,12208.2620660,W,1,0,0.0,-1.8701,M,0.0000,M,0.0000,0000*40
$GPRMC,193845.00,A,3743.5676860,N,12208.2620660,W,50.9950,351.9462,070923,,,,A*53
$GPGGA,193846.00,3743.5817500,N,12208.2643340,W,1,0,0.0,-1.3232,M,0.0000,M,0.0000,0000*4d
$GPRMC,193846.00,A,3743.5817500,N,12208.2643340,W,51.0307,353.0839,070923,,,,A*59
$GPGGA,193847.00,3743.5958620,N,12208.2664280,W,1,0,0.0,-0.9603,M,0.0000,M,0.0000,0000*42
$GPRMC,193847.00,A,3743.5958620,N,12208.2664280,W,51.1781,353.0945,070923,,,,A*5a
$GPGGA,193848.00,3743.6100160,N,12208.2685820,W,1,0,0.0,-0.5992,M,0.0000,M,0.0000,0000*4c
$GPRMC,193848.00,A,3743.6100160,N,12208.2685820,W,51.2989,352.9668,070923,,,,A*52
$GPGGA,193849.00,3743.6241640,N,12208.2707300,W,1,0,0.0,-0.0922,M,0.0000,M,0.0000,0000*42
$GPRMC,193849.00,A,3743.6241640,N,12208.2707300,W,51.1452,353.0569,070923,,,,A*50
$GPGGA,193850.00,3743.6382460,N,12208.2728300,W,1,0,0.0,0.5579,M,0.0000,M,0.0000,0000*63
$GPRMC,193850.00,A,3743.6382460,N,12208.2728300,W,50.8462,353.1537,070923,,,,A*5a
$GPGGA,193851.00,3743.6522440,N,12208.2749540,W,1,0,0.0,1.2619,M,0.0000,M,0.0000,0000*6a
$GPRMC,193851.00,A,3743.6522440,N,12208.2749540,W,50.5434,352.9709,070923,,,,A*58
$GPGGA,193852.00,3743.6660920,N,12208.2771020,W,1,0,0.0,1.8498,M,0.0000,M,0.0000,0000*6e
$GPRMC,193852.00,A,3743.6660920,N,12208.2771020,W,49.7947,352.6958,070923,,,,A*5b
$GPGGA,193853.00,3743.6797960,N,12208.2793400,W,1,0,0.0,2.3158,M,0.0000,M,0.0000,0000*69
$GPRMC,193853.00,A,3743.6797960,N,12208.2793400,W,49.5928,352.2805,070923,,,,A*5b
$GPGGA,193854.00,3743.6934940,N,12208.2817580,W,1,0,0.0,2.6617,M,0.0000,M,0.0000,0000*68
$GPRMC,193854.00,A,3743.6934940,N,12208.2817580,W,49.9844,351.6241,070923,,,,A*59
$GPGGA,193855.00,3743.7073060,N,12208.2843920,W,1,0,0.0,2.8477,M,0.0000,M,0.0000,0000*64
$GPRMC,193855.00,A,3743.7073060,N,12208.2843920,W,50.4899,351.0017,070923,,,,A*5d
$GPGGA,193856.00,3743.7212500,N,12208.2872480,W,1,0,0.0,2.9657,M,0.0000,M,0.0000,0000*65
$GPRMC,193856.00,A,3743.7212500,N,12208.2872480,W,51.0781,350.3229,070923,,,,A*53
$GPGGA,193857.00,3743.7352840,N,12208.2904040,W,1,0,0.0,2.9776,M,0.0000,M,0.0000,0000*62
$GPRMC,193857.00,A,3743.7352840,N,12208.2904040,W,51.2008,349.2385,070923,,,,A*5c
$GPGGA,193858.00,3743.7491740,N,12208.2938480,W,1,0,0.0,2.9146,M,0.0000,M,0.0000,0000*68
$GPRMC,193858.00,A,3743.7491740,N,12208.2938480,W,50.6054,348.3584,070923,,,,A*58
$GPGGA,193859.00,3743.7628540,N,12208.2974480,W,1,0,0.0,2.7645,M,0.0000,M,0.0000,0000*69
$GPRMC,193859.00,A,3743.7628540,N,12208.2974480,W,49.9287,347.9268,070923,,,,A*58
$GPGGA,193900.00,3743.7763420,N,12208.3011200,W,1,0,0.0,2.4855,M,0.0000,M,0.0000,0000*64
$GPRMC,193900.00,A,3743.7763420,N,12208.3011200,W,49.3686,347.4848,070923,,,,A*53
$GPGGA,193901.00,3743.7896740,N,12208.3048400,W,1,0,0.0,2.2076,M,0.0000,M,0.0000,0000*60
$GPRMC,193901.00,A,3743.7896740,N,12208.3048400,W,48.8112,347.2236,070923,,,,A*5d
$GPGGA,193902.00,3743.8028320,N,12208.3085600,W,1,0,0.0,2.0236,M,0.0000,M,0.0000,0000*64
$GPRMC,193902.00,A,3743.8028320,N,12208.3085600,W,48.1642,347.3388,070923,,,,A*53
$GPGGA,193903.00,3743.8158460,N,12208.3122200,W,1,0,0.0,1.9616,M,0.0000,M,0.0000,0000*64
$GPRMC,193903.00,A,3743.8158460,N,12208.3122200,W,47.8564,347.1858,070923,,,,A*5a
$GPGGA,193904.00,3743.8288360,N,12208.3159100,W,1,0,0.0,1.8926,M,0.0000,M,0.0000,0000*68
$GPRMC,193904.00,A,3743.8288360,N,12208.3159100,W,47.9375,347.1855,070923,,,,A*51
$GPGGA,193905.00,3743.8418500,N,12208.3195760,W,1,0,0.0,1.9096,M,0.0000,M,0.0000,0000*65
$GPRMC,193905.00,A,3743.8418500,N,12208.3195760,W,48.0064,347.1356,070923,,,,A*52
$GPGGA,193906.00,3743.8548880,N,12208.3233200,W,1,0,0.0,1.8576,M,0.0000,M,0.0000,0000*61
$GPRMC,193906.00,A,3743.8548880,N,12208.3233200,W,48.1624,346.8982,070923,,,,A*54
$GPGGA,193907.00,3743.8679500,N,12208.3271240,W,1,0,0.0,1.8676,M,0.0000,M,0.0000,0000*65
$GPRMC,193907.00,A,3743.8679500,N,12208.3271240,W,48.2609,346.7807,070923,,,,A*5c
$GPGGA,193908.00,3743.8809760,N,12208.3308800,W,1,0,0.0,1.8517,M,0.0000,M,0.0000,0000*62
$GPRMC,193908.00,A,3743.8809760,N,12208.3308800,W,47.7627,347.0753,070923,,,,A*51
$GPGGA,193909.00,3743.8938340,N,12208.3345280,W,1,0,0.0,1.8006,M,0.0000,M,0.0000,0000*68
$GPRMC,193909.00,A,3743.8938340,N,12208.3345280,W,47.0658,347.2255,070923,,,,A*50
$GPGGA,193910.00,3743.9065180,N,12208.3381100,W,1,0,0.0,1.7686,M,0.0000,M,0.0000,0000*6c
$GPRMC,193910.00,A,3743.9065180,N,12208.3381100,W,46.4176,347.2527,070923,,,,A*59
$GPGGA,193911.00,3743.9190280,N,12208.3416260,W,1,0,0.0,1.7426,M,0.0000,M,0.0000,0000*61
$GPRMC,193911.00,A,3743.9190280,N,12208.3416260,W,45.8338,347.2453,070923,,,,A*59
$GPGGA,193912.00,3743.9315200,N,12208.3451420,W,1,0,0.0,1.7186,M,0.0000,M,0.0000,0000*6b
$GPRMC,193912.00,A,3743.9315200,N,12208.3451420,W,46.3519,347.4149,070923,,,,A*59
$GPGGA,193913.00,3743.9442160,N,12208.3486400,W,1,0,0.0,1.6786,M,0.0000,M,0.0000,0000*65
$GPRMC,193913.00,A,3743.9442160,N,12208.3486400,W,47.0397,347.6863,070923,,,,A*51
$GPGGA,193914.00,3743.9570980,N,12208.3520660,W,1,0,0.0,1.6546,M,0.0000,M,0.0000,0000*63
$GPRMC,193914.00,A,3743.9570980,N,12208.3520660,W,47.7169,348.1548,070923,,,,A*51
$GPGGA,193915.00,3743.9701600,N,12208.3554140,W,1,0,0.0,1.6226,M,0.0000,M,0.0000,0000*66
$GPRMC,193915.00,A,3743.9701600,N,12208.3554140,W,48.0005,348.5724,070923,,,,A*5a
