$GPGGA,205044.44,3731.4406540,N,12220.9952420,W,1,0,0.0,147.7216,M,0.0000,M,0.0000,0000*64
$GPRMC,205044.44,A,3731.4406540,N,12220.9952420,W,0.0019,83.6317,140721,,,,A*55
$GPGGA,205045.44,3731.4406540,N,12220.9952420,W,1,0,0.0,147.7216,M,0.0000,M,0.0000,0000*65
$GPRMC,205045.44,A,3731.4406540,N,12220.9952420,W,0.0019,83.6317,140721,,,,A*54
$GPGGA,205046.44,3731.4406540,N,12220.9952420,W,1,0,0.0,147.7216,M,0.0000,M,0.0000,0000*66
$GPRMC,205046.44,A,3731.4406540,N,12220.9952420,W,0.0024,83.6317,140721,,,,A*59
$GPGGA,205047.44,3731.4406540,N,12220.9952420,W,1,0,0.0,147.7216,M,0.0000,M,0.0000,0000*67
$GPRMC,205047.44,A,3731.4406540,N,12220.9952420,W,0.0034,83.6318,140721,,,,A*56
$GPGGA,205048.44,3731.4406540,N,12220.9952420,W,1,0,0.0,147.7216,M,0.0000,M,0.0000,0000*68
$GPRMC,205048.44,A,3731.4406540,N,12220.9952420,W,0.0034,83.6316,140721,,,,A*57
$GPGGA,205049.44,3731.4406540,N,12220.9952420,W,1,0,0.0,147.7216,M,0.0000,M,0.0000,0000*69
$GPRMC,205049.44,A,3731.4406540,N,12220.9952420,W,0.0019,83.6319,140721,,,,A*56
$GPGGA,205050.44,3731.4406540,N,12220.9952420,W,1,0,0.0,147.7216,M,0.0000,M,0.0000,0000*61
$GPRMC,205050.44,A,3731.4406540,N,12220.9952420,W,0.0029,83.6318,140721,,,,A*5c
$GPGGA,205051.44,3731.4406540,N,12220.9952420,W,1,0,0.0,147.7216,M,0.0000,M,0.0000,0000*60
$GPRMC,205051.44,A,3731.4406540,N,12220.9952420,W,0.0011,83.6316,140721,,,,A*58
$GPGGA,205052.44,3731.4406540,N,12220.9952420,W,1,0,0.0,147.7216,M,0.0000,M,0.0000,0000*63
$GPRMC,205052.44,A,3731.4406540,N,12220.9952420,W,0.0070,83.6314,140721,,,,A*5e
$GPGGA,205053.44,3731.4406540,N,12220.9952420,W,1,0,0.0,147.7216,M,0.0000,M,0.0000,0000*62
$GPRMC,205053.44,A,3731.4406540,N,12220.9952420,W,0.0019,83.6324,140721,,,,A*53
$GPGGA,205054.44,3731.4406540,N,12220.9952420,W,1,0,0.0,147.7216,M,0.0000,M,0.0000,0000*65
$GPRMC,205054.44,A,3731.4406540,N,12220.9952420,W,0.0016,83.6318,140721,,,,A*54
$GPGGA,205055.44,3731.4406540,N,12220.9952420,W,1,0,0.0,147.7216,M,0.0000,M,0.0000,0000*64
$GPRMC,205055.44,A,3731.4406540,N,12220.9952420,W,0.0000,83.6313,140721,,,,A*59
$GPGGA,205056.44,3731.4406540,N,12220.9952420,W,1,0,0.0,147.7216,M,0.0000,M,0.0000,0000*67
$GPRMC,205056.44,A,3731.4406540,N,12220.9952420,W,0.0019,83.6309,140721,,,,A*59
$GPGGA,205057.44,3731.4406540,N,12220.9952420,W,1,0,0.0,147.7216,M,0.0000,M,0.0000,0000*66
$GPRMC,205057.44,A,3731.4406540,N,12220.9952420,W,0.0000,83.6310,140721,,,,A*58
$GPGGA,205058.44,3731.4406540,N,12220.9952420,W,1,0,0.0,147.7216,M,0.0000,M,0.0000,0000*69
$GPRMC,205058.44,A,3731.4406540,N,12220.9952420,W,0.0000,83.6309,140721,,,,A*5f
$GPGGA,205059.44,3731.4406540,N,12220.9952420,W,1,0,0.0,147.7216,M,0.0000,M,0.0000,0000*68
$GPRMC,205059.44,A,3731.4406540,N,12220.9952420,W,0.0000,83.6309,140721,,,,A*5e
$GPGGA,205100.44,3731.4406540,N,12220.9952420,W,1,0,0.0,147.7216,M,0.0000,M,0.0000,0000*65
$GPRMC,205100.44,A,3731.4406540,N,12220.9952420,W,0.0000,83.6308,140721,,,,A*52
$GPGGA,205101.44,3731.4406540,N,12220.9952420,W,1,0,0.0,147.7216,M,0.0000,M,0.0000,0000*64
$GPRMC,205101.44,A,3731.4406540,N,12220.9952420,W,0.0024,83.6306,140721,,,,A*5b
$GPGGA,205102.44,3731.4406540,N,12220.9952420,W,1,0,0.0,147.7216,M,0.0000,M,0.0000,0000*67
$GPRMC,205102.44,A,3731.4406540,N,12220.9952420,W,0.0011,83.6304,140721,,,,A*5c
$GPGGA,205103.44,3731.4406540,N,12220.9952420,W,1,0,0.0,147.7216,M,0.0000,M,0.0000,0000*66
$GPRMC,205103.44,A,3731.4406540,N,12220.9952420,W,0.0000,83.6305,140721,,,,A*5c
$GPGGA,205104.44,3731.4406540,N,12220.9952420,W,1,0,0.0,147.7216,M,0.0000,M,0.0000,0000*61
$GPRMC,205104.44,A,3731.4406540,N,12220.9952420,W,0.0000,83.6304,140721,,,,A*5a
$GPGGA,205105.44,3731.4406540,N,12220.9952420,W,1,0,0.0,147.7206,M,0.0000,M,0.0000,0000*61
$GPRMC,205105.44,A,3731.4406540,N,12220.9952420,W,0.0000,83.6304,140721,,,,A*5b
$GPGGA,205106.44,3731.4406540,N,12220.9952420,W,1,0,0.0,147.7206,M,0.0000,M,0.0000,0000*62
$GPRMC,205106.44,A,3731.4406540,N,12220.9952420,W,0.0000,83.6303,140721,,,,A*5f
$GPGGA,205107.44,3731.4406540,N,12220.9952420,W,1,0,0.0,147.7206,M,0.0000,M,0.0000,0000*63
$GPRMC,205107.44,A,3731.4406540,N,12220.9952420,W,0.0019,83.6302,140721,,,,A*57
$GPGGA,205108.44,3731.4406540,N,12220.9952420,W,1,0,0.0,147.7206,M,0.0000,M,0.0000,0000*6c
$GPRMC,205108.44,A,3731.4406540,N,12220.9952420,W,0.0032,83.6310,140721,,,,A*52
$GPGGA,205109.44,3731.4406600,N,12220.9951880,W,1,0,0.0,147.7136,M,0.0000,M,0.0000,0000*6f
$GPRMC,205109.44,A,3731.4406600,N,12220.9951880,W,0.6828,83.6384,140721,,,,A*59
$GPGGA,205110.44,3731.4406960,N,12220.9946180,W,1,0,0.0,147.6860,M,0.0000,M,0.0000,0000*6a
$GPRMC,205110.44,A,3731.4406960,N,12220.9946180,W,2.6073,84.4745,140721,,,,A*5f
$GPGGA,205111.44,3731.4406060,N,12220.9933700,W,1,0,0.0,147.6468,M,0.0000,M,0.0000,0000*6a
$GPRMC,205111.44,A,3731.4406060,N,12220.9933700,W,4.4454,91.3617,140721,,,,A*5b
$GPGGA,205112.44,3731.4401800,N,12220.9915940,W,1,0,0.0,147.6022,M,0.0000,M,0.0000,0000*64
$GPRMC,205112.44,A,3731.4401800,N,12220.9915940,W,6.1336,103.8059,140721,,,,A*66
$GPGGA,205113.44,3731.4392500,N,12220.9894040,W,1,0,0.0,147.5540,M,0.0000,M,0.0000,0000*66
$GPRMC,205113.44,A,3731.4392500,N,12220.9894040,W,8.0487,116.8221,140721,,,,A*6d
$GPGGA,205114.44,3731.4377320,N,12220.9868600,W,1,0,0.0,147.4462,M,0.0000,M,0.0000,0000*6f
$GPRMC,205114.44,A,3731.4377320,N,12220.9868600,W,9.9748,127.6272,140721,,,,A*66
$GPGGA,205115.44,3731.4356080,N,12220.9842800,W,1,0,0.0,147.5131,M,0.0000,M,0.0000,0000*60
$GPRMC,205115.44,A,3731.4356080,N,12220.9842800,W,11.2546,136.6957,140721,,,,A*59
$GPGGA,205116.44,3731.4330340,N,12220.9818920,W,1,0,0.0,147.6071,M,0.0000,M,0.0000,0000*66
$GPRMC,205116.44,A,3731.4330340,N,12220.9818920,W,11.4762,145.6078,140721,,,,A*5b
$GPGGA,205117.44,3731.4302140,N,12220.9801400,W,1,0,0.0,147.6491,M,0.0000,M,0.0000,0000*69
$GPRMC,205117.44,A,3731.4302140,N,12220.9801400,W,11.1576,155.2283,140721,,,,A*5f
$GPGGA,205118.44,3731.4273160,N,12220.9789100,W,1,0,0.0,147.5803,M,0.0000,M,0.0000,0000*6d
$GPRMC,205118.44,A,3731.4273160,N,12220.9789100,W,10.7680,161.6022,140721,,,,A*58
$GPGGA,205119.44,3731.4245860,N,12220.9777340,W,1,0,0.0,147.6922,M,0.0000,M,0.0000,0000*66
$GPRMC,205119.44,A,3731.4245860,N,12220.9777340,W,9.9352,159.9321,140721,,,,A*6a
$GPGGA,205120.44,3731.4223060,N,12220.9762580,W,1,0,0.0,147.8870,M,0.0000,M,0.0000,0000*62
$GPRMC,205120.44,A,3731.4223060,N,12220.9762580,W,8.2658,152.0587,140721,,,,A*6b
$GPGGA,205121.44,3731.4206440,N,12220.9748300,W,1,0,0.0,148.0684,M,0.0000,M,0.0000,0000*66
$GPRMC,205121.44,A,3731.4206440,N,12220.9748300,W,6.3701,146.0157,140721,,,,A*63
$GPGGA,205122.44,3731.4194020,N,12220.9736300,W,1,0,0.0,148.2689,M,0.0000,M,0.0000,0000*69
$GPRMC,205122.44,A,3731.4194020,N,12220.9736300,W,5.1172,142.9364,140721,,,,A*6f
$GPGGA,205123.44,3731.4182980,N,12220.9726400,W,1,0,0.0,148.4623,M,0.0000,M,0.0000,0000*6c
$GPRMC,205123.44,A,3731.4182980,N,12220.9726400,W,4.7503,144.7109,140721,,,,A*68
$GPGGA,205124.44,3731.4170080,N,12220.9722020,W,1,0,0.0,148.3533,M,0.0000,M,0.0000,0000*68
$GPRMC,205124.44,A,3731.4170080,N,12220.9722020,W,4.6101,161.2249,140721,,,,A*6b
$GPGGA,205125.44,3731.4156820,N,12220.9726820,W,1,0,0.0,148.2881,M,0.0000,M,0.0000,0000*66
$GPRMC,205125.44,A,3731.4156820,N,12220.9726820,W,4.8972,187.0533,140721,,,,A*62
$GPGGA,205126.44,3731.4144280,N,12220.9738460,W,1,0,0.0,148.3921,M,0.0000,M,0.0000,0000*6b
$GPRMC,205126.44,A,3731.4144280,N,12220.9738460,W,6.0665,211.0432,140721,,,,A*6a
$GPGGA,205127.44,3731.4131620,N,12220.9757300,W,1,0,0.0,148.3768,M,0.0000,M,0.0000,0000*6d
$GPRMC,205127.44,A,3731.4131620,N,12220.9757300,W,8.0322,227.4089,140721,,,,A*62
$GPGGA,205128.44,3731.4115660,N,12220.9781720,W,1,0,0.0,148.2611,M,0.0000,M,0.0000,0000*63
$GPRMC,205128.44,A,3731.4115660,N,12220.9781720,W,10.0140,230.3804,140721,,,,A*51
$GPGGA,205129.44,3731.4096520,N,12220.9811540,W,1,0,0.0,148.0836,M,0.0000,M,0.0000,0000*64
$GPRMC,205129.44,A,3731.4096520,N,12220.9811540,W,11.6952,231.0223,140721,,,,A*5e
$GPGGA,205130.44,3731.4075400,N,12220.9843880,W,1,0,0.0,147.8340,M,0.0000,M,0.0000,0000*69
$GPRMC,205130.44,A,3731.4075400,N,12220.9843880,W,12.1441,230.6389,140721,,,,A*53
$GPGGA,205131.44,3731.4053980,N,12220.9876160,W,1,0,0.0,147.5820,M,0.0000,M,0.0000,0000*68
$GPRMC,205131.44,A,3731.4053980,N,12220.9876160,W,11.7879,229.9851,140721,,,,A*59
$GPGGA,205132.44,3731.4033880,N,12220.9905800,W,1,0,0.0,147.3490,M,0.0000,M,0.0000,0000*67
$GPRMC,205132.44,A,3731.4033880,N,12220.9905800,W,10.2428,229.6975,140721,,,,A*53
$GPGGA,205133.44,3731.4018040,N,12220.9929140,W,1,0,0.0,147.1703,M,0.0000,M,0.0000,0000*63
$GPRMC,205133.44,A,3731.4018040,N,12220.9929140,W,7.1173,229.4968,140721,,,,A*6c
$GPGGA,205134.44,3731.4008380,N,12220.9943300,W,1,0,0.0,147.0802,M,0.0000,M,0.0000,0000*6f
$GPRMC,205134.44,A,3731.4008380,N,12220.9943300,W,3.6863,229.4479,140721,,,,A*69
$GPGGA,205135.44,3731.4003940,N,12220.9949780,W,1,0,0.0,147.0338,M,0.0000,M,0.0000,0000*67
$GPRMC,205135.44,A,3731.4003940,N,12220.9949780,W,2.1536,229.4436,140721,,,,A*63
$GPGGA,205136.44,3731.3998420,N,12220.9957880,W,1,0,0.0,146.9822,M,0.0000,M,0.0000,0000*6b
$GPRMC,205136.44,A,3731.3998420,N,12220.9957880,W,4.2938,229.4504,140721,,,,A*60
$GPGGA,205137.44,3731.3988160,N,12220.9973120,W,1,0,0.0,146.9278,M,0.0000,M,0.0000,0000*6a
$GPRMC,205137.44,A,3731.3988160,N,12220.9973120,W,7.1098,229.8430,140721,,,,A*6d
$GPGGA,205138.44,3731.3973820,N,12220.9994900,W,1,0,0.0,146.8882,M,0.0000,M,0.0000,0000*61
$GPRMC,205138.44,A,3731.3973820,N,12220.9994900,W,8.4321,230.2689,140721,,,,A*61
$GPGGA,205139.44,3731.3959240,N,12221.0017160,W,1,0,0.0,146.8929,M,0.0000,M,0.0000,0000*60
$GPRMC,205139.44,A,3731.3959240,N,12221.0017160,W,7.9829,230.6349,140721,,,,A*6c
$GPGGA,205140.44,3731.3945740,N,12221.0037920,W,1,0,0.0,146.9651,M,0.0000,M,0.0000,0000*69
$GPRMC,205140.44,A,3731.3945740,N,12221.0037920,W,7.3339,230.9768,140721,,,,A*6c
$GPGGA,205141.44,3731.3933680,N,12221.0056880,W,1,0,0.0,147.0483,M,0.0000,M,0.0000,0000*6d
$GPRMC,205141.44,A,3731.3933680,N,12221.0056880,W,6.5771,231.3331,140721,,,,A*61
$GPGGA,205142.44,3731.3922940,N,12221.0073920,W,1,0,0.0,147.1537,M,0.0000,M,0.0000,0000*6e
$GPRMC,205142.44,A,3731.3922940,N,12221.0073920,W,5.8164,231.5626,140721,,,,A*64
$GPGGA,205143.44,3731.3913460,N,12221.0088980,W,1,0,0.0,147.2409,M,0.0000,M,0.0000,0000*63
$GPRMC,205143.44,A,3731.3913460,N,12221.0088980,W,5.2550,231.6130,140721,,,,A*6c
$GPGGA,205144.44,3731.3904700,N,12221.0102780,W,1,0,0.0,147.3381,M,0.0000,M,0.0000,0000*6c
$GPRMC,205144.44,A,3731.3904700,N,12221.0102780,W,4.8495,231.5475,140721,,,,A*61
$GPGGA,205145.44,3731.3896600,N,12221.0115560,W,1,0,0.0,147.4477,M,0.0000,M,0.0000,0000*65
$GPRMC,205145.44,A,3731.3896600,N,12221.0115560,W,4.5324,231.4878,140721,,,,A*61
$GPGGA,205146.44,3731.3888920,N,12221.0127680,W,1,0,0.0,147.5483,M,0.0000,M,0.0000,0000*62
$GPRMC,205146.44,A,3731.3888920,N,12221.0127680,W,4.3371,231.4610,140721,,,,A*6a
$GPGGA,205147.44,3731.3880700,N,12221.0140520,W,1,0,0.0,147.6380,M,0.0000,M,0.0000,0000*68
$GPRMC,205147.44,A,3731.3880700,N,12221.0140520,W,5.3902,231.0843,140721,,,,A*64
$GPGGA,205148.44,3731.3869720,N,12221.0157080,W,1,0,0.0,147.7940,M,0.0000,M,0.0000,0000*6c
$GPRMC,205148.44,A,3731.3869720,N,12221.0157080,W,7.0886,230.5675,140721,,,,A*64
$GPGGA,205149.44,3731.3855080,N,12221.0179280,W,1,0,0.0,147.9969,M,0.0000,M,0.0000,0000*64
$GPRMC,205149.44,A,3731.3855080,N,12221.0179280,W,9.4844,230.2077,140721,,,,A*6e
$GPGGA,205150.44,3731.3835820,N,12221.0207600,W,1,0,0.0,148.2424,M,0.0000,M,0.0000,0000*6e
$GPRMC,205150.44,A,3731.3835820,N,12221.0207600,W,11.7755,229.4872,140721,,,,A*52
$GPGGA,205151.44,3731.3812600,N,12221.0241440,W,1,0,0.0,148.5571,M,0.0000,M,0.0000,0000*64
$GPRMC,205151.44,A,3731.3812600,N,12221.0241440,W,13.7588,229.2901,140721,,,,A*5d
$GPGGA,205152.44,3731.3787400,N,12221.0278100,W,1,0,0.0,148.9289,M,0.0000,M,0.0000,0000*61
$GPRMC,205152.44,A,3731.3787400,N,12221.0278100,W,13.5798,229.3355,140721,,,,A*5f
$GPGGA,205153.44,3731.3763940,N,12221.0312660,W,1,0,0.0,149.2545,M,0.0000,M,0.0000,0000*62
$GPRMC,205153.44,A,3731.3763940,N,12221.0312660,W,12.0685,229.6492,140721,,,,A*51
$GPGGA,205154.44,3731.3745760,N,12221.0339720,W,1,0,0.0,149.5068,M,0.0000,M,0.0000,0000*6c
$GPRMC,205154.44,A,3731.3745760,N,12221.0339720,W,8.0946,229.9967,140721,,,,A*61
$GPGGA,205155.44,3731.3734960,N,12221.0356100,W,1,0,0.0,149.6321,M,0.0000,M,0.0000,0000*65
$GPRMC,205155.44,A,3731.3734960,N,12221.0356100,W,4.4688,230.2096,140721,,,,A*64
$GPGGA,205156.44,3731.3727280,N,12221.0368520,W,1,0,0.0,149.7013,M,0.0000,M,0.0000,0000*69
$GPRMC,205156.44,A,3731.3727280,N,12221.0368520,W,4.8492,231.9621,140721,,,,A*6e
$GPGGA,205157.44,3731.3719420,N,12221.0384840,W,1,0,0.0,149.7917,M,0.0000,M,0.0000,0000*6d
$GPRMC,205157.44,A,3731.3719420,N,12221.0384840,W,6.0800,238.2440,140721,,,,A*6d
$GPGGA,205158.44,3731.3715580,N,12221.0406680,W,1,0,0.0,149.8432,M,0.0000,M,0.0000,0000*6f
$GPRMC,205158.44,A,3731.3715580,N,12221.0406680,W,6.3847,256.5649,140721,,,,A*6e
$GPGGA,205159.44,3731.3719240,N,12221.0429420,W,1,0,0.0,149.7849,M,0.0000,M,0.0000,0000*63
$GPRMC,205159.44,A,3731.3719240,N,12221.0429420,W,6.9109,279.3102,140721,,,,A*67
$GPGGA,205200.44,3731.3731240,N,12221.0452520,W,1,0,0.0,149.8010,M,0.0000,M,0.0000,0000*60
$GPRMC,205200.44,A,3731.3731240,N,12221.0452520,W,8.9424,302.2336,140721,,,,A*62
$GPGGA,205201.44,3731.3751160,N,12221.0479100,W,1,0,0.0,149.7774,M,0.0000,M,0.0000,0000*63
$GPRMC,205201.44,A,3731.3751160,N,12221.0479100,W,12.0075,313.3957,140721,,,,A*55
$GPGGA,205202.44,3731.3778760,N,12221.0511800,W,1,0,0.0,149.7244,M,0.0000,M,0.0000,0000*6d
$GPRMC,205202.44,A,3731.3778760,N,12221.0511800,W,15.4189,317.3235,140721,,,,A*57
$GPGGA,205203.44,3731.3814340,N,12221.0551400,W,1,0,0.0,149.5790,M,0.0000,M,0.0000,0000*69
$GPRMC,205203.44,A,3731.3814340,N,12221.0551400,W,18.6382,318.8443,140721,,,,A*58
$GPGGA,205204.44,3731.3857480,N,12221.0597660,W,1,0,0.0,149.2132,M,0.0000,M,0.0000,0000*65
$GPRMC,205204.44,A,3731.3857480,N,12221.0597660,W,22.1655,319.7918,140721,,,,A*51
$GPGGA,205205.44,3731.3906200,N,12221.0650100,W,1,0,0.0,148.5848,M,0.0000,M,0.0000,0000*64
$GPRMC,205205.44,A,3731.3906200,N,12221.0650100,W,23.6373,319.5462,140721,,,,A*57
$GPGGA,205206.44,3731.3957200,N,12221.0704460,W,1,0,0.0,147.8335,M,0.0000,M,0.0000,0000*63
$GPRMC,205206.44,A,3731.3957200,N,12221.0704460,W,24.5649,319.7754,140721,,,,A*5f
$GPGGA,205207.44,3731.4010540,N,12221.0760920,W,1,0,0.0,147.0135,M,0.0000,M,0.0000,0000*6d
$GPRMC,205207.44,A,3731.4010540,N,12221.0760920,W,25.6404,319.7244,140721,,,,A*56
$GPGGA,205208.44,3731.4066220,N,12221.0819960,W,1,0,0.0,146.1475,M,0.0000,M,0.0000,0000*66
$GPRMC,205208.44,A,3731.4066220,N,12221.0819960,W,26.7607,320.1269,140721,,,,A*5c
$GPGGA,205209.44,3731.4124180,N,12221.0881400,W,1,0,0.0,145.2983,M,0.0000,M,0.0000,0000*67
$GPRMC,205209.44,A,3731.4124180,N,12221.0881400,W,27.6290,319.6480,140721,,,,A*5f
$GPGGA,205210.44,3731.4183100,N,12221.0944280,W,1,0,0.0,144.5718,M,0.0000,M,0.0000,0000*66
$GPRMC,205210.44,A,3731.4183100,N,12221.0944280,W,27.9681,319.7767,140721,,,,A*54
$GPGGA,205211.44,3731.4242800,N,12221.1007280,W,1,0,0.0,144.0338,M,0.0000,M,0.0000,0000*6c
$GPRMC,205211.44,A,3731.4242800,N,12221.1007280,W,28.0427,320.2041,140721,,,,A*59
$GPGGA,205212.44,3731.4302620,N,12221.1069980,W,1,0,0.0,143.5528,M,0.0000,M,0.0000,0000*60
$GPRMC,205212.44,A,3731.4302620,N,12221.1069980,W,28.0292,320.1156,140721,,,,A*5c
$GPGGA,205213.44,3731.4362440,N,12221.1132800,W,1,0,0.0,143.0730,M,0.0000,M,0.0000,0000*6b
$GPRMC,205213.44,A,3731.4362440,N,12221.1132800,W,28.0304,320.1504,140721,,,,A*54
$GPGGA,205214.44,3731.4422140,N,12221.1195680,W,1,0,0.0,142.5680,M,0.0000,M,0.0000,0000*6f
$GPRMC,205214.44,A,3731.4422140,N,12221.1195680,W,28.0643,319.9973,140721,,,,A*56
$GPGGA,205215.44,3731.4481900,N,12221.1258920,W,1,0,0.0,142.0643,M,0.0000,M,0.0000,0000*66
$GPRMC,205215.44,A,3731.4481900,N,12221.1258920,W,28.0987,319.8381,140721,,,,A*54
$GPGGA,205216.44,3731.4541420,N,12221.1322400,W,1,0,0.0,141.5680,M,0.0000,M,0.0000,0000*6d
$GPRMC,205216.44,A,3731.4541420,N,12221.1322400,W,28.0268,319.7471,140721,,,,A*5b
$GPGGA,205217.44,3731.4599320,N,12221.1383480,W,1,0,0.0,141.1012,M,0.0000,M,0.0000,0000*64
$GPRMC,205217.44,A,3731.4599320,N,12221.1383480,W,25.8039,320.0492,140721,,,,A*58
$GPGGA,205218.44,3731.4650380,N,12221.1437060,W,1,0,0.0,140.6817,M,0.0000,M,0.0000,0000*6e
$GPRMC,205218.44,A,3731.4650380,N,12221.1437060,W,21.9372,319.9692,140721,,,,A*51
$GPGGA,205219.44,3731.4692440,N,12221.1481820,W,1,0,0.0,140.3222,M,0.0000,M,0.0000,0000*62
$GPRMC,205219.44,A,3731.4692440,N,12221.1481820,W,17.6587,319.5595,140721,,,,A*5a
$GPGGA,205220.44,3731.4724900,N,12221.1516680,W,1,0,0.0,140.0249,M,0.0000,M,0.0000,0000*68
$GPRMC,205220.44,A,3731.4724900,N,12221.1516680,W,13.0349,319.6620,140721,,,,A*56
$GPGGA,205221.44,3731.4748120,N,12221.1541280,W,1,0,0.0,139.8135,M,0.0000,M,0.0000,0000*61
$GPRMC,205221.44,A,3731.4748120,N,12221.1541280,W,8.9712,319.8101,140721,,,,A*62
$GPGGA,205222.44,3731.4763120,N,12221.1557420,W,1,0,0.0,139.6751,M,0.0000,M,0.0000,0000*6a
$GPRMC,205222.44,A,3731.4763120,N,12221.1557420,W,5.2966,319.7104,140721,,,,A*62
$GPGGA,205223.44,3731.4771280,N,12221.1566120,W,1,0,0.0,139.6396,M,0.0000,M,0.0000,0000*69
$GPRMC,205223.44,A,3731.4771280,N,12221.1566120,W,2.7272,319.6024,140721,,,,A*60
$GPGGA,205224.44,3731.4778120,N,12221.1573620,W,1,0,0.0,139.5912,M,0.0000,M,0.0000,0000*68
$GPRMC,205224.44,A,3731.4778120,N,12221.1573620,W,4.0494,319.2805,140721,,,,A*64
$GPGGA,205225.44,3731.4788020,N,12221.1586580,W,1,0,0.0,139.5184,M,0.0000,M,0.0000,0000*63
$GPRMC,205225.44,A,3731.4788020,N,12221.1586580,W,6.1893,314.7163,140721,,,,A*61
$GPGGA,205226.44,3731.4797740,N,12221.1608120,W,1,0,0.0,139.4432,M,0.0000,M,0.0000,0000*6d
$GPRMC,205226.44,A,3731.4797740,N,12221.1608120,W,7.6839,300.1519,140721,,,,A*6a
$GPGGA,205227.44,3731.4801160,N,12221.1635300,W,1,0,0.0,139.3613,M,0.0000,M,0.0000,0000*60
$GPRMC,205227.44,A,3731.4801160,N,12221.1635300,W,7.8174,278.2342,140721,,,,A*6a
$GPGGA,205228.44,3731.4794140,N,12221.1663320,W,1,0,0.0,139.2063,M,0.0000,M,0.0000,0000*6f
$GPRMC,205228.44,A,3731.4794140,N,12221.1663320,W,8.8204,252.1454,140721,,,,A*65
$GPGGA,205229.44,3731.4778780,N,12221.1690380,W,1,0,0.0,139.0377,M,0.0000,M,0.0000,0000*64
$GPRMC,205229.44,A,3731.4778780,N,12221.1690380,W,10.1477,234.9072,140721,,,,A*50
$GPGGA,205230.44,3731.4759160,N,12221.1719960,W,1,0,0.0,138.8416,M,0.0000,M,0.0000,0000*6a
$GPRMC,205230.44,A,3731.4759160,N,12221.1719960,W,12.0403,229.9917,140721,,,,A*51
$GPGGA,205231.44,3731.4734980,N,12221.1754760,W,1,0,0.0,138.5671,M,0.0000,M,0.0000,0000*6f
$GPRMC,205231.44,A,3731.4734980,N,12221.1754760,W,14.3783,229.1025,140721,,,,A*54
$GPGGA,205232.44,3731.4707320,N,12221.1794660,W,1,0,0.0,138.1794,M,0.0000,M,0.0000,0000*6f
$GPRMC,205232.44,A,3731.4707320,N,12221.1794660,W,16.0857,228.8993,140721,,,,A*51
$GPGGA,205233.44,3731.4675220,N,12221.1839300,W,1,0,0.0,137.7283,M,0.0000,M,0.0000,0000*6a
$GPRMC,205233.44,A,3731.4675220,N,12221.1839300,W,18.2926,227.5169,140721,,,,A*5a
$GPGGA,205234.44,3731.4637600,N,12221.1886580,W,1,0,0.0,137.2040,M,0.0000,M,0.0000,0000*6f
$GPRMC,205234.44,A,3731.4637600,N,12221.1886580,W,19.8429,224.2049,140721,,,,A*59
$GPGGA,205235.44,3731.4596380,N,12221.1935720,W,1,0,0.0,136.6994,M,0.0000,M,0.0000,0000*6f
$GPRMC,205235.44,A,3731.4596380,N,12221.1935720,W,21.0526,223.7021,140721,,,,A*5d
$GPGGA,205236.44,3731.4552760,N,12221.1987860,W,1,0,0.0,136.1155,M,0.0000,M,0.0000,0000*6e
$GPRMC,205236.44,A,3731.4552760,N,12221.1987860,W,22.1463,223.6745,140721,,,,A*58
$GPGGA,205237.44,3731.4507340,N,12221.2041740,W,1,0,0.0,135.4174,M,0.0000,M,0.0000,0000*61
$GPRMC,205237.44,A,3731.4507340,N,12221.2041740,W,22.7849,223.3353,140721,,,,A*56
$GPGGA,205238.44,3731.4460180,N,12221.2095680,W,1,0,0.0,134.6273,M,0.0000,M,0.0000,0000*63
$GPRMC,205238.44,A,3731.4460180,N,12221.2095680,W,22.9374,221.8497,140721,,,,A*5e
$GPGGA,205239.44,3731.4411040,N,12221.2146020,W,1,0,0.0,133.7275,M,0.0000,M,0.0000,0000*6a
$GPRMC,205239.44,A,3731.4411040,N,12221.2146020,W,22.6904,217.8611,140721,,,,A*5c
$GPGGA,205240.44,3731.4359380,N,12221.2191560,W,1,0,0.0,132.7477,M,0.0000,M,0.0000,0000*6e
$GPRMC,205240.44,A,3731.4359380,N,12221.2191560,W,22.8601,213.6856,140721,,,,A*5e
$GPGGA,205241.44,3731.4303940,N,12221.2232120,W,1,0,0.0,131.6979,M,0.0000,M,0.0000,0000*6d
$GPRMC,205241.44,A,3731.4303940,N,12221.2232120,W,23.2086,208.3708,140721,,,,A*55
$GPGGA,205242.44,3731.4245140,N,12221.2266140,W,1,0,0.0,130.5938,M,0.0000,M,0.0000,0000*65
$GPRMC,205242.44,A,3731.4245140,N,12221.2266140,W,23.3641,202.7776,140721,,,,A*51
$GPGGA,205243.44,3731.4184000,N,12221.2296080,W,1,0,0.0,129.4828,M,0.0000,M,0.0000,0000*64
$GPRMC,205243.44,A,3731.4184000,N,12221.2296080,W,24.0351,200.7136,140721,,,,A*59
$GPGGA,205244.44,3731.4120580,N,12221.2326440,W,1,0,0.0,128.3826,M,0.0000,M,0.0000,0000*6a
$GPRMC,205244.44,A,3731.4120580,N,12221.2326440,W,24.5176,201.3530,140721,,,,A*5a
$GPGGA,205245.44,3731.4059680,N,12221.2362200,W,1,0,0.0,127.2486,M,0.0000,M,0.0000,0000*6d
$GPRMC,205245.44,A,3731.4059680,N,12221.2362200,W,23.8534,208.1565,140721,,,,A*56
$GPGGA,205246.44,3731.4005980,N,12221.2409960,W,1,0,0.0,126.0990,M,0.0000,M,0.0000,0000*66
$GPRMC,205246.44,A,3731.4005980,N,12221.2409960,W,23.5802,219.8703,140721,,,,A*5a
$GPGGA,205247.44,3731.3961820,N,12221.2470020,W,1,0,0.0,124.9596,M,0.0000,M,0.0000,0000*62
$GPRMC,205247.44,A,3731.3961820,N,12221.2470020,W,23.2560,231.5132,140721,,,,A*52
$GPGGA,205248.44,3731.3929300,N,12221.2538600,W,1,0,0.0,123.8500,M,0.0000,M,0.0000,0000*68
$GPRMC,205248.44,A,3731.3929300,N,12221.2538600,W,22.5837,243.7713,140721,,,,A*5a
$GPGGA,205249.44,3731.3909200,N,12221.2612880,W,1,0,0.0,122.8525,M,0.0000,M,0.0000,0000*61
$GPRMC,205249.44,A,3731.3909200,N,12221.2612880,W,22.4587,255.1944,140721,,,,A*5f
$GPGGA,205250.44,3731.3901280,N,12221.2692020,W,1,0,0.0,121.7566,M,0.0000,M,0.0000,0000*68
$GPRMC,205250.44,A,3731.3901280,N,12221.2692020,W,23.3245,267.1505,140721,,,,A*5a
$GPGGA,205251.44,3731.3906440,N,12221.2774340,W,1,0,0.0,120.7279,M,0.0000,M,0.0000,0000*60
$GPRMC,205251.44,A,3731.3906440,N,12221.2774340,W,24.0319,278.9587,140721,,,,A*5a
$GPGGA,205252.44,3731.3924080,N,12221.2856960,W,1,0,0.0,119.7047,M,0.0000,M,0.0000,0000*69
$GPRMC,205252.44,A,3731.3924080,N,12221.2856960,W,25.1754,287.7641,140721,,,,A*5c
$GPGGA,205253.44,3731.3950960,N,12221.2942460,W,1,0,0.0,118.6352,M,0.0000,M,0.0000,0000*62
$GPRMC,205253.44,A,3731.3950960,N,12221.2942460,W,27.4635,294.0540,140721,,,,A*56
$GPGGA,205254.44,3731.3987140,N,12221.3029520,W,1,0,0.0,117.3287,M,0.0000,M,0.0000,0000*66
$GPRMC,205254.44,A,3731.3987140,N,12221.3029520,W,29.0224,299.8616,140721,,,,A*5a
$GPGGA,205255.44,3731.4033220,N,12221.3118080,W,1,0,0.0,115.7985,M,0.0000,M,0.0000,0000*60
$GPRMC,205255.44,A,3731.4033220,N,12221.3118080,W,31.6244,305.3950,140721,,,,A*58
$GPGGA,205256.44,3731.4089260,N,12221.3209160,W,1,0,0.0,114.3237,M,0.0000,M,0.0000,0000*6d
$GPRMC,205256.44,A,3731.4089260,N,12221.3209160,W,34.3111,309.4693,140721,,,,A*5a
$GPGGA,205257.44,3731.4154840,N,12221.3302280,W,1,0,0.0,112.8268,M,0.0000,M,0.0000,0000*65
$GPRMC,205257.44,A,3731.4154840,N,12221.3302280,W,36.8720,312.7580,140721,,,,A*50
$GPGGA,205258.44,3731.4227320,N,12221.3399540,W,1,0,0.0,111.3939,M,0.0000,M,0.0000,0000*6e
$GPRMC,205258.44,A,3731.4227320,N,12221.3399540,W,39.3471,313.2682,140721,,,,A*5a
$GPGGA,205259.44,3731.4304420,N,12221.3502620,W,1,0,0.0,110.1527,M,0.0000,M,0.0000,0000*69
$GPRMC,205259.44,A,3731.4304420,N,12221.3502620,W,41.6025,313.1884,140721,,,,A*59
$GPGGA,205300.44,3731.4386260,N,12221.3610980,W,1,0,0.0,108.8019,M,0.0000,M,0.0000,0000*61
$GPRMC,205300.44,A,3731.4386260,N,12221.3610980,W,43.9429,314.1338,140721,,,,A*57
$GPGGA,205301.44,3731.4474640,N,12221.3722400,W,1,0,0.0,107.4143,M,0.0000,M,0.0000,0000*64
$GPRMC,205301.44,A,3731.4474640,N,12221.3722400,W,46.1107,315.6255,140721,,,,A*57
$GPGGA,205302.44,3731.4569320,N,12221.3836460,W,1,0,0.0,106.0517,M,0.0000,M,0.0000,0000*65
$GPRMC,205302.44,A,3731.4569320,N,12221.3836460,W,48.1803,316.9736,140721,,,,A*59
$GPGGA,205303.44,3731.4669940,N,12221.3951780,W,1,0,0.0,104.8690,M,0.0000,M,0.0000,0000*60
$GPRMC,205303.44,A,3731.4669940,N,12221.3951780,W,49.6846,318.4320,140721,,,,A*5d
$GPGGA,205304.44,3731.4774940,N,12221.4067220,W,1,0,0.0,104.0269,M,0.0000,M,0.0000,0000*64
$GPRMC,205304.44,A,3731.4774940,N,12221.4067220,W,50.6427,319.8560,140721,,,,A*5f
$GPGGA,205305.44,3731.4884920,N,12221.4179840,W,1,0,0.0,103.3197,M,0.0000,M,0.0000,0000*67
$GPRMC,205305.44,A,3731.4884920,N,12221.4179840,W,51.4030,322.0794,140721,,,,A*52
$GPGGA,205306.44,3731.4999340,N,12221.4290240,W,1,0,0.0,102.4713,M,0.0000,M,0.0000,0000*67
$GPRMC,205306.44,A,3731.4999340,N,12221.4290240,W,52.4891,322.8602,140721,,,,A*58
$GPGGA,205307.44,3731.5118140,N,12221.4402260,W,1,0,0.0,101.5686,M,0.0000,M,0.0000,0000*64
$GPRMC,205307.44,A,3731.5118140,N,12221.4402260,W,54.5887,323.2070,140721,,,,A*5c
$GPGGA,205308.44,3731.5241800,N,12221.4519680,W,1,0,0.0,100.5295,M,0.0000,M,0.0000,0000*6f
$GPRMC,205308.44,A,3731.5241800,N,12221.4519680,W,56.5383,322.6639,140721,,,,A*53
$GPGGA,205309.44,3731.5366540,N,12221.4640040,W,1,0,0.0,99.4063,M,0.0000,M,0.0000,0000*5d
$GPRMC,205309.44,A,3731.5366540,N,12221.4640040,W,56.6440,322.5011,140721,,,,A*5e
$GPGGA,205310.44,3731.5491400,N,12221.4760700,W,1,0,0.0,98.2201,M,0.0000,M,0.0000,0000*5e
$GPRMC,205310.44,A,3731.5491400,N,12221.4760700,W,56.5691,322.5738,140721,,,,A*5d
$GPGGA,205311.44,3731.5616980,N,12221.4878960,W,1,0,0.0,97.0375,M,0.0000,M,0.0000,0000*56
$GPRMC,205311.44,A,3731.5616980,N,12221.4878960,W,56.3558,323.8659,140721,,,,A*50
$GPGGA,205312.44,3731.5744780,N,12221.4992540,W,1,0,0.0,95.7771,M,0.0000,M,0.0000,0000*53
$GPRMC,205312.44,A,3731.5744780,N,12221.4992540,W,56.3386,325.6331,140721,,,,A*56
$GPGGA,205313.44,3731.5876120,N,12221.5101500,W,1,0,0.0,94.5429,M,0.0000,M,0.0000,0000*5a
$GPRMC,205313.44,A,3731.5876120,N,12221.5101500,W,56.9236,327.5819,140721,,,,A*52
$GPGGA,205314.44,3731.6012200,N,12221.5205240,W,1,0,0.0,93.4081,M,0.0000,M,0.0000,0000*51
$GPRMC,205314.44,A,3731.6012200,N,12221.5205240,W,57.5998,330.0634,140721,,,,A*59
$GPGGA,205315.44,3731.6153320,N,12221.5302620,W,1,0,0.0,92.4756,M,0.0000,M,0.0000,0000*5f
$GPRMC,205315.44,A,3731.6153320,N,12221.5302620,W,58.1926,332.4600,140721,,,,A*54
$GPGGA,205316.44,3731.6299180,N,12221.5392800,W,1,0,0.0,91.7559,M,0.0000,M,0.0000,0000*59
$GPRMC,205316.44,A,3731.6299180,N,12221.5392800,W,58.7059,335.1641,140721,,,,A*5f
$GPGGA,205317.44,3731.6449120,N,12221.5475840,W,1,0,0.0,91.2563,M,0.0000,M,0.0000,0000*5f
$GPRMC,205317.44,A,3731.6449120,N,12221.5475840,W,59.0933,337.3595,140721,,,,A*5c
$GPGGA,205318.44,3731.6602060,N,12221.5552040,W,1,0,0.0,91.0030,M,0.0000,M,0.0000,0000*55
$GPRMC,205318.44,A,3731.6602060,N,12221.5552040,W,59.2282,339.5034,140721,,,,A*52
$GPGGA,205319.44,3731.6757340,N,12221.5620860,W,1,0,0.0,91.2445,M,0.0000,M,0.0000,0000*5c
$GPRMC,205319.44,A,3731.6757340,N,12221.5620860,W,59.1499,341.4449,140721,,,,A*50
$GPGGA,205320.44,3731.6913160,N,12221.5686320,W,1,0,0.0,91.5070,M,0.0000,M,0.0000,0000*5e
$GPRMC,205320.44,A,3731.6913160,N,12221.5686320,W,59.0569,341.7928,140721,,,,A*51
$GPGGA,205321.44,3731.7069160,N,12221.5749980,W,1,0,0.0,91.9255,M,0.0000,M,0.0000,0000*51
$GPRMC,205321.44,A,3731.7069160,N,12221.5749980,W,58.8696,342.0835,140721,,,,A*54
$GPGGA,205322.44,3731.7224440,N,12221.5813880,W,1,0,0.0,92.4398,M,0.0000,M,0.0000,0000*51
$GPRMC,205322.44,A,3731.7224440,N,12221.5813880,W,58.6053,341.8062,140721,,,,A*5a
$GPGGA,205323.44,3731.7378340,N,12221.5878920,W,1,0,0.0,93.1816,M,0.0000,M,0.0000,0000*50
$GPRMC,205323.44,A,3731.7378340,N,12221.5878920,W,58.2118,341.0594,140721,,,,A*5c
$GPGGA,205324.44,3731.7530980,N,12221.5944860,W,1,0,0.0,94.0683,M,0.0000,M,0.0000,0000*54
$GPRMC,205324.44,A,3731.7530980,N,12221.5944860,W,57.8043,341.1888,140721,,,,A*57
$GPGGA,205325.44,3731.7682720,N,12221.6009480,W,1,0,0.0,95.0034,M,0.0000,M,0.0000,0000*51
$GPRMC,205325.44,A,3731.7682720,N,12221.6009480,W,57.4328,341.4957,140721,,,,A*5d
$GPGGA,205326.44,3731.7833500,N,12221.6072780,W,1,0,0.0,95.8806,M,0.0000,M,0.0000,0000*58
$GPRMC,205326.44,A,3731.7833500,N,12221.6072780,W,56.9528,341.4935,140721,,,,A*5b
$GPGGA,205327.44,3731.7983140,N,12221.6135720,W,1,0,0.0,96.7050,M,0.0000,M,0.0000,0000*5c
$GPRMC,205327.44,A,3731.7983140,N,12221.6135720,W,56.5483,341.4637,140721,,,,A*59
$GPGGA,205328.44,3731.8131700,N,12221.6199200,W,1,0,0.0,97.5675,M,0.0000,M,0.0000,0000*5c
$GPRMC,205328.44,A,3731.8131700,N,12221.6199200,W,56.3080,341.0718,140721,,,,A*52
$GPGGA,205329.44,3731.8279660,N,12221.6263040,W,1,0,0.0,98.5091,M,0.0000,M,0.0000,0000*56
$GPRMC,205329.44,A,3731.8279660,N,12221.6263040,W,56.1684,340.9772,140721,,,,A*5f
$GPGGA,205330.44,3731.8427140,N,12221.6327000,W,1,0,0.0,99.3574,M,0.0000,M,0.0000,0000*5a
$GPRMC,205330.44,A,3731.8427140,N,12221.6327000,W,56.0755,340.9127,140721,,,,A*50
$GPGGA,205331.44,3731.8574500,N,12221.6390840,W,1,0,0.0,100.1785,M,0.0000,M,0.0000,0000*63
$GPRMC,205331.44,A,3731.8574500,N,12221.6390840,W,56.0102,341.0417,140721,,,,A*5c
$GPGGA,205332.44,3731.8721680,N,12221.6454620,W,1,0,0.0,101.0855,M,0.0000,M,0.0000,0000*6c
$GPRMC,205332.44,A,3731.8721680,N,12221.6454620,W,55.9197,341.1928,140721,,,,A*57
$GPGGA,205333.44,3731.8868920,N,12221.6516840,W,1,0,0.0,101.9462,M,0.0000,M,0.0000,0000*64
$GPRMC,205333.44,A,3731.8868920,N,12221.6516840,W,55.8053,341.6016,140721,,,,A*55
$GPGGA,205334.44,3731.9015980,N,12221.6578700,W,1,0,0.0,102.7918,M,0.0000,M,0.0000,0000*64
$GPRMC,205334.44,A,3731.9015980,N,12221.6578700,W,55.7387,341.4752,140721,,,,A*58
$GPGGA,205335.44,3731.9162920,N,12221.6640800,W,1,0,0.0,103.6574,M,0.0000,M,0.0000,0000*6f
$GPRMC,205335.44,A,3731.9162920,N,12221.6640800,W,55.7588,341.3699,140721,,,,A*5d
$GPGGA,205336.44,3731.9309740,N,12221.6703440,W,1,0,0.0,104.5172,M,0.0000,M,0.0000,0000*63
$GPRMC,205336.44,A,3731.9309740,N,12221.6703440,W,55.6928,341.1776,140721,,,,A*52
$GPGGA,205337.44,3731.9456080,N,12221.6766440,W,1,0,0.0,105.3815,M,0.0000,M,0.0000,0000*68
$GPRMC,205337.44,A,3731.9456080,N,12221.6766440,W,55.6345,341.0735,140721,,,,A*51
$GPGGA,205338.44,3731.9602480,N,12221.6829680,W,1,0,0.0,106.1958,M,0.0000,M,0.0000,0000*63
$GPRMC,205338.44,A,3731.9602480,N,12221.6829680,W,55.6681,341.1503,140721,,,,A*58
$GPGGA,205339.44,3731.9748820,N,12221.6892680,W,1,0,0.0,107.1301,M,0.0000,M,0.0000,0000*6c
$GPRMC,205339.44,A,3731.9748820,N,12221.6892680,W,55.6136,341.1322,140721,,,,A*5e
$GPGGA,205340.44,3731.9895100,N,12221.6955500,W,1,0,0.0,108.0869,M,0.0000,M,0.0000,0000*6c
$GPRMC,205340.44,A,3731.9895100,N,12221.6955500,W,55.5295,341.2664,140721,,,,A*58
$GPGGA,205341.44,3732.0041020,N,12221.7017900,W,1,0,0.0,109.1465,M,0.0000,M,0.0000,0000*67
$GPRMC,205341.44,A,3732.0041020,N,12221.7017900,W,55.3641,341.3630,140721,,,,A*58
$GPGGA,205342.44,3732.0186400,N,12221.7080420,W,1,0,0.0,110.2677,M,0.0000,M,0.0000,0000*63
$GPRMC,205342.44,A,3732.0186400,N,12221.7080420,W,55.1798,340.8442,140721,,,,A*5c
$GPGGA,205343.44,3732.0331000,N,12221.7144140,W,1,0,0.0,111.3634,M,0.0000,M,0.0000,0000*65
$GPRMC,205343.44,A,3732.0331000,N,12221.7144140,W,54.9993,340.9843,140721,,,,A*5d
$GPGGA,205344.44,3732.0475240,N,12221.7206960,W,1,0,0.0,112.4859,M,0.0000,M,0.0000,0000*6d
$GPRMC,205344.44,A,3732.0475240,N,12221.7206960,W,54.8067,341.0157,140721,,,,A*53
$GPGGA,205345.44,3732.0619060,N,12221.7268880,W,1,0,0.0,113.6056,M,0.0000,M,0.0000,0000*67
$GPRMC,205345.44,A,3732.0619060,N,12221.7268880,W,54.4952,341.0736,140721,,,,A*5f
$GPGGA,205346.44,3732.0761380,N,12221.7331940,W,1,0,0.0,114.7368,M,0.0000,M,0.0000,0000*6f
$GPRMC,205346.44,A,3732.0761380,N,12221.7331940,W,54.0458,340.2673,140721,,,,A*5f
$GPGGA,205347.44,3732.0901240,N,12221.7396500,W,1,0,0.0,115.8384,M,0.0000,M,0.0000,0000*62
$GPRMC,205347.44,A,3732.0901240,N,12221.7396500,W,52.9884,339.5814,140721,,,,A*5a
$GPGGA,205348.44,3732.1037500,N,12221.7461420,W,1,0,0.0,116.9126,M,0.0000,M,0.0000,0000*67
$GPRMC,205348.44,A,3732.1037500,N,12221.7461420,W,51.8780,339.2089,140721,,,,A*55
$GPGGA,205349.44,3732.1170880,N,12221.7525920,W,1,0,0.0,117.9896,M,0.0000,M,0.0000,0000*6e
$GPRMC,205349.44,A,3732.1170880,N,12221.7525920,W,50.9393,338.8954,140721,,,,A*5b
$GPGGA,205350.44,3732.1301320,N,12221.7591800,W,1,0,0.0,119.0282,M,0.0000,M,0.0000,0000*67
$GPRMC,205350.44,A,3732.1301320,N,12221.7591800,W,50.1870,337.3654,140721,,,,A*5f
$GPGGA,205351.44,3732.1429180,N,12221.7660440,W,1,0,0.0,120.0379,M,0.0000,M,0.0000,0000*69
$GPRMC,205351.44,A,3732.1429180,N,12221.7660440,W,49.8853,336.6180,140721,,,,A*54
$GPGGA,205352.44,3732.1556140,N,12221.7730880,W,1,0,0.0,121.0559,M,0.0000,M,0.0000,0000*6e
$GPRMC,205352.44,A,3732.1556140,N,12221.7730880,W,49.9367,335.8926,140721,,,,A*52
$GPGGA,205353.44,3732.1682560,N,12221.7803000,W,1,0,0.0,122.0691,M,0.0000,M,0.0000,0000*68
$GPRMC,205353.44,A,3732.1682560,N,12221.7803000,W,49.9588,335.7216,140721,,,,A*50
$GPGGA,205354.44,3732.1809040,N,12221.7875420,W,1,0,0.0,123.0955,M,0.0000,M,0.0000,0000*64
$GPRMC,205354.44,A,3732.1809040,N,12221.7875420,W,49.9770,335.3222,140721,,,,A*5c
$GPGGA,205355.44,3732.1934920,N,12221.7949520,W,1,0,0.0,124.0573,M,0.0000,M,0.0000,0000*65
$GPRMC,205355.44,A,3732.1934920,N,12221.7949520,W,49.9249,334.9324,140721,,,,A*51
$GPGGA,205356.44,3732.2059360,N,12221.8022540,W,1,0,0.0,124.9448,M,0.0000,M,0.0000,0000*64
$GPRMC,205356.44,A,3732.2059360,N,12221.8022540,W,48.7859,335.1074,140721,,,,A*5b
$GPGGA,205357.44,3732.2180740,N,12221.8094240,W,1,0,0.0,125.8010,M,0.0000,M,0.0000,0000*65
$GPRMC,205357.44,A,3732.2180740,N,12221.8094240,W,47.7781,334.6388,140721,,,,A*50
$GPGGA,205358.44,3732.2299900,N,12221.8165400,W,1,0,0.0,126.6514,M,0.0000,M,0.0000,0000*6a
$GPRMC,205358.44,A,3732.2299900,N,12221.8165400,W,47.1770,334.6377,140721,,,,A*5b
$GPGGA,205359.44,3732.2418160,N,12221.8235960,W,1,0,0.0,127.5709,M,0.0000,M,0.0000,0000*6b
$GPRMC,205359.44,A,3732.2418160,N,12221.8235960,W,47.0929,334.6750,140721,,,,A*54
$GPGGA,205400.44,3732.2537200,N,12221.8306640,W,1,0,0.0,128.5405,M,0.0000,M,0.0000,0000*65
$GPRMC,205400.44,A,3732.2537200,N,12221.8306640,W,47.6440,334.6792,140721,,,,A*50
$GPGGA,205401.44,3732.2657740,N,12221.8378580,W,1,0,0.0,129.5251,M,0.0000,M,0.0000,0000*60
$GPRMC,205401.44,A,3732.2657740,N,12221.8378580,W,48.3624,334.6299,140721,,,,A*57
$GPGGA,205402.44,3732.2780080,N,12221.8451720,W,1,0,0.0,130.5339,M,0.0000,M,0.0000,0000*60
$GPRMC,205402.44,A,3732.2780080,N,12221.8451720,W,49.0557,334.5396,140721,,,,A*58
$GPGGA,205403.44,3732.2904040,N,12221.8526060,W,1,0,0.0,131.5544,M,0.0000,M,0.0000,0000*60
$GPRMC,205403.44,A,3732.2904040,N,12221.8526060,W,49.7523,334.6276,140721,,,,A*5d
$GPGGA,205404.44,3732.3029800,N,12221.8601420,W,1,0,0.0,132.5872,M,0.0000,M,0.0000,0000*61
$GPRMC,205404.44,A,3732.3029800,N,12221.8601420,W,50.4153,334.4572,140721,,,,A*5e
$GPGGA,205405.44,3732.3157120,N,12221.8677800,W,1,0,0.0,133.6310,M,0.0000,M,0.0000,0000*61
$GPRMC,205405.44,A,3732.3157120,N,12221.8677800,W,51.0424,334.6841,140721,,,,A*5c
$GPGGA,205406.44,3732.3286060,N,12221.8754720,W,1,0,0.0,134.6820,M,0.0000,M,0.0000,0000*6a
$GPRMC,205406.44,A,3732.3286060,N,12221.8754720,W,51.6215,334.6484,140721,,,,A*5f
$GPGGA,205407.44,3732.3416440,N,12221.8832480,W,1,0,0.0,135.7522,M,0.0000,M,0.0000,0000*6b
$GPRMC,205407.44,A,3732.3416440,N,12221.8832480,W,52.1802,334.6612,140721,,,,A*54
$GPGGA,205408.44,3732.3548320,N,12221.8910840,W,1,0,0.0,136.8654,M,0.0000,M,0.0000,0000*60
$GPRMC,205408.44,A,3732.3548320,N,12221.8910840,W,52.7014,334.6836,140721,,,,A*50
$GPGGA,205409.44,3732.3681280,N,12221.8990280,W,1,0,0.0,137.9330,M,0.0000,M,0.0000,0000*65
$GPRMC,205409.44,A,3732.3681280,N,12221.8990280,W,53.2242,334.5782,140721,,,,A*54
$GPGGA,205410.44,3732.3815500,N,12221.9070920,W,1,0,0.0,139.0322,M,0.0000,M,0.0000,0000*62
$GPRMC,205410.44,A,3732.3815500,N,12221.9070920,W,53.7646,334.3831,140721,,,,A*53
$GPGGA,205411.44,3732.3950860,N,12221.9152580,W,1,0,0.0,140.1375,M,0.0000,M,0.0000,0000*62
$GPRMC,205411.44,A,3732.3950860,N,12221.9152580,W,54.2099,334.5366,140721,,,,A*57
$GPGGA,205412.44,3732.4087420,N,12221.9234180,W,1,0,0.0,141.3188,M,0.0000,M,0.0000,0000*69
$GPRMC,205412.44,A,3732.4087420,N,12221.9234180,W,54.5600,334.5054,140721,,,,A*5c
$GPGGA,205413.44,3732.4224760,N,12221.9316920,W,1,0,0.0,142.6324,M,0.0000,M,0.0000,0000*65
$GPRMC,205413.44,A,3732.4224760,N,12221.9316920,W,54.9450,334.4024,140721,,,,A*5f
$GPGGA,205414.44,3732.4362880,N,12221.9400500,W,1,0,0.0,143.9811,M,0.0000,M,0.0000,0000*6d
$GPRMC,205414.44,A,3732.4362880,N,12221.9400500,W,55.3181,334.4501,140721,,,,A*54
$GPGGA,205415.44,3732.4501840,N,12221.9484980,W,1,0,0.0,145.2659,M,0.0000,M,0.0000,0000*64
$GPRMC,205415.44,A,3732.4501840,N,12221.9484980,W,55.7369,333.9485,140721,,,,A*55
$GPGGA,205416.44,3732.4640860,N,12221.9572700,W,1,0,0.0,146.4137,M,0.0000,M,0.0000,0000*67
$GPRMC,205416.44,A,3732.4640860,N,12221.9572700,W,56.1082,332.9015,140721,,,,A*53
$GPGGA,205417.44,3732.4779160,N,12221.9663720,W,1,0,0.0,147.5617,M,0.0000,M,0.0000,0000*60
$GPRMC,205417.44,A,3732.4779160,N,12221.9663720,W,56.1772,331.9261,140721,,,,A*5b
$GPGGA,205418.44,3732.4916320,N,12221.9758040,W,1,0,0.0,148.7065,M,0.0000,M,0.0000,0000*68
$GPRMC,205418.44,A,3732.4916320,N,12221.9758040,W,56.3355,330.8124,140721,,,,A*5c
$GPGGA,205419.44,3732.5052460,N,12221.9856020,W,1,0,0.0,149.8541,M,0.0000,M,0.0000,0000*68
$GPRMC,205419.44,A,3732.5052460,N,12221.9856020,W,56.4910,329.7306,140721,,,,A*58
$GPGGA,205420.44,3732.5187520,N,12221.9957720,W,1,0,0.0,150.9462,M,0.0000,M,0.0000,0000*60
$GPRMC,205420.44,A,3732.5187520,N,12221.9957720,W,56.7951,328.4791,140721,,,,A*57
$GPGGA,205421.44,3732.5321620,N,12222.0062960,W,1,0,0.0,151.9313,M,0.0000,M,0.0000,0000*63
$GPRMC,205421.44,A,3732.5321620,N,12222.0062960,W,56.7986,327.6295,140721,,,,A*52
$GPGGA,205422.44,3732.5453980,N,12222.0170480,W,1,0,0.0,152.8100,M,0.0000,M,0.0000,0000*64
$GPRMC,205422.44,A,3732.5453980,N,12222.0170480,W,56.6798,326.6161,140721,,,,A*5e
$GPGGA,205423.44,3732.5585080,N,12222.0281480,W,1,0,0.0,153.5803,M,0.0000,M,0.0000,0000*6d
$GPRMC,205423.44,A,3732.5585080,N,12222.0281480,W,57.0152,325.6003,140721,,,,A*50
$GPGGA,205424.44,3732.5715580,N,12222.0395780,W,1,0,0.0,154.2604,M,0.0000,M,0.0000,0000*6a
$GPRMC,205424.44,A,3732.5715580,N,12222.0395780,W,57.4033,324.7302,140721,,,,A*5e
$GPGGA,205425.44,3732.5845420,N,12222.0513500,W,1,0,0.0,154.8403,M,0.0000,M,0.0000,0000*67
$GPRMC,205425.44,A,3732.5845420,N,12222.0513500,W,57.7250,323.6848,140721,,,,A*5b
$GPGGA,205426.44,3732.5973580,N,12222.0634100,W,1,0,0.0,155.2882,M,0.0000,M,0.0000,0000*67
$GPRMC,205426.44,A,3732.5973580,N,12222.0634100,W,57.3807,322.7674,140721,,,,A*58
$GPGGA,205427.44,3732.6099400,N,12222.0756620,W,1,0,0.0,155.5091,M,0.0000,M,0.0000,0000*6c
$GPRMC,205427.44,A,3732.6099400,N,12222.0756620,W,57.1376,321.7530,140721,,,,A*51
$GPGGA,205428.44,3732.6223240,N,12222.0881060,W,1,0,0.0,155.5448,M,0.0000,M,0.0000,0000*65
$GPRMC,205428.44,A,3732.6223240,N,12222.0881060,W,56.7990,321.1646,140721,,,,A*59
$GPGGA,205429.44,3732.6344860,N,12222.1005560,W,1,0,0.0,155.5299,M,0.0000,M,0.0000,0000*66
$GPRMC,205429.44,A,3732.6344860,N,12222.1005560,W,56.1259,320.5341,140721,,,,A*5f
$GPGGA,205430.44,3732.6464500,N,12222.1129340,W,1,0,0.0,155.6452,M,0.0000,M,0.0000,0000*69
$GPRMC,205430.44,A,3732.6464500,N,12222.1129340,W,55.3385,320.6033,140721,,,,A*56
$GPGGA,205431.44,3732.6582700,N,12222.1251860,W,1,0,0.0,155.8069,M,0.0000,M,0.0000,0000*64
$GPRMC,205431.44,A,3732.6582700,N,12222.1251860,W,54.9565,320.4702,140721,,,,A*5d
$GPGGA,205432.44,3732.6700420,N,12222.1373840,W,1,0,0.0,155.9547,M,0.0000,M,0.0000,0000*65
$GPRMC,205432.44,A,3732.6700420,N,12222.1373840,W,54.7228,320.5594,140721,,,,A*58
$GPGGA,205433.44,3732.6817240,N,12222.1494500,W,1,0,0.0,156.1427,M,0.0000,M,0.0000,0000*66
$GPRMC,205433.44,A,3732.6817240,N,12222.1494500,W,54.0731,320.7324,140721,,,,A*52
$GPGGA,205434.44,3732.6933040,N,12222.1613180,W,1,0,0.0,156.3154,M,0.0000,M,0.0000,0000*66
$GPRMC,205434.44,A,3732.6933040,N,12222.1613180,W,53.3559,320.6882,140721,,,,A*5f
$GPGGA,205435.44,3732.7046980,N,12222.1730540,W,1,0,0.0,156.4592,M,0.0000,M,0.0000,0000*69
$GPRMC,205435.44,A,3732.7046980,N,12222.1730540,W,52.6625,320.9083,140721,,,,A*53
$GPGGA,205436.44,3732.7160980,N,12222.1844060,W,1,0,0.0,156.6278,M,0.0000,M,0.0000,0000*65
$GPRMC,205436.44,A,3732.7160980,N,12222.1844060,W,51.9653,322.4022,140721,,,,A*57
$GPGGA,205437.44,3732.7276000,N,12222.1952060,W,1,0,0.0,156.7461,M,0.0000,M,0.0000,0000*68
$GPRMC,205437.44,A,3732.7276000,N,12222.1952060,W,51.2860,324.0762,140721,,,,A*51
$GPGGA,205438.44,3732.7391380,N,12222.2055140,W,1,0,0.0,156.9216,M,0.0000,M,0.0000,0000*62
$GPRMC,205438.44,A,3732.7391380,N,12222.2055140,W,50.5623,325.2748,140721,,,,A*57
$GPGGA,205439.44,3732.7506580,N,12222.2154320,W,1,0,0.0,157.0761,M,0.0000,M,0.0000,0000*64
$GPRMC,205439.44,A,3732.7506580,N,12222.2154320,W,49.8526,325.8390,140721,,,,A*54
$GPGGA,205440.44,3732.7620040,N,12222.2251760,W,1,0,0.0,157.4004,M,0.0000,M,0.0000,0000*62
$GPRMC,205440.44,A,3732.7620040,N,12222.2251760,W,48.9725,325.6107,140721,,,,A*51
$GPGGA,205441.44,3732.7731460,N,12222.2347340,W,1,0,0.0,157.8056,M,0.0000,M,0.0000,0000*6f
$GPRMC,205441.44,A,3732.7731460,N,12222.2347340,W,48.0815,325.8577,140721,,,,A*5f
$GPGGA,205442.44,3732.7841020,N,12222.2440820,W,1,0,0.0,158.2550,M,0.0000,M,0.0000,0000*6f
$GPRMC,205442.44,A,3732.7841020,N,12222.2440820,W,47.2202,326.0035,140721,,,,A*50
$GPGGA,205443.44,3732.7948960,N,12222.2532680,W,1,0,0.0,158.4393,M,0.0000,M,0.0000,0000*64
$GPRMC,205443.44,A,3732.7948960,N,12222.2532680,W,46.5782,325.7205,140721,,,,A*5a
$GPGGA,205444.44,3732.8054920,N,12222.2624780,W,1,0,0.0,158.4186,M,0.0000,M,0.0000,0000*6f
$GPRMC,205444.44,A,3732.8054920,N,12222.2624780,W,46.0984,325.2442,140721,,,,A*5a
$GPGGA,205445.44,3732.8159440,N,12222.2715860,W,1,0,0.0,158.2293,M,0.0000,M,0.0000,0000*6a
$GPRMC,205445.44,A,3732.8159440,N,12222.2715860,W,45.1406,325.3576,140721,,,,A*5c
$GPGGA,205446.44,3732.8259220,N,12222.2802440,W,1,0,0.0,158.0534,M,0.0000,M,0.0000,0000*65
$GPRMC,205446.44,A,3732.8259220,N,12222.2802440,W,41.7455,325.5285,140721,,,,A*52
$GPGGA,205447.44,3732.8349700,N,12222.2880920,W,1,0,0.0,157.8597,M,0.0000,M,0.0000,0000*6c
$GPRMC,205447.44,A,3732.8349700,N,12222.2880920,W,37.3591,325.5504,140721,,,,A*57
$GPGGA,205448.44,3732.8429140,N,12222.2949260,W,1,0,0.0,157.7053,M,0.0000,M,0.0000,0000*69
$GPRMC,205448.44,A,3732.8429140,N,12222.2949260,W,31.7940,325.8671,140721,,,,A*5e
$GPGGA,205449.44,3732.8495740,N,12222.3005720,W,1,0,0.0,157.5882,M,0.0000,M,0.0000,0000*6e
$GPRMC,205449.44,A,3732.8495740,N,12222.3005720,W,25.9133,326.0565,140721,,,,A*55
$GPGGA,205450.44,3732.8548180,N,12222.3050300,W,1,0,0.0,157.4508,M,0.0000,M,0.0000,0000*65
$GPRMC,205450.44,A,3732.8548180,N,12222.3050300,W,19.3025,325.7029,140721,,,,A*5a
$GPGGA,205451.44,3732.8583340,N,12222.3080840,W,1,0,0.0,157.5119,M,0.0000,M,0.0000,0000*6a
$GPRMC,205451.44,A,3732.8583340,N,12222.3080840,W,11.5605,325.2809,140721,,,,A*55
$GPGGA,205452.44,3732.8601940,N,12222.3097160,W,1,0,0.0,157.5961,M,0.0000,M,0.0000,0000*60
$GPRMC,205452.44,A,3732.8601940,N,12222.3097160,W,5.0112,325.2955,140721,,,,A*61
$GPGGA,205453.44,3732.8607940,N,12222.3102320,W,1,0,0.0,157.6064,M,0.0000,M,0.0000,0000*63
$GPRMC,205453.44,A,3732.8607940,N,12222.3102320,W,0.9829,325.2962,140721,,,,A*64
$GPGGA,205454.44,3732.8611000,N,12222.3105200,W,1,0,0.0,157.6046,M,0.0000,M,0.0000,0000*6a
$GPRMC,205454.44,A,3732.8611000,N,12222.3105200,W,2.3032,324.7677,140721,,,,A*68
$GPGGA,205455.44,3732.8620300,N,12222.3115760,W,1,0,0.0,157.6511,M,0.0000,M,0.0000,0000*6f
$GPRMC,205455.44,A,3732.8620300,N,12222.3115760,W,6.9537,319.5944,140721,,,,A*67
$GPGGA,205456.44,3732.8633200,N,12222.3142280,W,1,0,0.0,157.7676,M,0.0000,M,0.0000,0000*65
$GPRMC,205456.44,A,3732.8633200,N,12222.3142280,W,10.1779,299.2317,140721,,,,A*5b
$GPGGA,205457.44,3732.8633680,N,12222.3180440,W,1,0,0.0,157.8731,M,0.0000,M,0.0000,0000*61
$GPRMC,205457.44,A,3732.8633680,N,12222.3180440,W,11.8965,265.3537,140721,,,,A*5f
$GPGGA,205458.44,3732.8616040,N,12222.3220640,W,1,0,0.0,157.9006,M,0.0000,M,0.0000,0000*6a
$GPRMC,205458.44,A,3732.8616040,N,12222.3220640,W,14.4375,236.3499,140721,,,,A*57
$GPGGA,205459.44,3732.8586880,N,12222.3263600,W,1,0,0.0,157.8914,M,0.0000,M,0.0000,0000*6d
$GPRMC,205459.44,A,3732.8586880,N,12222.3263600,W,18.1006,229.4049,140721,,,,A*55
$GPGGA,205500.44,3732.8550640,N,12222.3316700,W,1,0,0.0,157.9331,M,0.0000,M,0.0000,0000*67
$GPRMC,205500.44,A,3732.8550640,N,12222.3316700,W,21.8192,229.4819,140721,,,,A*51
$GPGGA,205501.44,3732.8509180,N,12222.3377960,W,1,0,0.0,158.0137,M,0.0000,M,0.0000,0000*6c
$GPRMC,205501.44,A,3732.8509180,N,12222.3377960,W,23.8256,229.8833,140721,,,,A*55
$GPGGA,205502.44,3732.8466700,N,12222.3441320,W,1,0,0.0,158.0719,M,0.0000,M,0.0000,0000*6f
$GPRMC,205502.44,A,3732.8466700,N,12222.3441320,W,23.4579,230.0519,140721,,,,A*5f
$GPGGA,205503.44,3732.8425000,N,12222.3503000,W,1,0,0.0,158.1499,M,0.0000,M,0.0000,0000*62
$GPRMC,205503.44,A,3732.8425000,N,12222.3503000,W,22.9039,229.5686,140721,,,,A*5d
$GPGGA,205504.44,3732.8384320,N,12222.3562280,W,1,0,0.0,158.2448,M,0.0000,M,0.0000,0000*6a
$GPRMC,205504.44,A,3732.8384320,N,12222.3562280,W,21.6462,229.4077,140721,,,,A*55
$GPGGA,205505.44,3732.8348020,N,12222.3615740,W,1,0,0.0,158.3688,M,0.0000,M,0.0000,0000*6d
$GPRMC,205505.44,A,3732.8348020,N,12222.3615740,W,18.4187,229.6479,140721,,,,A*53
$GPGGA,205506.44,3732.8317840,N,12222.3659660,W,1,0,0.0,158.5536,M,0.0000,M,0.0000,0000*61
$GPRMC,205506.44,A,3732.8317840,N,12222.3659660,W,14.8632,229.1888,140721,,,,A*53
$GPGGA,205507.44,3732.8289640,N,12222.3692240,W,1,0,0.0,158.7348,M,0.0000,M,0.0000,0000*64
$GPRMC,205507.44,A,3732.8289640,N,12222.3692240,W,13.2118,218.3055,140721,,,,A*51
$GPGGA,205508.44,3732.8255680,N,12222.3709040,W,1,0,0.0,158.9345,M,0.0000,M,0.0000,0000*64
$GPRMC,205508.44,A,3732.8255680,N,12222.3709040,W,13.4987,197.2219,140721,,,,A*55
$GPGGA,205509.44,3732.8215180,N,12222.3708980,W,1,0,0.0,159.0151,M,0.0000,M,0.0000,0000*6d
$GPRMC,205509.44,A,3732.8215180,N,12222.3708980,W,16.0859,174.3035,140721,,,,A*50
$GPGGA,205510.44,3732.8170360,N,12222.3685760,W,1,0,0.0,158.9237,M,0.0000,M,0.0000,0000*66
$GPRMC,205510.44,A,3732.8170360,N,12222.3685760,W,18.6303,152.2924,140721,,,,A*50
$GPGGA,205511.44,3732.8124640,N,12222.3644360,W,1,0,0.0,159.0388,M,0.0000,M,0.0000,0000*65
$GPRMC,205511.44,A,3732.8124640,N,12222.3644360,W,22.1104,140.5889,140721,,,,A*57
$GPGGA,205512.44,3732.8075020,N,12222.3588740,W,1,0,0.0,159.1071,M,0.0000,M,0.0000,0000*62
$GPRMC,205512.44,A,3732.8075020,N,12222.3588740,W,25.7574,138.1382,140721,,,,A*5d
$GPGGA,205513.44,3732.8017660,N,12222.3524000,W,1,0,0.0,159.2191,M,0.0000,M,0.0000,0000*6c
$GPRMC,205513.44,A,3732.8017660,N,12222.3524000,W,29.7030,138.0630,140721,,,,A*5b
$GPGGA,205514.44,3732.7952500,N,12222.3449720,W,1,0,0.0,159.2853,M,0.0000,M,0.0000,0000*61
$GPRMC,205514.44,A,3732.7952500,N,12222.3449720,W,33.5582,137.7691,140721,,,,A*57
$GPGGA,205515.44,3732.7879420,N,12222.3366920,W,1,0,0.0,159.3619,M,0.0000,M,0.0000,0000*6e
$GPRMC,205515.44,A,3732.7879420,N,12222.3366920,W,37.1670,138.0352,140721,,,,A*55
$GPGGA,205516.44,3732.7799140,N,12222.3275900,W,1,0,0.0,159.4559,M,0.0000,M,0.0000,0000*6e
$GPRMC,205516.44,A,3732.7799140,N,12222.3275900,W,40.4359,137.9102,140721,,,,A*5f
$GPGGA,205517.44,3732.7712380,N,12222.3177620,W,1,0,0.0,159.4863,M,0.0000,M,0.0000,0000*6a
$GPRMC,205517.44,A,3732.7712380,N,12222.3177620,W,43.5642,137.9826,140721,,,,A*5d
$GPGGA,205518.44,3732.7618960,N,12222.3071600,W,1,0,0.0,159.3256,M,0.0000,M,0.0000,0000*64
$GPRMC,205518.44,A,3732.7618960,N,12222.3071600,W,46.9731,137.8990,140721,,,,A*59
$GPGGA,205519.44,3732.7518700,N,12222.2957900,W,1,0,0.0,158.9337,M,0.0000,M,0.0000,0000*60
$GPRMC,205519.44,A,3732.7518700,N,12222.2957900,W,50.0579,138.1769,140721,,,,A*5e
$GPGGA,205520.44,3732.7411420,N,12222.2839760,W,1,0,0.0,158.3026,M,0.0000,M,0.0000,0000*6b
$GPRMC,205520.44,A,3732.7411420,N,12222.2839760,W,52.6026,139.5787,140721,,,,A*52
$GPGGA,205521.44,3732.7295920,N,12222.2720120,W,1,0,0.0,157.4971,M,0.0000,M,0.0000,0000*6b
$GPRMC,205521.44,A,3732.7295920,N,12222.2720120,W,55.0502,141.4395,140721,,,,A*5a
$GPGGA,205522.44,3732.7173340,N,12222.2598620,W,1,0,0.0,156.6607,M,0.0000,M,0.0000,0000*64
$GPRMC,205522.44,A,3732.7173340,N,12222.2598620,W,57.3111,142.1040,140721,,,,A*52
$GPGGA,205523.44,3732.7045600,N,12222.2473040,W,1,0,0.0,155.7784,M,0.0000,M,0.0000,0000*6c
$GPRMC,205523.44,A,3732.7045600,N,12222.2473040,W,59.0538,141.9574,140721,,,,A*59
$GPGGA,205524.44,3732.6915940,N,12222.2344280,W,1,0,0.0,154.9356,M,0.0000,M,0.0000,0000*64
$GPRMC,205524.44,A,3732.6915940,N,12222.2344280,W,59.6457,141.5491,140721,,,,A*5d
$GPGGA,205525.44,3732.6786040,N,12222.2215220,W,1,0,0.0,154.0554,M,0.0000,M,0.0000,0000*6a
$GPRMC,205525.44,A,3732.6786040,N,12222.2215220,W,59.4070,141.8161,140721,,,,A*5a
$GPGGA,205526.44,3732.6656680,N,12222.2086940,W,1,0,0.0,153.1731,M,0.0000,M,0.0000,0000*6d
$GPRMC,205526.44,A,3732.6656680,N,12222.2086940,W,59.2393,142.0031,140721,,,,A*5d
$GPGGA,205527.44,3732.6526120,N,12222.1959740,W,1,0,0.0,152.3497,M,0.0000,M,0.0000,0000*6f
$GPRMC,205527.44,A,3732.6526120,N,12222.1959740,W,59.6595,142.4230,140721,,,,A*50
$GPGGA,205528.44,3732.6394120,N,12222.1831820,W,1,0,0.0,151.5477,M,0.0000,M,0.0000,0000*62
$GPRMC,205528.44,A,3732.6394120,N,12222.1831820,W,60.2685,142.5074,140721,,,,A*59
$GPGGA,205529.44,3732.6260260,N,12222.1703780,W,1,0,0.0,150.8372,M,0.0000,M,0.0000,0000*6b
$GPRMC,205529.44,A,3732.6260260,N,12222.1703780,W,60.6847,143.0839,140721,,,,A*5f
$GPGGA,205530.44,3732.6124960,N,12222.1576400,W,1,0,0.0,150.2045,M,0.0000,M,0.0000,0000*6d
$GPRMC,205530.44,A,3732.6124960,N,12222.1576400,W,60.9183,143.1724,140721,,,,A*58
$GPGGA,205531.44,3732.5989060,N,12222.1449020,W,1,0,0.0,149.6011,M,0.0000,M,0.0000,0000*6f
$GPRMC,205531.44,A,3732.5989060,N,12222.1449020,W,61.0002,143.5190,140721,,,,A*5a
$GPGGA,205532.44,3732.5852560,N,12222.1322000,W,1,0,0.0,149.0057,M,0.0000,M,0.0000,0000*62
$GPRMC,205532.44,A,3732.5852560,N,12222.1322000,W,61.2090,143.5391,140721,,,,A*59
$GPGGA,205533.44,3732.5715460,N,12222.1194860,W,1,0,0.0,148.3953,M,0.0000,M,0.0000,0000*60
$GPRMC,205533.44,A,3732.5715460,N,12222.1194860,W,61.3563,143.7048,140721,,,,A*59
$GPGGA,205534.44,3732.5577520,N,12222.1068260,W,1,0,0.0,147.8070,M,0.0000,M,0.0000,0000*60
$GPRMC,205534.44,A,3732.5577520,N,12222.1068260,W,61.5038,144.2467,140721,,,,A*53
$GPGGA,205535.44,3732.5438200,N,12222.0942980,W,1,0,0.0,147.1935,M,0.0000,M,0.0000,0000*6a
$GPRMC,205535.44,A,3732.5438200,N,12222.0942980,W,61.7365,144.9159,140721,,,,A*52
$GPGGA,205536.44,3732.5296900,N,12222.0819800,W,1,0,0.0,146.5833,M,0.0000,M,0.0000,0000*64
$GPRMC,205536.44,A,3732.5296900,N,12222.0819800,W,61.9673,145.7082,140721,,,,A*5a
$GPGGA,205537.44,3732.5153740,N,12222.0698540,W,1,0,0.0,145.9621,M,0.0000,M,0.0000,0000*69
$GPRMC,205537.44,A,3732.5153740,N,12222.0698540,W,62.2344,146.4890,140721,,,,A*57
$GPGGA,205538.44,3732.5008840,N,12222.0579020,W,1,0,0.0,145.3461,M,0.0000,M,0.0000,0000*65
$GPRMC,205538.44,A,3732.5008840,N,12222.0579020,W,62.4196,147.1378,140721,,,,A*55
$GPGGA,205539.44,3732.4862560,N,12222.0461420,W,1,0,0.0,144.7365,M,0.0000,M,0.0000,0000*64
$GPRMC,205539.44,A,3732.4862560,N,12222.0461420,W,62.4777,147.8077,140721,,,,A*5e
$GPGGA,205540.44,3732.4714960,N,12222.0345980,W,1,0,0.0,144.1213,M,0.0000,M,0.0000,0000*68
$GPRMC,205540.44,A,3732.4714960,N,12222.0345980,W,62.6059,148.7502,140721,,,,A*5a
$GPGGA,205541.44,3732.4565140,N,12222.0233600,W,1,0,0.0,143.5051,M,0.0000,M,0.0000,0000*67
$GPRMC,205541.44,A,3732.4565140,N,12222.0233600,W,62.9531,149.6744,140721,,,,A*56
$GPGGA,205542.44,3732.4413160,N,12222.0122660,W,1,0,0.0,142.9037,M,0.0000,M,0.0000,0000*6e
$GPRMC,205542.44,A,3732.4413160,N,12222.0122660,W,63.4679,150.2332,140721,,,,A*58
$GPGGA,205543.44,3732.4259020,N,12222.0012920,W,1,0,0.0,142.2733,M,0.0000,M,0.0000,0000*63
$GPRMC,205543.44,A,3732.4259020,N,12222.0012920,W,63.9122,150.9495,140721,,,,A*58
$GPGGA,205544.44,3732.4102900,N,12221.9905520,W,1,0,0.0,141.6029,M,0.0000,M,0.0000,0000*60
$GPRMC,205544.44,A,3732.4102900,N,12221.9905520,W,64.0723,151.6198,140721,,,,A*5f
$GPGGA,205545.44,3732.3945940,N,12221.9798960,W,1,0,0.0,140.8387,M,0.0000,M,0.0000,0000*63
$GPRMC,205545.44,A,3732.3945940,N,12221.9798960,W,64.2077,151.7147,140721,,,,A*53
$GPGGA,205546.44,3732.3789100,N,12221.9692940,W,1,0,0.0,139.9732,M,0.0000,M,0.0000,0000*6e
$GPRMC,205546.44,A,3732.3789100,N,12221.9692940,W,63.8556,151.7921,140721,,,,A*58
$GPGGA,205547.44,3732.3633340,N,12221.9587340,W,1,0,0.0,138.9979,M,0.0000,M,0.0000,0000*64
$GPRMC,205547.44,A,3732.3633340,N,12221.9587340,W,63.4495,151.6874,140721,,,,A*50
$GPGGA,205548.44,3732.3478840,N,12221.9482040,W,1,0,0.0,137.9188,M,0.0000,M,0.0000,0000*63
$GPRMC,205548.44,A,3732.3478840,N,12221.9482040,W,63.0040,151.6541,140721,,,,A*5d
$GPGGA,205549.44,3732.3324880,N,12221.9378120,W,1,0,0.0,136.7216,M,0.0000,M,0.0000,0000*6e
$GPRMC,205549.44,A,3732.3324880,N,12221.9378120,W,62.7009,151.9345,140721,,,,A*5d
$GPGGA,205550.44,3732.3171400,N,12221.9274800,W,1,0,0.0,135.5213,M,0.0000,M,0.0000,0000*62
$GPRMC,205550.44,A,3732.3171400,N,12221.9274800,W,62.4758,151.7785,140721,,,,A*53
$GPGGA,205551.44,3732.3018820,N,12221.9171300,W,1,0,0.0,134.2354,M,0.0000,M,0.0000,0000*6a
$GPRMC,205551.44,A,3732.3018820,N,12221.9171300,W,62.2449,151.7549,140721,,,,A*58
$GPGGA,205552.44,3732.2866720,N,12221.9068220,W,1,0,0.0,132.9183,M,0.0000,M,0.0000,0000*69
$GPRMC,205552.44,A,3732.2866720,N,12221.9068220,W,62.0415,151.7103,140721,,,,A*5f
$GPGGA,205553.44,3732.2715280,N,12221.8965200,W,1,0,0.0,131.6355,M,0.0000,M,0.0000,0000*6e
$GPRMC,205553.44,A,3732.2715280,N,12221.8965200,W,61.8261,151.6034,140721,,,,A*57
$GPGGA,205554.44,3732.2564140,N,12221.8862720,W,1,0,0.0,130.3544,M,0.0000,M,0.0000,0000*61
$GPRMC,205554.44,A,3732.2564140,N,12221.8862720,W,61.8104,151.8101,140721,,,,A*53
$GPGGA,205555.44,3732.2412220,N,12221.8760180,W,1,0,0.0,129.0814,M,0.0000,M,0.0000,0000*67
$GPRMC,205555.44,A,3732.2412220,N,12221.8760180,W,62.2289,151.7265,140721,,,,A*57
$GPGGA,205556.44,3732.2259400,N,12221.8656200,W,1,0,0.0,127.8082,M,0.0000,M,0.0000,0000*67
$GPRMC,205556.44,A,3732.2259400,N,12221.8656200,W,62.7333,151.5672,140721,,,,A*53
$GPGGA,205557.44,3732.2105500,N,12221.8551380,W,1,0,0.0,126.5020,M,0.0000,M,0.0000,0000*64
$GPRMC,205557.44,A,3732.2105500,N,12221.8551380,W,63.1833,151.6350,140721,,,,A*5e
$GPGGA,205558.44,3732.1950520,N,12221.8446860,W,1,0,0.0,125.2060,M,0.0000,M,0.0000,0000*60
$GPRMC,205558.44,A,3732.1950520,N,12221.8446860,W,63.2118,152.0147,140721,,,,A*58
$GPGGA,205559.44,3732.1795720,N,12221.8342820,W,1,0,0.0,123.9015,M,0.0000,M,0.0000,0000*6c
$GPRMC,205559.44,A,3732.1795720,N,12221.8342820,W,63.0586,151.7001,140721,,,,A*5d
$GPGGA,205600.44,3732.1641640,N,12221.8238360,W,1,0,0.0,122.6074,M,0.0000,M,0.0000,0000*66
$GPRMC,205600.44,A,3732.1641640,N,12221.8238360,W,62.8830,151.7114,140721,,,,A*52
$GPGGA,205601.44,3732.1487920,N,12221.8134080,W,1,0,0.0,121.3094,M,0.0000,M,0.0000,0000*6c
$GPRMC,205601.44,A,3732.1487920,N,12221.8134080,W,62.7720,151.5806,140721,,,,A*59
$GPGGA,205602.44,3732.1334500,N,12221.8029740,W,1,0,0.0,120.0323,M,0.0000,M,0.0000,0000*65
$GPRMC,205602.44,A,3732.1334500,N,12221.8029740,W,62.7245,151.7721,140721,,,,A*53
$GPGGA,205603.44,3732.1180900,N,12221.7926120,W,1,0,0.0,118.7489,M,0.0000,M,0.0000,0000*67
$GPRMC,205603.44,A,3732.1180900,N,12221.7926120,W,62.6779,151.8556,140721,,,,A*5c
$GPGGA,205604.44,3732.1027480,N,12221.7822440,W,1,0,0.0,117.4526,M,0.0000,M,0.0000,0000*67
$GPRMC,205604.44,A,3732.1027480,N,12221.7822440,W,62.6549,151.7846,140721,,,,A*56
$GPGGA,205605.44,3732.0873340,N,12221.7720200,W,1,0,0.0,116.0947,M,0.0000,M,0.0000,0000*64
$GPRMC,205605.44,A,3732.0873340,N,12221.7720200,W,62.6422,152.6504,140721,,,,A*5e
$GPGGA,205606.44,3732.0718060,N,12221.7621500,W,1,0,0.0,114.7920,M,0.0000,M,0.0000,0000*67
$GPRMC,205606.44,A,3732.0718060,N,12221.7621500,W,62.5481,153.9303,140721,,,,A*5c
$GPGGA,205607.44,3732.0561160,N,12221.7527600,W,1,0,0.0,113.4963,M,0.0000,M,0.0000,0000*6e
$GPRMC,205607.44,A,3732.0561160,N,12221.7527600,W,62.4329,155.3488,140721,,,,A*5a
$GPGGA,205608.44,3732.0402760,N,12221.7438860,W,1,0,0.0,112.2040,M,0.0000,M,0.0000,0000*6b
$GPRMC,205608.44,A,3732.0402760,N,12221.7438860,W,62.2899,156.6876,140721,,,,A*5d
$GPGGA,205609.44,3732.0243400,N,12221.7354200,W,1,0,0.0,110.9389,M,0.0000,M,0.0000,0000*62
$GPRMC,205609.44,A,3732.0243400,N,12221.7354200,W,62.1872,157.5505,140721,,,,A*56
$GPGGA,205610.44,3732.0082960,N,12221.7273680,W,1,0,0.0,109.7708,M,0.0000,M,0.0000,0000*6d
$GPRMC,205610.44,A,3732.0082960,N,12221.7273680,W,62.0310,158.9308,140721,,,,A*54
$GPGGA,205611.44,3731.9921620,N,12221.7197900,W,1,0,0.0,108.6783,M,0.0000,M,0.0000,0000*60
$GPRMC,205611.44,A,3731.9921620,N,12221.7197900,W,61.8584,160.3567,140721,,,,A*54
$GPGGA,205612.44,3731.9759440,N,12221.7127280,W,1,0,0.0,107.7268,M,0.0000,M,0.0000,0000*60
$GPRMC,205612.44,A,3731.9759440,N,12221.7127280,W,61.5978,161.4464,140721,,,,A*5c
$GPGGA,205613.44,3731.9597260,N,12221.7059180,W,1,0,0.0,106.7902,M,0.0000,M,0.0000,0000*68
$GPRMC,205613.44,A,3731.9597260,N,12221.7059180,W,61.3758,161.5388,140721,,,,A*5c
$GPGGA,205614.44,3731.9435680,N,12221.6991260,W,1,0,0.0,105.8297,M,0.0000,M,0.0000,0000*66
$GPRMC,205614.44,A,3731.9435680,N,12221.6991260,W,61.1497,161.4616,140721,,,,A*58
$GPGGA,205615.44,3731.9274820,N,12221.6923040,W,1,0,0.0,104.8592,M,0.0000,M,0.0000,0000*6a
$GPRMC,205615.44,A,3731.9274820,N,12221.6923040,W,60.9492,161.3477,140721,,,,A*59
$GPGGA,205616.44,3731.9114920,N,12221.6854400,W,1,0,0.0,103.9362,M,0.0000,M,0.0000,0000*63
$GPRMC,205616.44,A,3731.9114920,N,12221.6854400,W,60.6165,161.1191,140721,,,,A*52
$GPGGA,205617.44,3731.8955860,N,12221.6785940,W,1,0,0.0,102.9763,M,0.0000,M,0.0000,0000*65
$GPRMC,205617.44,A,3731.8955860,N,12221.6785940,W,60.2220,161.2372,140721,,,,A*5a
$GPGGA,205618.44,3731.8797940,N,12221.6718320,W,1,0,0.0,102.0917,M,0.0000,M,0.0000,0000*65
$GPRMC,205618.44,A,3731.8797940,N,12221.6718320,W,59.7647,161.2352,140721,,,,A*56
$GPGGA,205619.44,3731.8641220,N,12221.6651060,W,1,0,0.0,101.1813,M,0.0000,M,0.0000,0000*6f
$GPRMC,205619.44,A,3731.8641220,N,12221.6651060,W,59.3723,161.1965,140721,,,,A*51
$GPGGA,205620.44,3731.8485340,N,12221.6584580,W,1,0,0.0,100.2089,M,0.0000,M,0.0000,0000*61
$GPRMC,205620.44,A,3731.8485340,N,12221.6584580,W,59.0668,161.4363,140721,,,,A*52
$GPGGA,205621.44,3731.8330240,N,12221.6518400,W,1,0,0.0,99.3390,M,0.0000,M,0.0000,0000*5f
$GPRMC,205621.44,A,3731.8330240,N,12221.6518400,W,58.6770,161.2058,140721,,,,A*55
$GPGGA,205622.44,3731.8176640,N,12221.6452040,W,1,0,0.0,98.4380,M,0.0000,M,0.0000,0000*50
$GPRMC,205622.44,A,3731.8176640,N,12221.6452040,W,58.1979,161.1515,140721,,,,A*52
$GPGGA,205623.44,3731.8024600,N,12221.6387060,W,1,0,0.0,97.4655,M,0.0000,M,0.0000,0000*5c
$GPRMC,205623.44,A,3731.8024600,N,12221.6387060,W,57.0912,161.5333,140721,,,,A*59
$GPGGA,205624.44,3731.7875800,N,12221.6324960,W,1,0,0.0,96.6359,M,0.0000,M,0.0000,0000*5c
$GPRMC,205624.44,A,3731.7875800,N,12221.6324960,W,55.6401,161.5540,140721,,,,A*5a
$GPGGA,205625.44,3731.7731320,N,12221.6263220,W,1,0,0.0,95.8299,M,0.0000,M,0.0000,0000*56
$GPRMC,205625.44,A,3731.7731320,N,12221.6263220,W,54.1413,161.1469,140721,,,,A*5b
$GPGGA,205626.44,3731.7590320,N,12221.6202860,W,1,0,0.0,95.0061,M,0.0000,M,0.0000,0000*58
$GPRMC,205626.44,A,3731.7590320,N,12221.6202860,W,53.0578,161.3147,140721,,,,A*59
$GPGGA,205627.44,3731.7451840,N,12221.6143160,W,1,0,0.0,94.1735,M,0.0000,M,0.0000,0000*51
$GPRMC,205627.44,A,3731.7451840,N,12221.6143160,W,52.3175,161.1628,140721,,,,A*51
$GPGGA,205628.44,3731.7314860,N,12221.6084060,W,1,0,0.0,93.3904,M,0.0000,M,0.0000,0000*58
$GPRMC,205628.44,A,3731.7314860,N,12221.6084060,W,51.8405,161.1559,140721,,,,A*5e
$GPGGA,205629.44,3731.7178660,N,12221.6025980,W,1,0,0.0,92.6873,M,0.0000,M,0.0000,0000*56
$GPRMC,205629.44,A,3731.7178660,N,12221.6025980,W,51.6172,161.5680,140721,,,,A*5d
$GPGGA,205630.44,3731.7042760,N,12221.5969640,W,1,0,0.0,92.1604,M,0.0000,M,0.0000,0000*5f
$GPRMC,205630.44,A,3731.7042760,N,12221.5969640,W,51.3170,161.9988,140721,,,,A*51
$GPGGA,205631.44,3731.6906980,N,12221.5915940,W,1,0,0.0,91.7629,M,0.0000,M,0.0000,0000*58
