% program   : RTKLIB ver.demo5 gdsc_2022
% inp file  : supplemental\gnss_log.obs
% inp file  : ..\slac2500.23o
% inp file  : ..\BRDM00DLR_S_20232500000_01D_MN.rnx
% obs start : 2023/09/07 19:33:44.0 GPST (week2278 416024.0s)
% obs end   : 2023/09/07 19:51:52.0 GPST (week2278 417112.0s)
% pos mode  : Kinematic
% freqs     : L1+L2/E5b+L5
% solution  : Combined-No Phase Reset
% elev mask : 5.0 deg
% dynamics  : on
% tidecorr  : off
% ionos opt : Broadcast
% tropo opt : Saastamoinen
% ephemeris : Broadcast
% navi sys  : GPS GLONASS Galileo
% amb res   : OFF
% amb glo   : OFF
% val thres : 3.0
% antenna1  :                       ( 0.0000  0.0000  0.0000)
% antenna2  :                       ( 0.0000  0.0000  0.0000)
% ref pos   : 37.416519040-122.204268280   63.7780
%
% (lat/lon/height=WGS84/ellipsoidal,Q=1:fix,2:float,3:sbas,4:dgps,5:single,6:ppp,ns=# of satellites)
%  GPST          latitude(deg) longitude(deg)  height(m)   Q  ns   sdn(m)   sde(m)   sdu(m)  sdne(m)  sdeu(m)  sdun(m) age(s)  ratio
2278 416024.000   37.692204288 -122.088404142    21.8161   2  12   0.0424   0.0333   0.0824  -0.0140  -0.0263   0.0070  14.00    0.0
2278 416025.000   37.692204960 -122.088404163    22.0096   2  11   0.0424   0.0333   0.0823  -0.0140  -0.0263   0.0072 -15.00    0.0
2278 416026.000   37.692204896 -122.088404071    21.9985   2  13   0.0424   0.0332   0.0822  -0.0140  -0.0262   0.0072 -14.00    0.0
2278 416027.000   37.692204843 -122.088404208    22.0003   2  14   0.0423   0.0332   0.0821  -0.0140  -0.0262   0.0073 -13.00    0.0
2278 416028.000   37.692204848 -122.088404181    21.9835   2  13   0.0424   0.0332   0.0821  -0.0140  -0.0262   0.0074 -12.00    0.0
2278 416029.000   37.692204835 -122.088404141    21.9950   2  12   0.0424   0.0332   0.0821  -0.0140  -0.0262   0.0073 -11.00    0.0
2278 416030.000   37.692204767 -122.088404065    21.9821   2  12   0.0424   0.0332   0.0821  -0.0141  -0.0262   0.0076 -10.00    0.0
2278 416031.000   37.692204730 -122.088404072    21.9766   2  11   0.0424   0.0333   0.0822  -0.0142  -0.0262   0.0077  -9.00    0.0
2278 416032.000   37.692204655 -122.088404098    21.9909   2  12   0.0425   0.0333   0.0822  -0.0143  -0.0262   0.0079  -8.00    0.0
2278 416033.000   37.692204567 -122.088403885    21.9528   2  11   0.0425   0.0333   0.0822  -0.0143  -0.0263   0.0081  -7.00    0.0
2278 416034.000   37.692204494 -122.088403933    21.9454   2  13   0.0425   0.0333   0.0822  -0.0144  -0.0263   0.0082  -6.00    0.0
2278 416035.000   37.692204295 -122.088403752    21.9232   2  12   0.0425   0.0333   0.0823  -0.0144  -0.0263   0.0081  -5.00    0.0
2278 416036.000   37.692203911 -122.088402203    21.9196   2  15   0.0425   0.0334   0.0822  -0.0144  -0.0264   0.0080  -4.00    0.0
2278 416037.000   37.692202920 -122.088397926    21.8808   2  14   0.0425   0.0334   0.0822  -0.0145  -0.0264   0.0080  -3.00    0.0
2278 416038.000   37.692202777 -122.088389831    21.9103   2  11   0.0425   0.0334   0.0824  -0.0147  -0.0264   0.0083  -2.00    0.0
2278 416039.000   37.692202334 -122.088378649    21.9601   2  11   0.0425   0.0335   0.0823  -0.0148  -0.0263   0.0084  -1.00    0.0
2278 416040.000   37.692200021 -122.088370689    21.8133   2  10   0.0424   0.0335   0.0824  -0.0150  -0.0266   0.0078   0.00    0.0
2278 416041.000   37.692200108 -122.088370677    21.8059   2  10   0.0425   0.0335   0.0824  -0.0152  -0.0267   0.0081   1.00    0.0
2278 416042.000   37.692200639 -122.088371736    21.8187   2  11   0.0428   0.0337   0.0829  -0.0156  -0.0271   0.0089   2.00    0.0
2278 416043.000   37.692207541 -122.088378968    21.9016   2  10   0.0431   0.0341   0.0842  -0.0162  -0.0285   0.0100   3.00    0.0
2278 416044.000   37.692225469 -122.088393711    21.7002   2  10   0.0435   0.0333   0.0799  -0.0167  -0.0249   0.0112   4.00    0.0
2278 416045.000   37.692256066 -122.088412243    21.6505   2   8   0.0446   0.0334   0.0802  -0.0179  -0.0253   0.0147   5.00    0.0
2278 416046.000   37.692298812 -122.088427572    21.6517   2  10   0.0488   0.0354   0.0844  -0.0234  -0.0308   0.0271   6.00    0.0
2278 416047.000   37.692345313 -122.088436457    21.5127   2  10   0.0413   0.0322   0.0774  -0.0127  -0.0214  -0.0118   7.00    0.0
2278 416048.000   37.692398247 -122.088447439    21.2150   2   9   0.0410   0.0318   0.0762  -0.0116  -0.0197  -0.0146   8.00    0.0
2278 416049.000   37.692458294 -122.088472250    21.0625   2  13   0.0410   0.0318   0.0764  -0.0117  -0.0198  -0.0145   9.00    0.0
2278 416050.000   37.692520107 -122.088507298    20.8222   2  11   0.0415   0.0319   0.0766  -0.0127  -0.0202  -0.0135  10.00    0.0
2278 416051.000   37.692582648 -122.088549170    20.7516   2   9   0.0405   0.0316   0.0759  -0.0111  -0.0188  -0.0164  11.00    0.0
2278 416052.000   37.692644277 -122.088592867    20.5461   2  11   0.0406   0.0317   0.0763  -0.0113  -0.0190  -0.0166  12.00    0.0
2278 416053.000   37.692705359 -122.088637767    20.3579   2  14   0.0407   0.0318   0.0770  -0.0114  -0.0197  -0.0165  13.00    0.0
2278 416054.000   37.692765945 -122.088683127    20.1926   2  14   0.0409   0.0319   0.0779  -0.0115  -0.0202  -0.0169  14.00    0.0
2278 416055.000   37.692822325 -122.088725382    20.2149   2  12   0.0410   0.0318   0.0775  -0.0116  -0.0199  -0.0167 -15.00    0.0
2278 416056.000   37.692871592 -122.088758639    20.1673   2  13   0.0414   0.0319   0.0746  -0.0127  -0.0194  -0.0127 -14.00    0.0
2278 416057.000   37.692917728 -122.088778515    20.1570   2  10   0.0403   0.0314   0.0736  -0.0105  -0.0177  -0.0161 -13.00    0.0
2278 416058.000   37.692961572 -122.088780640    20.0864   2  10   0.0404   0.0314   0.0735  -0.0106  -0.0177  -0.0154 -12.00    0.0
2278 416059.000   37.693001083 -122.088780651    19.7519   2  11   0.0401   0.0313   0.0733  -0.0102  -0.0174  -0.0160 -11.00    0.0
2278 416060.000   37.693031244 -122.088784906    19.7374   2  13   0.0402   0.0313   0.0733  -0.0101  -0.0173  -0.0159 -10.00    0.0
2278 416061.000   37.693050509 -122.088789422    19.5866   2  11   0.0403   0.0314   0.0741  -0.0104  -0.0181  -0.0153  -9.00    0.0
2278 416062.000   37.693061151 -122.088791496    18.9932   2  10   0.0407   0.0321   0.0782  -0.0121  -0.0222  -0.0098  -8.00    0.0
2278 416063.000   37.693064686 -122.088792557    18.9153   2   9   0.0401   0.0313   0.0724  -0.0097  -0.0168  -0.0173  -7.00    0.0
2278 416064.000   37.693066126 -122.088793092    18.9741   2  13   0.0402   0.0314   0.0731  -0.0101  -0.0175  -0.0165  -6.00    0.0
2278 416065.000   37.693066289 -122.088793115    18.9454   2   8   0.0397   0.0310   0.0711  -0.0087  -0.0152  -0.0194  -5.00    0.0
2278 416066.000   37.693068369 -122.088793765    18.9307   2  11   0.0398   0.0310   0.0702  -0.0083  -0.0144  -0.0198  -4.00    0.0
2278 416067.000   37.693077068 -122.088796893    18.8776   2  13   0.0397   0.0310   0.0702  -0.0084  -0.0145  -0.0196  -3.00    0.0
2278 416068.000   37.693091340 -122.088802707    18.6732   2  13   0.0403   0.0313   0.0708  -0.0098  -0.0159  -0.0183  -2.00    0.0
2278 416069.000   37.693105355 -122.088810725    18.8788   2  10   0.0395   0.0309   0.0697  -0.0076  -0.0135  -0.0208  -1.00    0.0
2278 416070.000   37.693118761 -122.088819043    18.9873   2  14   0.0394   0.0306   0.0688  -0.0058  -0.0118  -0.0220   0.00    0.0
2278 416071.000   37.693131084 -122.088830418    19.0482   2  12   0.0392   0.0304   0.0684  -0.0068  -0.0108  -0.0215   1.00    0.0
2278 416072.000   37.693141066 -122.088847117    19.1388   2  10   0.0392   0.0305   0.0683  -0.0071  -0.0106  -0.0214   2.00    0.0
2278 416073.000   37.693145536 -122.088864204    19.1814   2  11   0.0393   0.0304   0.0683  -0.0069  -0.0104  -0.0214   3.00    0.0
2278 416074.000   37.693147651 -122.088877684    19.2393   2  13   0.0394   0.0306   0.0688  -0.0074  -0.0116  -0.0210   4.00    0.0
2278 416075.000   37.693149749 -122.088902069    19.3268   2  13   0.0403   0.0322   0.0719  -0.0095  -0.0182  -0.0192   5.00    0.0
2278 416076.000   37.693153834 -122.088942994    19.3785   2  12   0.0400   0.0301   0.0669  -0.0071   0.0018  -0.0213   6.00    0.0
2278 416077.000   37.693154780 -122.088992508    19.3854   2  12   0.0398   0.0299   0.0669  -0.0051   0.0068  -0.0215   7.00    0.0
2278 416078.000   37.693151345 -122.089041427    19.4172   2  12   0.0404   0.0304   0.0664   0.0012   0.0105  -0.0234   8.00    0.0
2278 416079.000   37.693143379 -122.089090708    19.4308   2  12   0.0385   0.0292   0.0658  -0.0046   0.0076  -0.0221   9.00    0.0
2278 416080.000   37.693130901 -122.089136741    19.4971   2  11   0.0385   0.0292   0.0659  -0.0042   0.0066  -0.0222  10.00    0.0
2278 416081.000   37.693117661 -122.089174818    19.5713   2   9   0.0384   0.0296   0.0659  -0.0026   0.0031  -0.0219  11.00    0.0
2278 416082.000   37.693108015 -122.089200115    19.5810   2  14   0.0384   0.0288   0.0651  -0.0031   0.0089  -0.0219  12.00    0.0
2278 416083.000   37.693101277 -122.089216404    19.5852   2   9   0.0385   0.0290   0.0651   0.0012   0.0087  -0.0220  13.00    0.0
2278 416084.000   37.693096244 -122.089228351    19.6305   2   6   0.0385   0.0290   0.0652   0.0008   0.0086  -0.0221  14.00    0.0
2278 416085.000   37.693094018 -122.089235643    19.6695   2  10   0.0386   0.0292   0.0652   0.0031   0.0086  -0.0222 -15.00    0.0
2278 416086.000   37.693092752 -122.089238307    19.6768   2   7   0.0383   0.0286   0.0653  -0.0043   0.0089  -0.0220 -14.00    0.0
2278 416087.000   37.693092275 -122.089239561    19.6948   2  10   0.0383   0.0286   0.0652  -0.0046   0.0087  -0.0221 -13.00    0.0
2278 416088.000   37.693092267 -122.089239620    19.7001   2  12   0.0382   0.0285   0.0652  -0.0049   0.0088  -0.0221 -12.00    0.0
2278 416089.000   37.693092220 -122.089239550    19.6774   2  10   0.0382   0.0285   0.0652  -0.0051   0.0088  -0.0221 -11.00    0.0
2278 416090.000   37.693092362 -122.089239362    19.6784   2   8   0.0382   0.0284   0.0651  -0.0054   0.0087  -0.0221 -10.00    0.0
2278 416091.000   37.693092531 -122.089239455    19.6632   2   8   0.0382   0.0284   0.0652  -0.0057   0.0088  -0.0223  -9.00    0.0
2278 416092.000   37.693092435 -122.089239390    19.6987   2  12   0.0382   0.0284   0.0652  -0.0056   0.0087  -0.0223  -8.00    0.0
2278 416093.000   37.693092431 -122.089239441    19.6403   2   9   0.0382   0.0284   0.0652  -0.0056   0.0087  -0.0223  -7.00    0.0
2278 416094.000   37.693092479 -122.089239310    19.6519   2  11   0.0382   0.0284   0.0652  -0.0055   0.0086  -0.0223  -6.00    0.0
2278 416095.000   37.693092336 -122.089239316    19.6370   2  11   0.0382   0.0284   0.0651  -0.0055   0.0086  -0.0223  -5.00    0.0
2278 416096.000   37.693092411 -122.089239344    19.6389   2  11   0.0382   0.0284   0.0651  -0.0055   0.0086  -0.0223  -4.00    0.0
2278 416097.000   37.693092476 -122.089239265    19.6515   2   8   0.0382   0.0284   0.0651  -0.0056   0.0086  -0.0224  -3.00    0.0
2278 416098.000   37.693092299 -122.089239332    19.6544   2   8   0.0382   0.0284   0.0651  -0.0056   0.0086  -0.0224  -2.00    0.0
2278 416099.000   37.693092282 -122.089239350    19.6478   2  10   0.0382   0.0284   0.0651  -0.0055   0.0086  -0.0224  -1.00    0.0
2278 416100.000   37.693092264 -122.089239364    19.6390   2   9   0.0382   0.0284   0.0651  -0.0056   0.0086  -0.0224   0.00    0.0
2278 416101.000   37.693092178 -122.089239362    19.6451   2   9   0.0382   0.0284   0.0651  -0.0056   0.0086  -0.0224   1.00    0.0
2278 416102.000   37.693092228 -122.089239206    19.6413   2  12   0.0382   0.0284   0.0651  -0.0056   0.0086  -0.0225   2.00    0.0
2278 416103.000   37.693092342 -122.089239247    19.6194   2   9   0.0382   0.0284   0.0652  -0.0056   0.0088  -0.0225   3.00    0.0
2278 416104.000   37.693092344 -122.089239331    19.6036   2  13   0.0384   0.0285   0.0654  -0.0057   0.0093  -0.0228   4.00    0.0
2278 416105.000   37.693090804 -122.089243535    19.6128   2   9   0.0386   0.0287   0.0660  -0.0065   0.0103  -0.0235   5.00    0.0
2278 416106.000   37.693085996 -122.089253998    19.6417   2  10   0.0381   0.0285   0.0649  -0.0047   0.0082  -0.0219   6.00    0.0
2278 416107.000   37.693077217 -122.089275711    19.6821   2   9   0.0381   0.0285   0.0649  -0.0046   0.0085  -0.0218   7.00    0.0
2278 416108.000   37.693063789 -122.089309634    19.7579   2  12   0.0383   0.0288   0.0649  -0.0024   0.0084  -0.0219   8.00    0.0
2278 416109.000   37.693046097 -122.089354171    19.8046   2  13   0.0383   0.0288   0.0650  -0.0028   0.0083  -0.0220   9.00    0.0
2278 416110.000   37.693024990 -122.089408490    19.9461   2  12   0.0382   0.0287   0.0650  -0.0034   0.0085  -0.0220  10.00    0.0
2278 416111.000   37.693000774 -122.089475645    20.0647   2  13   0.0383   0.0288   0.0651  -0.0028   0.0082  -0.0220  11.00    0.0
2278 416112.000   37.692975551 -122.089553041    20.1683   2  11   0.0381   0.0284   0.0649  -0.0052   0.0096  -0.0215  12.00    0.0
2278 416113.000   37.692949460 -122.089636888    20.3482   2  13   0.0381   0.0282   0.0649  -0.0054   0.0106  -0.0214  13.00    0.0
2278 416114.000   37.692917748 -122.089730312    20.5352   2   9   0.0381   0.0283   0.0654  -0.0051   0.0118  -0.0213  14.00    0.0
2278 416115.000   37.692878900 -122.089833608    20.9427   2   9   0.0381   0.0282   0.0649  -0.0056   0.0114  -0.0219 -15.00    0.0
2278 416116.000   37.692833403 -122.089949270    21.2601   2  10   0.0382   0.0283   0.0649  -0.0057   0.0113  -0.0220 -14.00    0.0
2278 416117.000   37.692784187 -122.090082027    21.7232   2   9   0.0385   0.0287   0.0652  -0.0071   0.0123  -0.0229 -13.00    0.0
2278 416118.000   37.692726326 -122.090227873    22.3503   2  10   0.0382   0.0283   0.0647  -0.0059   0.0106  -0.0221 -12.00    0.0
2278 416119.000   37.692658131 -122.090383857    22.9978   2  11   0.0381   0.0282   0.0646  -0.0064   0.0103  -0.0220 -11.00    0.0
2278 416120.000   37.692582814 -122.090547055    23.5756   2  10   0.0381   0.0282   0.0646  -0.0065   0.0102  -0.0220 -10.00    0.0
2278 416121.000   37.692503045 -122.090713291    24.1283   2  13   0.0381   0.0282   0.0648  -0.0066   0.0096  -0.0219  -9.00    0.0
2278 416122.000   37.692422091 -122.090874291    24.6417   2  11   0.0381   0.0283   0.0648  -0.0063   0.0093  -0.0220  -8.00    0.0
2278 416123.000   37.692340057 -122.091027469    25.1923   2  13   0.0380   0.0282   0.0647  -0.0067   0.0095  -0.0220  -7.00    0.0
2278 416124.000   37.692256160 -122.091180057    25.7406   2  12   0.0380   0.0282   0.0648  -0.0069   0.0098  -0.0220  -6.00    0.0
2278 416125.000   37.692169092 -122.091335447    26.1069   2  11   0.0380   0.0282   0.0651  -0.0072   0.0098  -0.0220  -5.00    0.0
2278 416126.000   37.692078590 -122.091495279    26.2633   2  11   0.0381   0.0283   0.0655  -0.0074   0.0107  -0.0222  -4.00    0.0
2278 416127.000   37.691984041 -122.091658583    26.4441   2   9   0.0382   0.0283   0.0656  -0.0079   0.0112  -0.0229  -3.00    0.0
2278 416128.000   37.691886513 -122.091824796    26.5834   2  10   0.0384   0.0283   0.0648  -0.0081   0.0103  -0.0228  -2.00    0.0
2278 416129.000   37.691786203 -122.091994113    26.6985   2   7   0.0381   0.0281   0.0645  -0.0073   0.0095  -0.0224  -1.00    0.0
2278 416130.000   37.691684678 -122.092168535    26.4783   2   8   0.0383   0.0282   0.0648  -0.0076   0.0097  -0.0229   0.00    0.0
2278 416131.000   37.691582440 -122.092348107    26.1177   2  11   0.0385   0.0283   0.0651  -0.0060   0.0076  -0.0235   1.00    0.0
2278 416132.000   37.691482377 -122.092529087    25.4224   2  13   0.0381   0.0280   0.0641  -0.0073   0.0094  -0.0222   2.00    0.0
2278 416133.000   37.691383626 -122.092712535    24.5198   2  12   0.0380   0.0279   0.0640  -0.0075   0.0098  -0.0221   3.00    0.0
2278 416134.000   37.691284786 -122.092903011    23.7753   2  10   0.0379   0.0279   0.0639  -0.0074   0.0099  -0.0220   4.00    0.0
2278 416135.000   37.691187353 -122.093103123    23.4375   2  11   0.0379   0.0279   0.0639  -0.0074   0.0099  -0.0220   5.00    0.0
2278 416136.000   37.691097433 -122.093312619    23.5351   2   7   0.0380   0.0279   0.0639  -0.0072   0.0101  -0.0220   6.00    0.0
2278 416137.000   37.691023573 -122.093528280    23.7214   2   7   0.0381   0.0279   0.0640  -0.0069   0.0102  -0.0221   7.00    0.0
2278 416138.000   37.690962981 -122.093748822    23.8099   2   9   0.0383   0.0281   0.0641  -0.0065   0.0102  -0.0222   8.00    0.0
2278 416139.000   37.690915196 -122.093975520    23.8199   2  14   0.0386   0.0284   0.0643  -0.0058   0.0106  -0.0225   9.00    0.0
2278 416140.000   37.690878907 -122.094207483    23.6676   2  14   0.0387   0.0286   0.0645  -0.0090   0.0129  -0.0221  10.00    0.0
2278 416141.000   37.690852071 -122.094447689    23.3922   2  14   0.0388   0.0284   0.0649  -0.0099   0.0114  -0.0218  11.00    0.0
2278 416142.000   37.690830312 -122.094694652    22.8760   2  11   0.0389   0.0284   0.0649  -0.0102   0.0106  -0.0216  12.00    0.0
2278 416143.000   37.690809937 -122.094947848    22.3741   2  15   0.0388   0.0283   0.0645  -0.0098   0.0108  -0.0219  13.00    0.0
2278 416144.000   37.690792491 -122.095207411    21.7668   2  12   0.0388   0.0283   0.0645  -0.0099   0.0109  -0.0218  14.00    0.0
2278 416145.000   37.690778087 -122.095471254    21.2931   2  10   0.0386   0.0283   0.0644  -0.0100   0.0110  -0.0220 -15.00    0.0
2278 416146.000   37.690765677 -122.095738116    20.6908   2  11   0.0390   0.0284   0.0646  -0.0108   0.0117  -0.0227 -14.00    0.0
2278 416147.000   37.690755782 -122.096014270    20.0709   2  12   0.0386   0.0283   0.0643  -0.0104   0.0112  -0.0222 -13.00    0.0
2278 416148.000   37.690749035 -122.096298039    19.7487   2  12   0.0384   0.0283   0.0642  -0.0101   0.0109  -0.0220 -12.00    0.0
2278 416149.000   37.690751409 -122.096581449    19.5859   2  13   0.0384   0.0282   0.0642  -0.0101   0.0108  -0.0220 -11.00    0.0
2278 416150.000   37.690764801 -122.096861379    19.4602   2  13   0.0384   0.0282   0.0644  -0.0099   0.0106  -0.0219 -10.00    0.0
2278 416151.000   37.690790356 -122.097136314    19.4407   2  13   0.0385   0.0283   0.0652  -0.0097   0.0113  -0.0222  -9.00    0.0
2278 416152.000   37.690826428 -122.097409194    19.4437   2  15   0.0385   0.0285   0.0649  -0.0095   0.0102  -0.0218  -8.00    0.0
2278 416153.000   37.690871202 -122.097683592    19.5252   2  11   0.0384   0.0285   0.0647  -0.0092   0.0096  -0.0219  -7.00    0.0
2278 416154.000   37.690926254 -122.097960343    19.5316   2  14   0.0385   0.0285   0.0648  -0.0092   0.0089  -0.0220  -6.00    0.0
2278 416155.000   37.690990574 -122.098238597    19.5239   2  14   0.0385   0.0287   0.0654  -0.0104   0.0066  -0.0211  -5.00    0.0
2278 416156.000   37.691060593 -122.098521890    19.5703   2  13   0.0384   0.0284   0.0650  -0.0102   0.0081  -0.0214  -4.00    0.0
2278 416157.000   37.691138695 -122.098810193    19.5761   2  14   0.0386   0.0285   0.0653  -0.0105   0.0075  -0.0213  -3.00    0.0
2278 416158.000   37.691228413 -122.099096738    19.5122   2  14   0.0386   0.0285   0.0652  -0.0107   0.0074  -0.0211  -2.00    0.0
2278 416159.000   37.691331102 -122.099377474    19.4159   2  13   0.0386   0.0284   0.0650  -0.0108   0.0078  -0.0208  -1.00    0.0
2278 416160.000   37.691445374 -122.099652268    19.2774   2  14   0.0385   0.0283   0.0649  -0.0106   0.0084  -0.0210   0.00    0.0
2278 416161.000   37.691569821 -122.099920537    19.1915   2  14   0.0385   0.0284   0.0649  -0.0108   0.0076  -0.0210   1.00    0.0
2278 416162.000   37.691703527 -122.100183092    19.1363   2  14   0.0384   0.0283   0.0648  -0.0107   0.0078  -0.0211   2.00    0.0
2278 416163.000   37.691846987 -122.100438224    19.0406   2  11   0.0385   0.0284   0.0649  -0.0107   0.0074  -0.0211   3.00    0.0
2278 416164.000   37.692001391 -122.100683514    18.8682   2  13   0.0387   0.0290   0.0656  -0.0105   0.0031  -0.0215   4.00    0.0
2278 416165.000   37.692164900 -122.100920475    18.7094   2  11   0.0390   0.0289   0.0651  -0.0119   0.0076  -0.0211   5.00    0.0
2278 416166.000   37.692336162 -122.101150311    18.5445   2   9   0.0389   0.0289   0.0652  -0.0114   0.0078  -0.0211   6.00    0.0
2278 416167.000   37.692513804 -122.101373926    18.3203   2  14   0.0389   0.0296   0.0660  -0.0115   0.0091  -0.0209   7.00    0.0
2278 416168.000   37.692699231 -122.101592077    18.1400   2  14   0.0393   0.0299   0.0681  -0.0133  -0.0045  -0.0179   8.00    0.0
2278 416169.000   37.692895921 -122.101804875    17.9518   2  13   0.0390   0.0296   0.0669  -0.0127   0.0044  -0.0193   9.00    0.0
2278 416170.000   37.693108009 -122.102011829    17.7115   2  13   0.0392   0.0296   0.0666  -0.0130   0.0035  -0.0194  10.00    0.0
2278 416171.000   37.693331779 -122.102217522    17.5799   2  16   0.0394   0.0295   0.0674  -0.0130  -0.0014  -0.0183  11.00    0.0
2278 416172.000   37.693558508 -122.102419469    17.3604   2  14   0.0395   0.0293   0.0667  -0.0127  -0.0013  -0.0191  12.00    0.0
2278 416173.000   37.693783402 -122.102619393    17.1046   2  13   0.0394   0.0294   0.0666  -0.0127  -0.0039  -0.0194  13.00    0.0
2278 416174.000   37.694005607 -122.102817433    16.9098   2  12   0.0394   0.0296   0.0669  -0.0123  -0.0059  -0.0199  14.00    0.0
2278 416175.000   37.694226410 -122.103012201    16.7967   2  10   0.0393   0.0299   0.0675  -0.0121  -0.0088  -0.0202 -15.00    0.0
2278 416176.000   37.694444110 -122.103204878    16.5277   2  10   0.0393   0.0302   0.0681  -0.0119  -0.0107  -0.0205 -14.00    0.0
2278 416177.000   37.694658777 -122.103396120    16.3535   2   8   0.0392   0.0299   0.0679  -0.0123  -0.0097  -0.0202 -13.00    0.0
2278 416178.000   37.694870826 -122.103585154    16.2480   2  13   0.0392   0.0297   0.0676  -0.0123  -0.0082  -0.0202 -12.00    0.0
2278 416179.000   37.695079699 -122.103773178    16.0273   2  13   0.0392   0.0296   0.0680  -0.0124  -0.0073  -0.0202 -11.00    0.0
2278 416180.000   37.695286631 -122.103958960    15.8798   2  12   0.0393   0.0296   0.0682  -0.0123  -0.0069  -0.0199 -10.00    0.0
2278 416181.000   37.695492204 -122.104143760    15.6812   2  12   0.0393   0.0297   0.0680  -0.0122  -0.0076  -0.0200  -9.00    0.0
2278 416182.000   37.695695746 -122.104326938    15.4998   2   9   0.0393   0.0296   0.0678  -0.0122  -0.0068  -0.0201  -8.00    0.0
2278 416183.000   37.695898717 -122.104507551    15.2356   2  12   0.0405   0.0297   0.0680  -0.0129  -0.0073  -0.0192  -7.00    0.0
2278 416184.000   37.696101994 -122.104687985    15.1042   2  13   0.0401   0.0297   0.0677  -0.0126  -0.0082  -0.0196  -6.00    0.0
2278 416185.000   37.696306579 -122.104869475    14.9081   2  10   0.0399   0.0298   0.0678  -0.0127  -0.0075  -0.0200  -5.00    0.0
2278 416186.000   37.696513133 -122.105052343    14.6714   2  10   0.0398   0.0310   0.0701  -0.0115  -0.0145  -0.0211  -4.00    0.0
2278 416187.000   37.696721351 -122.105236917    14.4621   2  11   0.0399   0.0319   0.0745  -0.0105  -0.0194  -0.0221  -3.00    0.0
2278 416188.000   37.696931177 -122.105424157    14.2220   2  12   0.0400   0.0316   0.0738  -0.0123  -0.0188  -0.0194  -2.00    0.0
2278 416189.000   37.697142584 -122.105613260    14.0336   2  12   0.0399   0.0310   0.0714  -0.0128  -0.0161  -0.0190  -1.00    0.0
2278 416190.000   37.697354512 -122.105801901    13.8438   2  10   0.0397   0.0309   0.0709  -0.0130  -0.0153  -0.0190   0.00    0.0
2278 416191.000   37.697564784 -122.105988877    13.6418   2  12   0.0397   0.0308   0.0707  -0.0134  -0.0148  -0.0189   1.00    0.0
2278 416192.000   37.697773793 -122.106175483    13.4346   2  14   0.0397   0.0307   0.0706  -0.0135  -0.0146  -0.0188   2.00    0.0
2278 416193.000   37.697981866 -122.106361152    13.2166   2  13   0.0396   0.0306   0.0706  -0.0135  -0.0145  -0.0188   3.00    0.0
2278 416194.000   37.698188824 -122.106544802    13.0059   2  10   0.0396   0.0306   0.0709  -0.0135  -0.0146  -0.0189   4.00    0.0
2278 416195.000   37.698393335 -122.106726096    12.8042   2  13   0.0399   0.0307   0.0717  -0.0138  -0.0153  -0.0184   5.00    0.0
2278 416196.000   37.698596599 -122.106907598    12.6109   2  12   0.0402   0.0317   0.0736  -0.0144  -0.0178  -0.0171   6.00    0.0
2278 416197.000   37.698800570 -122.107089569    12.5148   2  14   0.0400   0.0325   0.0763  -0.0139  -0.0220  -0.0183   7.00    0.0
2278 416198.000   37.699002694 -122.107271087    12.4332   2   8   0.0400   0.0318   0.0740  -0.0141  -0.0194  -0.0182   8.00    0.0
2278 416199.000   37.699201836 -122.107451582    12.4849   2  14   0.0400   0.0317   0.0734  -0.0142  -0.0187  -0.0181   9.00    0.0
2278 416200.000   37.699395766 -122.107633637    12.4073   2  12   0.0400   0.0316   0.0732  -0.0142  -0.0185  -0.0180  10.00    0.0
2278 416201.000   37.699585955 -122.107818812    12.2214   2  12   0.0401   0.0316   0.0731  -0.0143  -0.0184  -0.0180  11.00    0.0
2278 416202.000   37.699774784 -122.108011796    12.0344   2  10   0.0402   0.0317   0.0731  -0.0146  -0.0181  -0.0183  12.00    0.0
2278 416203.000   37.699963347 -122.108213325    11.8398   2  10   0.0407   0.0317   0.0732  -0.0149  -0.0181  -0.0180  13.00    0.0
2278 416204.000   37.700149577 -122.108422661    11.4795   2  14   0.0411   0.0319   0.0734  -0.0152  -0.0176  -0.0186  14.00    0.0
2278 416205.000   37.700332405 -122.108641034    11.3433   2   7   0.0435   0.0328   0.0753  -0.0177  -0.0172  -0.0229 -15.00    0.0
2278 416206.000   37.700510602 -122.108867561    10.9427   2   5   0.0450   0.0370   0.0761  -0.0207  -0.0227  -0.0217 -14.00    0.0
2278 416207.000   37.700685671 -122.109100412    10.3327   2  13   0.0449   0.0361   0.0757  -0.0204  -0.0214  -0.0215 -13.00    0.0
2278 416208.000   37.700857319 -122.109339650     9.8409   2   6   0.0450   0.0360   0.0757  -0.0203  -0.0218  -0.0200 -12.00    0.0
2278 416209.000   37.701022803 -122.109583356     9.1349   2   7   0.0445   0.0355   0.0744  -0.0196  -0.0200  -0.0202 -11.00    0.0
2278 416210.000   37.701181830 -122.109831547     8.3222   2   7   0.0443   0.0354   0.0742  -0.0192  -0.0201  -0.0209 -10.00    0.0
2278 416211.000   37.701338049 -122.110083804     7.3499   2  11   0.0445   0.0355   0.0746  -0.0194  -0.0206  -0.0198  -9.00    0.0
2278 416212.000   37.701495709 -122.110339798     6.3179   2  12   0.0444   0.0355   0.0743  -0.0193  -0.0204  -0.0202  -8.00    0.0
2278 416213.000   37.701655575 -122.110599631     5.3767   2  11   0.0445   0.0357   0.0743  -0.0192  -0.0203  -0.0204  -7.00    0.0
2278 416214.000   37.701817328 -122.110862218     4.5961   2  11   0.0446   0.0359   0.0743  -0.0190  -0.0205  -0.0205  -6.00    0.0
2278 416215.000   37.701980765 -122.111126982     4.1030   2   8   0.0450   0.0364   0.0745  -0.0188  -0.0206  -0.0206  -5.00    0.0
2278 416216.000   37.702144104 -122.111392488     3.7406   2   9   0.0455   0.0370   0.0744  -0.0189  -0.0208  -0.0204  -4.00    0.0
2278 416217.000   37.702307224 -122.111657597     3.5181   2  13   0.0470   0.0386   0.0747  -0.0194  -0.0217  -0.0203  -3.00    0.0
2278 416218.001   37.702471514 -122.111922284     3.3846   2  14   0.0502   0.0411   0.0777  -0.0211  -0.0240  -0.0205  -2.00    0.0
2278 416219.000   37.702637398 -122.112190905     3.2597   2  12   0.0769   0.0568   0.0832  -0.0339   0.0099  -0.0259  -1.00    0.0
2278 416220.000   37.702802643 -122.112459525     3.0026   2  13   0.0628   0.0493   0.0754  -0.0260  -0.0076  -0.0219  -0.00    0.0
2278 416221.000   37.702968876 -122.112730619     2.8446   2  12   0.0556   0.0444   0.0748  -0.0229  -0.0124  -0.0213   1.00    0.0
2278 416222.000   37.703137049 -122.113004977     2.6221   2  14   0.0529   0.0423   0.0747  -0.0222  -0.0134  -0.0214   2.00    0.0
2278 416223.000   37.703306980 -122.113282616     2.4410   2  13   0.0515   0.0411   0.0746  -0.0219  -0.0139  -0.0214   3.00    0.0
2278 416224.000   37.703477929 -122.113563085     2.2429   2  12   0.0508   0.0404   0.0747  -0.0219  -0.0142  -0.0215   4.00    0.0
2278 416225.000   37.703649673 -122.113845307     2.0506   2  10   0.0503   0.0399   0.0747  -0.0219  -0.0145  -0.0215   5.00    0.0
2278 416226.000   37.703821985 -122.114127840     1.8604   2  10   0.0499   0.0395   0.0746  -0.0219  -0.0146  -0.0216   6.00    0.0
2278 416227.000   37.703995162 -122.114410757     1.6427   2  13   0.0496   0.0392   0.0746  -0.0219  -0.0146  -0.0216   7.00    0.0
2278 416228.000   37.704169159 -122.114692785     1.5558   2  11   0.0495   0.0390   0.0746  -0.0220  -0.0146  -0.0217   8.00    0.0
2278 416229.000   37.704343356 -122.114975205     1.4656   2  11   0.0493   0.0388   0.0746  -0.0220  -0.0147  -0.0218   9.00    0.0
2278 416230.000   37.704514891 -122.115256314     1.2570   2   9   0.0492   0.0387   0.0746  -0.0220  -0.0148  -0.0218  10.00    0.0
2278 416231.000   37.704683950 -122.115538695     0.8447   2   9   0.0493   0.0387   0.0747  -0.0224  -0.0145  -0.0221  11.00    0.0
2278 416232.000   37.704850037 -122.115825341     0.3239   2   8   0.0492   0.0386   0.0747  -0.0224  -0.0145  -0.0221  12.00    0.0
2278 416233.000   37.705013379 -122.116114622    -0.3132   2  10   0.0491   0.0385   0.0749  -0.0223  -0.0146  -0.0221  13.00    0.0
2278 416234.000   37.705172907 -122.116405083    -1.0698   2  10   0.0491   0.0386   0.0751  -0.0224  -0.0149  -0.0220  14.00    0.0
2278 416235.000   37.705329352 -122.116695497    -2.2173   2   6   0.0497   0.0396   0.0774  -0.0238  -0.0172  -0.0228  15.00    0.0
2278 416236.000   37.705483846 -122.116996503    -3.2504   2   8   0.0510   0.0469   0.0879  -0.0261  -0.0335   0.0036 -14.00    0.0
2278 416237.000   37.705636079 -122.117297011    -4.1474   2   8   0.0502   0.0421   0.0788  -0.0228  -0.0224  -0.0186 -13.00    0.0
2278 416238.000   37.705784553 -122.117598606    -5.1131   2  11   0.0500   0.0413   0.0777  -0.0223  -0.0206  -0.0196 -12.00    0.0
2278 416239.000   37.705929453 -122.117901454    -6.0309   2  14   0.0501   0.0417   0.0781  -0.0216  -0.0219  -0.0207 -11.00    0.0
2278 416240.000   37.706070450 -122.118205351    -6.9968   2  16   0.0500   0.0414   0.0777  -0.0217  -0.0211  -0.0205 -10.00    0.0
2278 416241.000   37.706208400 -122.118509911    -7.9567   2  12   0.0500   0.0414   0.0775  -0.0218  -0.0208  -0.0205  -9.00    0.0
2278 416242.000   37.706343679 -122.118815327    -8.9893   2  13   0.0502   0.0415   0.0776  -0.0220  -0.0204  -0.0211  -8.00    0.0
2278 416243.000   37.706477590 -122.119122135   -10.0497   2  13   0.0502   0.0414   0.0777  -0.0220  -0.0206  -0.0211  -7.00    0.0
2278 416244.000   37.706612031 -122.119430830   -11.0704   2  14   0.0502   0.0416   0.0777  -0.0222  -0.0211  -0.0207  -6.00    0.0
2278 416245.000   37.706748415 -122.119740748   -12.0814   2  12   0.0502   0.0416   0.0777  -0.0222  -0.0211  -0.0206  -5.00    0.0
2278 416246.000   37.706885828 -122.120051241   -13.1688   2  13   0.0502   0.0416   0.0776  -0.0221  -0.0209  -0.0207  -4.00    0.0
2278 416247.000   37.707026101 -122.120359596   -14.4028   2  14   0.0505   0.0416   0.0784  -0.0221  -0.0207  -0.0192  -3.00    0.0
2278 416248.000   37.707176604 -122.120658731   -15.4530   2   9   0.0504   0.0415   0.0785  -0.0222  -0.0208  -0.0193  -2.00    0.0
2278 416249.000   37.707337657 -122.120947334   -16.4211   2   7   0.0503   0.0415   0.0783  -0.0222  -0.0205  -0.0200  -1.00    0.0
2278 416250.000   37.707509107 -122.121224641   -17.3942   2  12   0.0505   0.0420   0.0786  -0.0228  -0.0196  -0.0208  -0.00    0.0
2278 416251.000   37.707691602 -122.121490536   -18.2090   2   8   0.0511   0.0437   0.0799  -0.0222  -0.0145  -0.0194   1.00    0.0
2278 416252.000   37.707883873 -122.121746468   -18.7413   2  12   0.0514   0.0473   0.0918  -0.0230  -0.0337  -0.0170   2.00    0.0
2278 416253.000   37.708080732 -122.121996788   -19.1822   2  12   0.0516   0.0501   0.0953  -0.0238  -0.0392  -0.0128   3.00    0.0
2278 416254.000   37.708277540 -122.122245534   -19.6886   2  11   0.0514   0.0468   0.0900  -0.0226  -0.0313  -0.0187   4.00    0.0
2278 416255.000   37.708473745 -122.122495419   -20.0095   2  11   0.0521   0.0465   0.0936  -0.0223  -0.0305  -0.0228   5.00    0.0
2278 416256.000   37.708673016 -122.122740492   -19.6280   4   2   0.1948   0.0757   0.1189   0.0864  -0.0541  -0.0367   6.00    0.0
2278 416257.000   37.708870495 -122.122987051   -19.0060   2   5   0.0938   0.1253   0.1482   0.0336  -0.0930  -0.0657   7.00    0.0
2278 416258.000   37.709064388 -122.123238138   -18.8265   2  10   0.0870   0.0749   0.1367  -0.0292  -0.0621  -0.0581   8.00    0.0
2278 416259.000   37.709258274 -122.123484911   -18.8348   2  10   0.0841   0.0723   0.1217  -0.0259  -0.0564  -0.0503   9.00    0.0
2278 416260.000   37.709452546 -122.123732952   -18.6547   2   9   0.0856   0.0731   0.1195  -0.0184  -0.0580  -0.0542  10.00    0.0
2278 416261.000   37.709646673 -122.123982255   -18.3246   2   9   0.0979   0.0820   0.1324   0.0342  -0.0729  -0.0735  11.00    0.0
2278 416262.000   37.709838125 -122.124233748   -18.1687   2   5   0.0986   0.0906   0.1374   0.0262  -0.0776  -0.0703  12.00    0.0
2278 416263.000   37.710019293 -122.124491216   -17.5805   2   4   0.0894   0.0936   0.1142  -0.0760  -0.0508   0.0253  13.00    0.0
2278 416264.000   37.710198361 -122.124762114   -16.9296   2   7   0.0682   0.0552   0.0985  -0.0418  -0.0324  -0.0364  14.00    0.0
2278 416265.000   37.710366209 -122.125035052   -16.1532   2  12   0.0661   0.0532   0.0968  -0.0400  -0.0320  -0.0330  15.00    0.0
2278 416266.000   37.710528316 -122.125312947   -15.5331   2  12   0.0651   0.0523   0.0946  -0.0388  -0.0304  -0.0335 -14.00    0.0
2278 416267.000   37.710683528 -122.125595979   -15.0380   2   9   0.0649   0.0520   0.0934  -0.0386  -0.0295  -0.0333 -13.00    0.0
2278 416268.000   37.710832978 -122.125883826   -14.7372   2   8   0.0647   0.0519   0.0930  -0.0384  -0.0293  -0.0332 -12.00    0.0
2278 416269.000   37.710978993 -122.126173514   -14.1797   2  11   0.0646   0.0517   0.0928  -0.0383  -0.0292  -0.0331 -11.00    0.0
2278 416270.000   37.711123906 -122.126460426   -13.3251   2  13   0.0646   0.0517   0.0929  -0.0382  -0.0294  -0.0331 -10.00    0.0
2278 416271.000   37.711266160 -122.126740912   -12.2591   2  15   0.0646   0.0517   0.0930  -0.0382  -0.0294  -0.0332  -9.00    0.0
2278 416272.000   37.711405146 -122.127015279   -11.3172   2  16   0.0646   0.0518   0.0932  -0.0382  -0.0296  -0.0332  -8.00    0.0
2278 416273.000   37.711542290 -122.127286214   -10.4573   2  12   0.0646   0.0518   0.0934  -0.0382  -0.0299  -0.0332  -7.00    0.0
2278 416274.000   37.711678719 -122.127554086    -9.8421   2  15   0.0646   0.0519   0.0935  -0.0381  -0.0301  -0.0332  -6.00    0.0
2278 416275.000   37.711816488 -122.127818223    -9.4263   2  14   0.0647   0.0520   0.0937  -0.0381  -0.0303  -0.0332  -5.00    0.0
2278 416276.000   37.711958765 -122.128077329    -8.9545   2  13   0.0647   0.0521   0.0938  -0.0381  -0.0304  -0.0333  -4.00    0.0
2278 416277.000   37.712106672 -122.128331151    -8.5522   2  12   0.0648   0.0523   0.0942  -0.0382  -0.0308  -0.0334  -3.00    0.0
2278 416278.000   37.712261660 -122.128578436    -8.1582   2  12   0.0649   0.0527   0.0946  -0.0383  -0.0314  -0.0332  -2.00    0.0
2278 416279.000   37.712423700 -122.128819450    -7.7493   2  13   0.0649   0.0527   0.0951  -0.0381  -0.0317  -0.0332  -1.00    0.0
2278 416280.000   37.712591620 -122.129055937    -7.4018   2  12   0.0650   0.0526   0.0960  -0.0380  -0.0313  -0.0324  -0.00    0.0
2278 416281.000   37.712767425 -122.129288358    -6.9648   2  11   0.0648   0.0522   0.0947  -0.0383  -0.0309  -0.0330   1.00    0.0
2278 416282.000   37.712950408 -122.129515516    -6.8019   2  10   0.0649   0.0522   0.0944  -0.0383  -0.0306  -0.0329   2.00    0.0
2278 416283.000   37.713141300 -122.129736956    -6.6848   2  10   0.0649   0.0522   0.0944  -0.0383  -0.0305  -0.0331   3.00    0.0
2278 416284.000   37.713339858 -122.129952304    -6.6243   2   9   0.0650   0.0523   0.0948  -0.0383  -0.0303  -0.0333   4.00    0.0
2278 416285.000   37.713545578 -122.130162558    -6.5272   2  12   0.0655   0.0525   0.0961  -0.0383  -0.0308  -0.0333   5.00    0.0
2278 416286.000   37.713758774 -122.130365925    -6.4736   2  12   0.0658   0.0526   0.0975  -0.0380  -0.0319  -0.0332   6.00    0.0
2278 416287.000   37.713978509 -122.130562632    -6.3064   2   9   0.0651   0.0523   0.0941  -0.0383  -0.0298  -0.0343   7.00    0.0
2278 416288.000   37.714203546 -122.130749564    -6.2584   2  10   0.0649   0.0520   0.0924  -0.0387  -0.0299  -0.0345   8.00    0.0
2278 416289.000   37.714431402 -122.130924618    -6.1349   2  10   0.0648   0.0519   0.0915  -0.0387  -0.0295  -0.0342   9.00    0.0
2278 416290.000   37.714660687 -122.131087032    -6.1510   2  11   0.0647   0.0518   0.0911  -0.0387  -0.0292  -0.0341  10.00    0.0
2278 416291.000   37.714891406 -122.131238315    -6.0268   2  10   0.0647   0.0518   0.0910  -0.0388  -0.0291  -0.0341  11.00    0.0
2278 416292.000   37.715125342 -122.131380862    -5.9994   2  13   0.0647   0.0517   0.0908  -0.0387  -0.0289  -0.0341  12.00    0.0
2278 416293.000   37.715360985 -122.131512703    -5.9577   2   8   0.0647   0.0516   0.0905  -0.0387  -0.0285  -0.0342  13.00    0.0
2278 416294.000   37.715595894 -122.131635767    -5.7363   2  13   0.0649   0.0517   0.0905  -0.0388  -0.0285  -0.0340  14.00    0.0
2278 416295.000   37.715829687 -122.131751449    -5.7173   2  13   0.0650   0.0517   0.0906  -0.0389  -0.0287  -0.0339  15.00    0.0
2278 416296.000   37.716061330 -122.131865453    -5.9119   2  12   0.0649   0.0518   0.0916  -0.0388  -0.0292  -0.0345 -14.00    0.0
2278 416297.000   37.716291061 -122.131976447    -6.1846   2  12   0.0648   0.0517   0.0906  -0.0387  -0.0285  -0.0347 -13.00    0.0
2278 416298.000   37.716518993 -122.132087118    -6.3975   2   8   0.0648   0.0517   0.0904  -0.0387  -0.0284  -0.0347 -12.00    0.0
2278 416299.000   37.716746477 -122.132197847    -6.5706   2   7   0.0648   0.0516   0.0903  -0.0387  -0.0282  -0.0347 -11.00    0.0
2278 416300.000   37.716973572 -122.132308895    -6.5325   2  13   0.0649   0.0517   0.0906  -0.0387  -0.0286  -0.0346 -10.00    0.0
2278 416301.000   37.717199720 -122.132419957    -6.3949   2  10   0.0647   0.0516   0.0903  -0.0386  -0.0282  -0.0353  -9.00    0.0
2278 416302.000   37.717424838 -122.132530746    -6.2727   2   8   0.0647   0.0516   0.0912  -0.0387  -0.0284  -0.0351  -8.00    0.0
2278 416303.000   37.717648859 -122.132641539    -6.0001   2  10   0.0649   0.0517   0.0895  -0.0389  -0.0282  -0.0345  -7.00    0.0
2278 416304.000   37.717870513 -122.132750523    -5.6861   2  10   0.0656   0.0523   0.0898  -0.0398  -0.0294  -0.0339  -6.00    0.0
2278 416305.000   37.718087831 -122.132857366    -5.1975   2  11   0.0654   0.0522   0.0896  -0.0396  -0.0292  -0.0341  -5.00    0.0
2278 416306.000   37.718302599 -122.132965232    -4.6227   2  12   0.0652   0.0524   0.0894  -0.0395  -0.0294  -0.0345  -4.00    0.0
2278 416307.000   37.718515745 -122.133075201    -4.1564   2  13   0.0652   0.0522   0.0892  -0.0393  -0.0289  -0.0347  -3.00    0.0
2278 416308.000   37.718726591 -122.133186934    -3.7944   2  11   0.0652   0.0521   0.0894  -0.0394  -0.0287  -0.0344  -2.00    0.0
2278 416309.000   37.718937561 -122.133301979    -3.3403   2  11   0.0650   0.0520   0.0887  -0.0393  -0.0283  -0.0350  -1.00    0.0
2278 416310.000   37.719148995 -122.133420270    -2.8575   2  11   0.0649   0.0520   0.0888  -0.0393  -0.0283  -0.0351  -0.00    0.0
2278 416311.000   37.719363316 -122.133542629    -2.5540   2  12   0.0649   0.0522   0.0898  -0.0393  -0.0290  -0.0352   1.00    0.0
2278 416312.000   37.719579917 -122.133670076    -2.2385   2   9   0.0649   0.0521   0.0897  -0.0393  -0.0288  -0.0352   2.00    0.0
2278 416313.000   37.719798413 -122.133802689    -2.1275   2  13   0.0649   0.0520   0.0894  -0.0392  -0.0287  -0.0353   3.00    0.0
2278 416314.000   37.720019088 -122.133940673    -2.0637   2  12   0.0649   0.0520   0.0892  -0.0392  -0.0286  -0.0352   4.00    0.0
2278 416315.000   37.720238340 -122.134081195    -2.0598   2  12   0.0648   0.0521   0.0888  -0.0392  -0.0285  -0.0350   5.00    0.0
2278 416316.000   37.720453452 -122.134223199    -2.2500   2  13   0.0649   0.0521   0.0889  -0.0392  -0.0285  -0.0350   6.00    0.0
2278 416317.000   37.720664984 -122.134366578    -2.4485   2  12   0.0649   0.0521   0.0888  -0.0392  -0.0284  -0.0350   7.00    0.0
2278 416318.000   37.720873008 -122.134511091    -2.7232   2  11   0.0650   0.0520   0.0888  -0.0391  -0.0282  -0.0350   8.00    0.0
2278 416319.000   37.721078147 -122.134656671    -3.1648   2  12   0.0651   0.0521   0.0888  -0.0391  -0.0281  -0.0350   9.00    0.0
2278 416320.000   37.721279706 -122.134805490    -3.5882   2  10   0.0652   0.0521   0.0888  -0.0391  -0.0279  -0.0350  10.00    0.0
2278 416321.000   37.721478774 -122.134955825    -4.1586   2  13   0.0655   0.0524   0.0889  -0.0391  -0.0282  -0.0349  11.00    0.0
2278 416322.000   37.721676230 -122.135105911    -4.8653   2  13   0.0658   0.0524   0.0889  -0.0391  -0.0279  -0.0349  12.00    0.0
2278 416323.000   37.721872343 -122.135257242    -5.6253   2  13   0.0664   0.0531   0.0898  -0.0389  -0.0289  -0.0353  13.00    0.0
2278 416324.000   37.722068269 -122.135407795    -6.4592   2  11   0.0680   0.0540   0.0913  -0.0392  -0.0291  -0.0361  14.00    0.0
2278 416325.000   37.722267943 -122.135559644    -7.4669   2   9   0.0728   0.0565   0.1057  -0.0377  -0.0358  -0.0454  15.00    0.0
2278 416326.000   37.722471797 -122.135718647    -7.6862   4   2   0.1412   0.1387   0.0995  -0.1213  -0.0413  -0.0509 -14.00    0.0
2278 416327.000   37.722664380 -122.135868357    -7.4217   2   6   0.0566   0.0461   0.0894  -0.0280  -0.0401  -0.0278 -13.00    0.0
2278 416328.000   37.722862297 -122.136021543    -7.4834   2  12   0.0546   0.0448   0.0849  -0.0295  -0.0367  -0.0202 -12.00    0.0
2278 416329.000   37.723061360 -122.136176303    -7.4207   2  14   0.0537   0.0440   0.0835  -0.0293  -0.0357  -0.0170 -11.00    0.0
2278 416330.000   37.723262559 -122.136330861    -7.3904   2  13   0.0537   0.0440   0.0836  -0.0293  -0.0357  -0.0170 -10.00    0.0
2278 416331.000   37.723466502 -122.136486161    -7.4745   2  14   0.0537   0.0440   0.0836  -0.0294  -0.0357  -0.0171  -9.00    0.0
2278 416332.000   37.723673275 -122.136642296    -7.6058   2   7   0.0538   0.0440   0.0836  -0.0295  -0.0355  -0.0174  -8.00    0.0
2278 416333.000   37.723883987 -122.136792743    -7.5603   2  12   0.0539   0.0441   0.0836  -0.0296  -0.0356  -0.0172  -7.00    0.0
2278 416334.000   37.724096970 -122.136931347    -7.2280   2  10   0.0536   0.0438   0.0838  -0.0291  -0.0361  -0.0168  -6.00    0.0
2278 416335.000   37.724312915 -122.137059031    -6.7659   2  11   0.0537   0.0440   0.0840  -0.0291  -0.0364  -0.0169  -5.00    0.0
2278 416336.000   37.724532830 -122.137176197    -6.1727   2  10   0.0538   0.0440   0.0839  -0.0293  -0.0364  -0.0164  -4.00    0.0
2278 416337.000   37.724755430 -122.137282585    -5.4273   2  10   0.0540   0.0444   0.0844  -0.0296  -0.0370  -0.0157  -3.00    0.0
2278 416338.000   37.724980693 -122.137378598    -4.6018   2   9   0.0549   0.0444   0.0842  -0.0305  -0.0368  -0.0135  -2.00    0.0
2278 416339.000   37.725207504 -122.137464483    -3.8267   2  10   0.0537   0.0436   0.0840  -0.0290  -0.0358  -0.0163  -1.00    0.0
2278 416340.000   37.725436156 -122.137540341    -3.0810   2  11   0.0535   0.0435   0.0839  -0.0286  -0.0356  -0.0168  -0.00    0.0
2278 416341.000   37.725666999 -122.137604202    -2.4784   2  12   0.0537   0.0435   0.0857  -0.0288  -0.0362  -0.0143   1.00    0.0
2278 416342.000   37.725899324 -122.137657545    -1.9616   2  15   0.0536   0.0435   0.0847  -0.0287  -0.0351  -0.0159   2.00    0.0
2278 416343.000   37.726133176 -122.137701839    -1.3158   2  11   0.0536   0.0428   0.0835  -0.0282  -0.0353  -0.0161   3.00    0.0
2278 416344.000   37.726367367 -122.137739625    -0.7754   2  11   0.0533   0.0428   0.0835  -0.0280  -0.0352  -0.0163   4.00    0.0
2278 416345.000   37.726602569 -122.137774522    -0.4462   2  13   0.0532   0.0428   0.0835  -0.0277  -0.0353  -0.0173   5.00    0.0
2278 416346.000   37.726838369 -122.137810364    -0.0717   2  14   0.0533   0.0430   0.0839  -0.0275  -0.0357  -0.0180   6.00    0.0
2278 416347.000   37.727074202 -122.137846212     0.4352   2  13   0.0532   0.0427   0.0834  -0.0277  -0.0352  -0.0175   7.00    0.0
2278 416348.000   37.727308926 -122.137880946     1.0621   2  11   0.0532   0.0427   0.0832  -0.0279  -0.0350  -0.0172   8.00    0.0
2278 416349.000   37.727542134 -122.137916421     1.7551   2   9   0.0533   0.0427   0.0831  -0.0279  -0.0350  -0.0170   9.00    0.0
2278 416350.000   37.727772885 -122.137952309     2.3345   2  12   0.0531   0.0427   0.0832  -0.0278  -0.0351  -0.0172  10.00    0.0
2278 416351.000   37.728001275 -122.137989475     2.7690   2  13   0.0533   0.0430   0.0848  -0.0280  -0.0360  -0.0154  11.00    0.0
2278 416352.000   37.728229451 -122.138029622     3.0838   2  15   0.0532   0.0430   0.0844  -0.0279  -0.0358  -0.0163  12.00    0.0
2278 416353.000   37.728459641 -122.138073946     3.3382   2  16   0.0532   0.0431   0.0842  -0.0279  -0.0359  -0.0165  13.00    0.0
2278 416354.000   37.728691976 -122.138121336     3.4412   2  13   0.0532   0.0434   0.0846  -0.0280  -0.0365  -0.0165  14.00    0.0
2278 416355.000   37.728926027 -122.138173486     3.3541   2  15   0.0533   0.0434   0.0848  -0.0281  -0.0366  -0.0164  15.00    0.0
2278 416356.000   37.729158130 -122.138231793     3.4671   2  12   0.0535   0.0439   0.0865  -0.0281  -0.0381  -0.0164 -14.00    0.0
2278 416357.000   37.729386171 -122.138292142     3.3789   2  13   0.0529   0.0432   0.0862  -0.0270  -0.0372  -0.0189 -13.00    0.0
2278 416358.000   37.729610917 -122.138353095     3.0560   2  13   0.0530   0.0430   0.0851  -0.0271  -0.0364  -0.0189 -12.00    0.0
2278 416359.000   37.729832949 -122.138415077     2.7732   2  14   0.0531   0.0426   0.0843  -0.0272  -0.0354  -0.0187 -11.00    0.0
2278 416360.000   37.730052212 -122.138477667     2.6585   2  12   0.0530   0.0421   0.0838  -0.0271  -0.0345  -0.0189 -10.00    0.0
2278 416361.000   37.730269238 -122.138538451     2.6512   2  10   0.0531   0.0420   0.0833  -0.0274  -0.0341  -0.0184  -9.00    0.0
2278 416362.000   37.730485733 -122.138600621     2.6524   2   8   0.0533   0.0424   0.0837  -0.0278  -0.0347  -0.0175  -8.00    0.0
2278 416363.000   37.730702399 -122.138661439     2.6195   2  10   0.0528   0.0418   0.0835  -0.0267  -0.0340  -0.0196  -7.00    0.0
2278 416364.000   37.730919462 -122.138723520     2.4603   2  11   0.0527   0.0416   0.0834  -0.0266  -0.0336  -0.0199  -6.00    0.0
2278 416365.000   37.731137329 -122.138787183     2.4964   2  10   0.0527   0.0413   0.0828  -0.0265  -0.0327  -0.0206  -5.00    0.0
2278 416366.000   37.731354607 -122.138849817     2.5246   2   9   0.0528   0.0413   0.0836  -0.0265  -0.0326  -0.0200  -4.00    0.0
2278 416367.000   37.731568976 -122.138910571     2.4761   2  11   0.0530   0.0413   0.0824  -0.0266  -0.0328  -0.0192  -3.00    0.0
2278 416368.000   37.731780294 -122.138970295     2.4478   2  13   0.0529   0.0413   0.0835  -0.0267  -0.0328  -0.0177  -2.00    0.0
2278 416369.000   37.731988739 -122.139028717     2.3992   2  10   0.0530   0.0416   0.0845  -0.0270  -0.0339  -0.0171  -1.00    0.0
2278 416370.000   37.732196850 -122.139087406     2.4023   2  10   0.0527   0.0417   0.0849  -0.0268  -0.0343  -0.0172  -0.00    0.0
2278 416371.000   37.732408323 -122.139145867     2.3710   2  10   0.0526   0.0416   0.0833  -0.0266  -0.0336  -0.0182   1.00    0.0
2278 416372.000   37.732623224 -122.139203068     2.3571   2  13   0.0526   0.0419   0.0855  -0.0268  -0.0351  -0.0170   2.00    0.0
2278 416373.000   37.732840823 -122.139258619     2.2906   2  11   0.0526   0.0424   0.0860  -0.0269  -0.0361  -0.0169   3.00    0.0
2278 416374.000   37.733059188 -122.139312107     2.1690   2  10   0.0524   0.0423   0.0857  -0.0261  -0.0357  -0.0195   4.00    0.0
2278 416375.000   37.733278083 -122.139363894     2.1313   2  11   0.0523   0.0419   0.0849  -0.0261  -0.0345  -0.0190   5.00    0.0
2278 416376.000   37.733498084 -122.139414363     2.1617   2  10   0.0524   0.0418   0.0846  -0.0259  -0.0345  -0.0198   6.00    0.0
2278 416377.000   37.733718354 -122.139464672     2.1617   2  13   0.0522   0.0417   0.0843  -0.0262  -0.0342  -0.0193   7.00    0.0
2278 416378.000   37.733938910 -122.139514677     2.0791   2  12   0.0523   0.0418   0.0846  -0.0264  -0.0345  -0.0189   8.00    0.0
2278 416379.000   37.734157584 -122.139564903     2.0564   2  12   0.0523   0.0420   0.0851  -0.0265  -0.0350  -0.0188   9.00    0.0
2278 416380.000   37.734375867 -122.139614564     2.2906   2  15   0.0524   0.0416   0.0842  -0.0264  -0.0341  -0.0194  10.00    0.0
2278 416381.000   37.734594266 -122.139663898     2.5339   2  10   0.0522   0.0414   0.0837  -0.0264  -0.0335  -0.0194  11.00    0.0
2278 416382.000   37.734813264 -122.139713505     2.8527   2  14   0.0524   0.0415   0.0841  -0.0266  -0.0335  -0.0181  12.00    0.0
2278 416383.000   37.735033126 -122.139763825     3.2120   2  14   0.0523   0.0415   0.0839  -0.0265  -0.0335  -0.0185  13.00    0.0
2278 416384.000   37.735254484 -122.139814030     3.6241   2  14   0.0523   0.0415   0.0838  -0.0265  -0.0336  -0.0186  14.00    0.0
2278 416385.000   37.735477272 -122.139865796     4.1427   2  13   0.0523   0.0415   0.0838  -0.0264  -0.0335  -0.0189  15.00    0.0
2278 416386.000   37.735701507 -122.139918410     4.7728   2  11   0.0524   0.0414   0.0838  -0.0265  -0.0335  -0.0188 -14.00    0.0
2278 416387.000   37.735925929 -122.139972289     5.2946   2  14   0.0524   0.0416   0.0842  -0.0266  -0.0339  -0.0184 -13.00    0.0
2278 416388.000   37.736150511 -122.140028112     5.7336   2  13   0.0524   0.0417   0.0846  -0.0265  -0.0342  -0.0184 -12.00    0.0
2278 416389.000   37.736373771 -122.140094274     6.1994   2  13   0.0523   0.0421   0.0854  -0.0265  -0.0353  -0.0185 -11.00    0.0
2278 416390.000   37.736594899 -122.140173118     6.5852   2  11   0.0525   0.0424   0.0862  -0.0269  -0.0361  -0.0175 -10.00    0.0
2278 416391.000   37.736813624 -122.140264502     6.7691   2  12   0.0524   0.0422   0.0857  -0.0267  -0.0354  -0.0183  -9.00    0.0
2278 416392.000   37.737029266 -122.140371727     7.1324   2  13   0.0523   0.0419   0.0852  -0.0267  -0.0347  -0.0185  -8.00    0.0
2278 416393.000   37.737241467 -122.140492700     7.4861   2  12   0.0525   0.0419   0.0854  -0.0269  -0.0348  -0.0174  -7.00    0.0
2278 416394.000   37.737450644 -122.140624523     7.7307   2  12   0.0523   0.0418   0.0852  -0.0267  -0.0345  -0.0185  -6.00    0.0
2278 416395.000   37.737655523 -122.140769596     7.7416   2  14   0.0523   0.0420   0.0857  -0.0264  -0.0346  -0.0194  -5.00    0.0
2278 416396.000   37.737854769 -122.140928025     7.7108   2  10   0.0524   0.0422   0.0859  -0.0261  -0.0357  -0.0202  -4.00    0.0
2278 416397.000   37.738048526 -122.141099823     7.6750   2  11   0.0525   0.0428   0.0863  -0.0259  -0.0352  -0.0197  -3.00    0.0
2278 416398.000   37.738237651 -122.141282868     7.5007   2  10   0.0525   0.0431   0.0881  -0.0257  -0.0371  -0.0204  -2.00    0.0
2278 416399.000   37.738420132 -122.141477832     7.1402   2  10   0.0526   0.0437   0.0887  -0.0257  -0.0380  -0.0205  -1.00    0.0
2278 416400.000   37.738594612 -122.141683332     6.5841   2  10   0.0527   0.0442   0.0894  -0.0263  -0.0384  -0.0195  -0.00    0.0
2278 416401.000   37.738763457 -122.141893821     5.8455   2  11   0.0528   0.0439   0.0920  -0.0264  -0.0382  -0.0194   1.00    0.0
2278 416402.000   37.738930834 -122.142104792     5.1885   2  11   0.0527   0.0434   0.0899  -0.0260  -0.0363  -0.0209   2.00    0.0
2278 416403.000   37.739098302 -122.142315379     4.4185   2  10   0.0525   0.0438   0.0911  -0.0262  -0.0365  -0.0206   3.00    0.0
2278 416404.000   37.739272218 -122.142525449     3.5096   2  13   0.0527   0.0435   0.0912  -0.0264  -0.0361  -0.0197   4.00    0.0
2278 416405.000   37.739454390 -122.142739091     2.4624   2  11   0.0526   0.0432   0.0895  -0.0266  -0.0360  -0.0197   5.00    0.0
2278 416406.000   37.739639031 -122.142953965     1.3725   2  12   0.0525   0.0431   0.0892  -0.0265  -0.0361  -0.0198   6.00    0.0
2278 416407.000   37.739824632 -122.143167867     0.3337   2  13   0.0526   0.0430   0.0894  -0.0262  -0.0361  -0.0194   7.00    0.0
2278 416408.000   37.740012006 -122.143379483    -0.7110   2  13   0.0525   0.0430   0.0891  -0.0263  -0.0361  -0.0198   8.00    0.0
2278 416409.000   37.740203741 -122.143584609    -1.5995   2  14   0.0526   0.0430   0.0887  -0.0262  -0.0363  -0.0205   9.00    0.0
2278 416410.000   37.740402424 -122.143777056    -2.2102   2  12   0.0524   0.0427   0.0877  -0.0265  -0.0355  -0.0197  10.00    0.0
2278 416411.000   37.740606621 -122.143955720    -2.6047   2   9   0.0524   0.0426   0.0876  -0.0267  -0.0355  -0.0197  11.00    0.0
2278 416412.000   37.740813017 -122.144124094    -2.6544   2  11   0.0524   0.0428   0.0876  -0.0269  -0.0356  -0.0198  12.00    0.0
2278 416413.000   37.741020212 -122.144282300    -2.5168   2   9   0.0527   0.0432   0.0875  -0.0275  -0.0355  -0.0199  13.00    0.0
2278 416414.000   37.741225567 -122.144435032    -2.2483   2   6   0.0529   0.0434   0.0874  -0.0279  -0.0354  -0.0200  14.00    0.0
2278 416415.000   37.741429941 -122.144587303    -1.8990   2   9   0.0528   0.0432   0.0872  -0.0277  -0.0351  -0.0202  15.00    0.0
2278 416416.000   37.741634292 -122.144739706    -1.3963   2   9   0.0526   0.0428   0.0872  -0.0272  -0.0349  -0.0203 -14.00    0.0
2278 416417.000   37.741838216 -122.144891933    -1.0209   2  11   0.0524   0.0427   0.0872  -0.0269  -0.0350  -0.0203 -13.00    0.0
2278 416418.000   37.742043779 -122.145047224    -0.7052   2  10   0.0525   0.0428   0.0876  -0.0269  -0.0351  -0.0204 -12.00    0.0
2278 416419.000   37.742251066 -122.145208192    -0.3880   2  12   0.0529   0.0434   0.0912  -0.0271  -0.0373  -0.0175 -11.00    0.0
2278 416420.000   37.742457841 -122.145382944     0.1558   2   9   0.0527   0.0444   0.0923  -0.0262  -0.0397  -0.0215 -10.00    0.0
2278 416421.000   37.742656373 -122.145563341     0.3745   2  11   0.0529   0.0447   0.0985  -0.0258  -0.0390  -0.0234  -9.00    0.0
2278 416422.000   37.742847970 -122.145750883     0.4692   2   6   0.0528   0.0434   0.0940  -0.0264  -0.0370  -0.0223  -8.00    0.0
2278 416423.000   37.743032720 -122.145949915     0.5834   2   8   0.0529   0.0446   0.0948  -0.0270  -0.0368  -0.0215  -7.00    0.0
2278 416424.000   37.743211090 -122.146161466     0.7865   2   9   0.0527   0.0440   0.0913  -0.0267  -0.0386  -0.0191  -6.00    0.0
2278 416425.000   37.743383144 -122.146384095     1.1134   2   8   0.0529   0.0442   0.0907  -0.0273  -0.0387  -0.0178  -5.00    0.0
2278 416426.000   37.743550224 -122.146614607     1.5428   2   9   0.0527   0.0468   0.0911  -0.0265  -0.0405  -0.0207  -4.00    0.0
2278 416427.000   37.743713109 -122.146845864     2.0635   2   9   0.0525   0.0452   0.0901  -0.0264  -0.0388  -0.0202  -3.00    0.0
2278 416428.000   37.743874132 -122.147071532     2.8072   2   9   0.0527   0.0458   0.0913  -0.0273  -0.0405  -0.0173  -2.00    0.0
2278 416429.000   37.744031658 -122.147291238     3.4696   2   4   0.0524   0.0436   0.0872  -0.0256  -0.0351  -0.0214  -1.00    0.0
2278 416430.000   37.744185718 -122.147504743     4.0090   2   9   0.0543   0.0442   0.0948  -0.0280  -0.0378   0.0075  -0.00    0.0
2278 416431.000   37.744338989 -122.147712810     4.7143   2  10   0.0530   0.0433   0.0901  -0.0264  -0.0350  -0.0159   1.00    0.0
2278 416432.000   37.744493980 -122.147912986     5.5639   2  12   0.0529   0.0432   0.0895  -0.0262  -0.0350  -0.0168   2.00    0.0
2278 416433.000   37.744653582 -122.148102525     6.4447   2  12   0.0529   0.0433   0.0896  -0.0263  -0.0353  -0.0167   3.00    0.0
2278 416434.000   37.744817485 -122.148283111     7.2038   2  14   0.0529   0.0435   0.0896  -0.0264  -0.0354  -0.0169   4.00    0.0
2278 416435.000   37.744988427 -122.148455379     7.8533   2  14   0.0530   0.0436   0.0897  -0.0261  -0.0357  -0.0177   5.00    0.0
2278 416436.000   37.745167554 -122.148620675     8.4648   2  14   0.0529   0.0434   0.0894  -0.0262  -0.0355  -0.0170   6.00    0.0
2278 416437.000   37.745355635 -122.148778709     9.0705   2  13   0.0529   0.0432   0.0891  -0.0264  -0.0351  -0.0168   7.00    0.0
2278 416438.000   37.745550560 -122.148928782     9.5600   2  10   0.0529   0.0431   0.0889  -0.0264  -0.0349  -0.0169   8.00    0.0
2278 416439.000   37.745747838 -122.149065323     9.9236   2  12   0.0530   0.0431   0.0889  -0.0264  -0.0349  -0.0172   9.00    0.0
2278 416440.000   37.745946147 -122.149189017    10.1940   2   9   0.0529   0.0431   0.0889  -0.0264  -0.0348  -0.0173  10.00    0.0
2278 416441.000   37.746147561 -122.149302991    10.4932   2   9   0.0529   0.0431   0.0890  -0.0263  -0.0349  -0.0175  11.00    0.0
2278 416442.000   37.746352791 -122.149410046    10.9500   2  11   0.0529   0.0431   0.0891  -0.0261  -0.0351  -0.0176  12.00    0.0
2278 416443.000   37.746560713 -122.149511379    11.2462   2  12   0.0530   0.0432   0.0893  -0.0261  -0.0353  -0.0175  13.00    0.0
2278 416444.000   37.746771473 -122.149613149    11.3939   2  12   0.0530   0.0432   0.0893  -0.0261  -0.0353  -0.0172  14.00    0.0
2278 416445.000   37.746983407 -122.149716849    11.4830   2  12   0.0531   0.0432   0.0897  -0.0262  -0.0356  -0.0165  15.00    0.0
2278 416446.000   37.747198228 -122.149822304    11.8368   2  11   0.0533   0.0433   0.0898  -0.0264  -0.0358  -0.0160 -14.00    0.0
2278 416447.000   37.747413489 -122.149927081    11.9927   2  10   0.0532   0.0434   0.0897  -0.0264  -0.0358  -0.0164 -13.00    0.0
2278 416448.000   37.747627081 -122.150031125    12.2371   2  10   0.0540   0.0445   0.0919  -0.0276  -0.0385  -0.0117 -12.00    0.0
2278 416449.000   37.747840319 -122.150135343    12.5796   2  11   0.0541   0.0445   0.0919  -0.0278  -0.0384  -0.0108 -11.00    0.0
2278 416450.000   37.748054593 -122.150240091    13.0017   2  12   0.0536   0.0438   0.0904  -0.0268  -0.0367  -0.0151 -10.00    0.0
2278 416451.000   37.748270130 -122.150345208    13.4765   2  11   0.0537   0.0437   0.0901  -0.0266  -0.0363  -0.0162  -9.00    0.0
2278 416452.000   37.748487111 -122.150450650    14.0922   2  10   0.0537   0.0435   0.0897  -0.0264  -0.0359  -0.0168  -8.00    0.0
2278 416453.000   37.748703711 -122.150556161    14.7286   2   8   0.0535   0.0435   0.0897  -0.0263  -0.0359  -0.0173  -7.00    0.0
2278 416454.000   37.748916243 -122.150659890    15.4911   2   9   0.0545   0.0444   0.0914  -0.0272  -0.0379  -0.0145  -6.00    0.0
2278 416455.000   37.749123931 -122.150760735    16.1570   2   8   0.0544   0.0463   0.0948  -0.0262  -0.0420  -0.0175  -5.00    0.0
2278 416456.000   37.749329103 -122.150861482    16.7940   2  10   0.0547   0.0465   0.0953  -0.0257  -0.0425  -0.0194  -4.00    0.0
2278 416457.000   37.749533809 -122.150962167    17.4729   2  10   0.0551   0.0481   0.0986  -0.0287  -0.0461  -0.0072  -3.00    0.0
2278 416458.000   37.749738594 -122.151062651    18.1129   2   9   0.0553   0.0487   0.0997  -0.0299  -0.0473   0.0088  -2.00    0.0
2278 416459.000   37.749942055 -122.151162864    18.7453   2  10   0.0552   0.0480   0.0984  -0.0296  -0.0459   0.0066  -1.00    0.0
2278 416460.000   37.750142722 -122.151258534    19.0918   2  13   0.0550   0.0472   0.0967  -0.0288  -0.0441  -0.0063  -0.00    0.0
2278 416461.000   37.750340805 -122.151349052    19.4618   2  11   0.0546   0.0465   0.0954  -0.0284  -0.0426  -0.0096   1.00    0.0
2278 416462.000   37.750536564 -122.151430617    19.7763   2  10   0.0546   0.0465   0.1001  -0.0283  -0.0435  -0.0132   2.00    0.0
2278 416463.000   37.750731850 -122.151492596    20.3027   2  10   0.0546   0.0464   0.0976  -0.0282  -0.0422  -0.0098   3.00    0.0
2278 416464.000   37.750925935 -122.151534323    20.7637   2   9   0.0546   0.0468   0.0993  -0.0283  -0.0436  -0.0054   4.00    0.0
2278 416465.000   37.751117706 -122.151560262    21.0957   2  11   0.0545   0.0469   0.0985  -0.0285  -0.0434  -0.0080   5.00    0.0
2278 416466.000   37.751305846 -122.151576319    21.4177   2   9   0.0546   0.0470   0.0984  -0.0288  -0.0434  -0.0060   6.00    0.0
