$GPGGA,193326.00,3741.5322520,N,12205.3040420,W,1,0,0.0,21.0771,M,0.0000,M,0.0000,0000*5b
$GPRMC,193326.00,A,3741.5322520,N,12205.3040420,W,0.0000,288.2671,070923,,,,A*66
$GPGGA,193327.00,3741.5322520,N,12205.3040420,W,1,0,0.0,21.0771,M,0.0000,M,0.0000,0000*5a
$GPRMC,193327.00,A,3741.5322520,N,12205.3040420,W,0.0019,288.2668,070923,,,,A*67
$GPGGA,193328.00,3741.5322520,N,12205.3040420,W,1,0,0.0,21.0771,M,0.0000,M,0.0000,0000*55
$GPRMC,193328.00,A,3741.5322520,N,12205.3040420,W,0.0000,288.2670,070923,,,,A*69
$GPGGA,193329.00,3741.5322520,N,12205.3040420,W,1,0,0.0,21.0771,M,0.0000,M,0.0000,0000*54
$GPRMC,193329.00,A,3741.5322520,N,12205.3040420,W,0.0000,288.2674,070923,,,,A*6c
$GPGGA,193330.00,3741.5322520,N,12205.3040420,W,1,0,0.0,21.0771,M,0.0000,M,0.0000,0000*5c
$GPRMC,193330.00,A,3741.5322520,N,12205.3040420,W,0.0020,288.2677,070923,,,,A*65
$GPGGA,193331.00,3741.5322520,N,12205.3040420,W,1,0,0.0,21.0771,M,0.0000,M,0.0000,0000*5d
$GPRMC,193331.00,A,3741.5322520,N,12205.3040420,W,0.0061,288.2679,070923,,,,A*6f
$GPGGA,193332.00,3741.5322520,N,12205.3040420,W,1,0,0.0,21.0771,M,0.0000,M,0.0000,0000*5e
$GPRMC,193332.00,A,3741.5322520,N,12205.3040420,W,0.0039,288.2678,070923,,,,A*60
$GPGGA,193333.00,3741.5322520,N,12205.3040420,W,1,0,0.0,21.0771,M,0.0000,M,0.0000,0000*5f
$GPRMC,193333.00,A,3741.5322520,N,12205.3040420,W,0.0027,288.2671,070923,,,,A*67
$GPGGA,193334.00,3741.5322520,N,12205.3040480,W,1,0,0.0,21.0771,M,0.0000,M,0.0000,0000*52
$GPRMC,193334.00,A,3741.5322520,N,12205.3040480,W,0.0070,288.2686,070923,,,,A*60
$GPGGA,193335.00,3741.5322520,N,12205.3040480,W,1,0,0.0,21.0781,M,0.0000,M,0.0000,0000*5c
$GPRMC,193335.00,A,3741.5322520,N,12205.3040480,W,0.0019,288.2652,070923,,,,A*67
$GPGGA,193336.00,3741.5322520,N,12205.3040480,W,1,0,0.0,21.0781,M,0.0000,M,0.0000,0000*5f
$GPRMC,193336.00,A,3741.5322520,N,12205.3040480,W,0.0019,288.2654,070923,,,,A*62
$GPGGA,193337.00,3741.5322520,N,12205.3040420,W,1,0,0.0,21.0791,M,0.0000,M,0.0000,0000*55
$GPRMC,193337.00,A,3741.5322520,N,12205.3040420,W,0.0868,288.2675,070923,,,,A*64
$GPGGA,193338.00,3741.5322280,N,12205.3039520,W,1,0,0.0,21.0851,M,0.0000,M,0.0000,0000*5b
$GPRMC,193338.00,A,3741.5322280,N,12205.3039520,W,0.4846,288.3129,070923,,,,A*6e
$GPGGA,193339.00,3741.5321680,N,12205.3036880,W,1,0,0.0,21.1001,M,0.0000,M,0.0000,0000*59
$GPRMC,193339.00,A,3741.5321680,N,12205.3036880,W,1.0938,289.0275,070923,,,,A*65
$GPGGA,193340.00,3741.5321560,N,12205.3031900,W,1,0,0.0,21.1211,M,0.0000,M,0.0000,0000*57
$GPRMC,193340.00,A,3741.5321560,N,12205.3031900,W,1.5958,295.2487,070923,,,,A*6f
$GPGGA,193341.00,3741.5321140,N,12205.3025120,W,1,0,0.0,21.1461,M,0.0000,M,0.0000,0000*5e
$GPRMC,193341.00,A,3741.5321140,N,12205.3025120,W,1.9620,307.3319,070923,,,,A*60
$GPGGA,193342.00,3741.5320000,N,12205.3020440,W,1,0,0.0,21.1551,M,0.0000,M,0.0000,0000*5d
$GPRMC,193342.00,A,3741.5320000,N,12205.3020440,W,0.2578,315.5367,070923,,,,A*69
$GPGGA,193343.00,3741.5320060,N,12205.3020380,W,1,0,0.0,21.1571,M,0.0000,M,0.0000,0000*53
$GPRMC,193343.00,A,3741.5320060,N,12205.3020380,W,0.0191,315.7686,070923,,,,A*6c
$GPGGA,193344.00,3741.5320480,N,12205.3020920,W,1,0,0.0,21.1470,M,0.0000,M,0.0000,0000*5e
$GPRMC,193344.00,A,3741.5320480,N,12205.3020920,W,0.9204,315.9359,070923,,,,A*6e
$GPGGA,193345.00,3741.5324800,N,12205.3025300,W,1,0,0.0,21.1190,M,0.0000,M,0.0000,0000*59
$GPRMC,193345.00,A,3741.5324800,N,12205.3025300,W,3.2258,318.1948,070923,,,,A*6c
$GPGGA,193346.00,3741.5335600,N,12205.3034300,W,1,0,0.0,21.0530,M,0.0000,M,0.0000,0000*5b
$GPRMC,193346.00,A,3741.5335600,N,12205.3034300,W,5.9594,324.3108,070923,,,,A*6a
$GPGGA,193347.00,3741.5353780,N,12205.3045340,W,1,0,0.0,20.9480,M,0.0000,M,0.0000,0000*53
$GPRMC,193347.00,A,3741.5353780,N,12205.3045340,W,8.3238,333.7327,070923,,,,A*6b
$GPGGA,193348.00,3741.5379220,N,12205.3054280,W,1,0,0.0,20.8800,M,0.0000,M,0.0000,0000*53
$GPRMC,193348.00,A,3741.5379220,N,12205.3054280,W,10.1362,345.4406,070923,,,,A*5d
$GPGGA,193349.00,3741.5407480,N,12205.3059740,W,1,0,0.0,20.8020,M,0.0000,M,0.0000,0000*5e
$GPRMC,193349.00,A,3741.5407480,N,12205.3059740,W,10.6701,351.1073,070923,,,,A*5a
$GPGGA,193350.00,3741.5439340,N,12205.3066760,W,1,0,0.0,20.6650,M,0.0000,M,0.0000,0000*51
$GPRMC,193350.00,A,3741.5439340,N,12205.3066760,W,12.6413,348.8172,070923,,,,A*59
$GPGGA,193351.00,3741.5475280,N,12205.3081520,W,1,0,0.0,20.4950,M,0.0000,M,0.0000,0000*57
$GPRMC,193351.00,A,3741.5475280,N,12205.3081520,W,14.5151,339.7467,070923,,,,A*5c
$GPGGA,193352.00,3741.5512600,N,12205.3103000,W,1,0,0.0,20.3070,M,0.0000,M,0.0000,0000*58
$GPRMC,193352.00,A,3741.5512600,N,12205.3103000,W,14.9689,334.2516,070923,,,,A*5e
$GPGGA,193353.00,3741.5549740,N,12205.3127780,W,1,0,0.0,20.1270,M,0.0000,M,0.0000,0000*5b
$GPRMC,193353.00,A,3741.5549740,N,12205.3127780,W,15.2289,331.5125,070923,,,,A*55
$GPGGA,193354.00,3741.5586640,N,12205.3154000,W,1,0,0.0,19.9210,M,0.0000,M,0.0000,0000*51
$GPRMC,193354.00,A,3741.5586640,N,12205.3154000,W,15.2709,330.0970,070923,,,,A*5a
$GPGGA,193355.00,3741.5623360,N,12205.3181000,W,1,0,0.0,19.7560,M,0.0000,M,0.0000,0000*5d
$GPRMC,193355.00,A,3741.5623360,N,12205.3181000,W,15.3088,329.4149,070923,,,,A*59
$GPGGA,193356.00,3741.5659780,N,12205.3208300,W,1,0,0.0,19.6120,M,0.0000,M,0.0000,0000*59
$GPRMC,193356.00,A,3741.5659780,N,12205.3208300,W,14.8988,328.9391,070923,,,,A*54
$GPGGA,193357.00,3741.5693140,N,12205.3233320,W,1,0,0.0,19.4640,M,0.0000,M,0.0000,0000*5d
$GPRMC,193357.00,A,3741.5693140,N,12205.3233320,W,12.9639,329.4577,070923,,,,A*53
$GPGGA,193358.00,3741.5722660,N,12205.3253060,W,1,0,0.0,19.3400,M,0.0000,M,0.0000,0000*5c
$GPRMC,193358.00,A,3741.5722660,N,12205.3253060,W,11.1741,333.0308,070923,,,,A*57
$GPGGA,193359.00,3741.5750260,N,12205.3264640,W,1,0,0.0,19.2440,M,0.0000,M,0.0000,0000*59
$GPRMC,193359.00,A,3741.5750260,N,12205.3264640,W,9.7993,344.6609,070923,,,,A*6b
$GPGGA,193400.00,3741.5777080,N,12205.3265840,W,1,0,0.0,19.1610,M,0.0000,M,0.0000,0000*50
$GPRMC,193400.00,A,3741.5777080,N,12205.3265840,W,9.3600,358.4944,070923,,,,A*6e
$GPGGA,193401.00,3741.5801140,N,12205.3266380,W,1,0,0.0,19.0890,M,0.0000,M,0.0000,0000*51
$GPRMC,193401.00,A,3741.5801140,N,12205.3266380,W,7.7204,358.0910,070923,,,,A*67
$GPGGA,193402.00,3741.5819200,N,12205.3268900,W,1,0,0.0,19.0470,M,0.0000,M,0.0000,0000*52
$GPRMC,193402.00,A,3741.5819200,N,12205.3268900,W,5.2952,354.0539,070923,,,,A*62
$GPGGA,193403.00,3741.5830660,N,12205.3271840,W,1,0,0.0,19.0190,M,0.0000,M,0.0000,0000*5c
$GPRMC,193403.00,A,3741.5830660,N,12205.3271840,W,3.3177,350.3746,070923,,,,A*62
$GPGGA,193404.00,3741.5837500,N,12205.3273940,W,1,0,0.0,19.0131,M,0.0000,M,0.0000,0000*51
$GPRMC,193404.00,A,3741.5837500,N,12205.3273940,W,1.6561,348.3072,070923,,,,A*69
$GPGGA,193405.00,3741.5839660,N,12205.3274720,W,1,0,0.0,18.9990,M,0.0000,M,0.0000,0000*5f
$GPRMC,193405.00,A,3741.5839660,N,12205.3274720,W,0.4954,347.5523,070923,,,,A*6d
$GPGGA,193406.00,3741.5840500,N,12205.3275020,W,1,0,0.0,18.9930,M,0.0000,M,0.0000,0000*5b
$GPRMC,193406.00,A,3741.5840500,N,12205.3275020,W,0.0400,347.2705,070923,,,,A*6a
$GPGGA,193407.00,3741.5840620,N,12205.3275080,W,1,0,0.0,18.9900,M,0.0000,M,0.0000,0000*52
$GPRMC,193407.00,A,3741.5840620,N,12205.3275080,W,0.0534,347.2265,070923,,,,A*65
$GPGGA,193408.00,3741.5841820,N,12205.3275500,W,1,0,0.0,18.9730,M,0.0000,M,0.0000,0000*52
$GPRMC,193408.00,A,3741.5841820,N,12205.3275500,W,1.1975,346.8250,070923,,,,A*6c
$GPGGA,193409.00,3741.5847040,N,12205.3277540,W,1,0,0.0,18.9140,M,0.0000,M,0.0000,0000*5c
$GPRMC,193409.00,A,3741.5847040,N,12205.3277540,W,2.6659,345.3537,070923,,,,A*68
$GPGGA,193410.00,3741.5855800,N,12205.3281200,W,1,0,0.0,18.7700,M,0.0000,M,0.0000,0000*5d
$GPRMC,193410.00,A,3741.5855800,N,12205.3281200,W,3.4631,342.5911,070923,,,,A*61
$GPGGA,193411.00,3741.5864260,N,12205.3285880,W,1,0,0.0,18.6289,M,0.0000,M,0.0000,0000*51
$GPRMC,193411.00,A,3741.5864260,N,12205.3285880,W,3.2785,339.1133,070923,,,,A*60
$GPGGA,193412.00,3741.5872240,N,12205.3290860,W,1,0,0.0,18.5841,M,0.0000,M,0.0000,0000*50
$GPRMC,193412.00,A,3741.5872240,N,12205.3290860,W,2.9961,335.5013,070923,,,,A*69
$GPGGA,193413.00,3741.5879560,N,12205.3297640,W,1,0,0.0,18.6881,M,0.0000,M,0.0000,0000*5b
$GPRMC,193413.00,A,3741.5879560,N,12205.3297640,W,3.5526,327.9789,070923,,,,A*64
$GPGGA,193414.00,3741.5885440,N,12205.3307420,W,1,0,0.0,18.7881,M,0.0000,M,0.0000,0000*51
$GPRMC,193414.00,A,3741.5885440,N,12205.3307420,W,3.3357,314.9364,070923,,,,A*6e
$GPGGA,193415.00,3741.5888260,N,12205.3317560,W,1,0,0.0,18.8821,M,0.0000,M,0.0000,0000*58
$GPRMC,193415.00,A,3741.5888260,N,12205.3317560,W,2.4617,300.9665,070923,,,,A*64
$GPGGA,193416.00,3741.5889520,N,12205.3325720,W,1,0,0.0,18.9241,M,0.0000,M,0.0000,0000*53
$GPRMC,193416.00,A,3741.5889520,N,12205.3325720,W,2.6940,291.5219,070923,,,,A*67
$GPGGA,193417.00,3741.5890900,N,12205.3340360,W,1,0,0.0,18.9481,M,0.0000,M,0.0000,0000*5d
$GPRMC,193417.00,A,3741.5890900,N,12205.3340360,W,5.8416,281.7004,070923,,,,A*69
$GPGGA,193418.00,3741.5893420,N,12205.3365080,W,1,0,0.0,18.9941,M,0.0000,M,0.0000,0000*55
$GPRMC,193418.00,A,3741.5893420,N,12205.3365080,W,8.1887,277.7875,070923,,,,A*67
$GPGGA,193419.00,3741.5894320,N,12205.3394900,W,1,0,0.0,19.0521,M,0.0000,M,0.0000,0000*59
$GPRMC,193419.00,A,3741.5894320,N,12205.3394900,W,8.6027,271.4110,070923,,,,A*63
$GPGGA,193420.00,3741.5892280,N,12205.3424180,W,1,0,0.0,19.0821,M,0.0000,M,0.0000,0000*5f
$GPRMC,193420.00,A,3741.5892280,N,12205.3424180,W,8.4481,264.4368,070923,,,,A*6b
$GPGGA,193421.00,3741.5887420,N,12205.3453640,W,1,0,0.0,19.1211,M,0.0000,M,0.0000,0000*55
$GPRMC,193421.00,A,3741.5887420,N,12205.3453640,W,8.5998,257.6843,070923,,,,A*6d
$GPGGA,193422.00,3741.5880040,N,12205.3481420,W,1,0,0.0,19.1681,M,0.0000,M,0.0000,0000*55
$GPRMC,193422.00,A,3741.5880040,N,12205.3481420,W,8.1001,251.2101,070923,,,,A*60
$GPGGA,193423.00,3741.5872060,N,12205.3504160,W,1,0,0.0,19.2151,M,0.0000,M,0.0000,0000*5f
$GPRMC,193423.00,A,3741.5872060,N,12205.3504160,W,5.9599,246.5277,070923,,,,A*61
$GPGGA,193424.00,3741.5866180,N,12205.3519580,W,1,0,0.0,19.2471,M,0.0000,M,0.0000,0000*53
$GPRMC,193424.00,A,3741.5866180,N,12205.3519580,W,3.9783,244.7157,070923,,,,A*64
$GPGGA,193425.00,3741.5862040,N,12205.3529540,W,1,0,0.0,19.2711,M,0.0000,M,0.0000,0000*51
$GPRMC,193425.00,A,3741.5862040,N,12205.3529540,W,2.5713,243.2805,070923,,,,A*6b
$GPGGA,193426.00,3741.5859100,N,12205.3536440,W,1,0,0.0,19.2911,M,0.0000,M,0.0000,0000*5e
$GPRMC,193426.00,A,3741.5859100,N,12205.3536440,W,1.8138,242.6960,070923,,,,A*6c
$GPGGA,193427.00,3741.5857480,N,12205.3540400,W,1,0,0.0,19.3011,M,0.0000,M,0.0000,0000*51
$GPRMC,193427.00,A,3741.5857480,N,12205.3540400,W,0.7107,242.6181,070923,,,,A*6e
$GPGGA,193428.00,3741.5856820,N,12205.3542080,W,1,0,0.0,19.3031,M,0.0000,M,0.0000,0000*55
$GPRMC,193428.00,A,3741.5856820,N,12205.3542080,W,0.4336,242.6422,070923,,,,A*67
$GPGGA,193429.00,3741.5856520,N,12205.3542800,W,1,0,0.0,19.3031,M,0.0000,M,0.0000,0000*59
$GPRMC,193429.00,A,3741.5856520,N,12205.3542800,W,0.1112,242.6484,070923,,,,A*66
$GPGGA,193430.00,3741.5856520,N,12205.3542860,W,1,0,0.0,19.3020,M,0.0000,M,0.0000,0000*57
$GPRMC,193430.00,A,3741.5856520,N,12205.3542860,W,0.0043,242.6506,070923,,,,A*67
$GPGGA,193431.00,3741.5856520,N,12205.3542860,W,1,0,0.0,19.3011,M,0.0000,M,0.0000,0000*54
$GPRMC,193431.00,A,3741.5856520,N,12205.3542860,W,0.0020,242.6503,070923,,,,A*66
$GPGGA,193432.00,3741.5856520,N,12205.3542860,W,1,0,0.0,19.3010,M,0.0000,M,0.0000,0000*56
$GPRMC,193432.00,A,3741.5856520,N,12205.3542860,W,0.0019,242.6487,070923,,,,A*62
$GPGGA,193433.00,3741.5856520,N,12205.3542860,W,1,0,0.0,19.3011,M,0.0000,M,0.0000,0000*56
$GPRMC,193433.00,A,3741.5856520,N,12205.3542860,W,0.0000,242.6489,070923,,,,A*65
$GPGGA,193434.00,3741.5856520,N,12205.3542860,W,1,0,0.0,19.3010,M,0.0000,M,0.0000,0000*50
$GPRMC,193434.00,A,3741.5856520,N,12205.3542860,W,0.0027,242.6486,070923,,,,A*68
$GPGGA,193435.00,3741.5856520,N,12205.3542860,W,1,0,0.0,19.3011,M,0.0000,M,0.0000,0000*50
$GPRMC,193435.00,A,3741.5856520,N,12205.3542860,W,0.0000,242.6484,070923,,,,A*6e
$GPGGA,193436.00,3741.5856520,N,12205.3542860,W,1,0,0.0,19.3010,M,0.0000,M,0.0000,0000*52
$GPRMC,193436.00,A,3741.5856520,N,12205.3542860,W,0.0000,242.6485,070923,,,,A*6c
$GPGGA,193437.00,3741.5856520,N,12205.3542860,W,1,0,0.0,19.3011,M,0.0000,M,0.0000,0000*52
$GPRMC,193437.00,A,3741.5856520,N,12205.3542860,W,0.0000,242.6484,070923,,,,A*6c
$GPGGA,193438.00,3741.5856520,N,12205.3542860,W,1,0,0.0,19.3011,M,0.0000,M,0.0000,0000*5d
$GPRMC,193438.00,A,3741.5856520,N,12205.3542860,W,0.0000,242.6482,070923,,,,A*65
$GPGGA,193439.00,3741.5856520,N,12205.3542860,W,1,0,0.0,19.3010,M,0.0000,M,0.0000,0000*5d
$GPRMC,193439.00,A,3741.5856520,N,12205.3542860,W,0.0000,242.6486,070923,,,,A*60
$GPGGA,193440.00,3741.5856520,N,12205.3542860,W,1,0,0.0,19.3011,M,0.0000,M,0.0000,0000*52
$GPRMC,193440.00,A,3741.5856520,N,12205.3542860,W,0.0000,242.6481,070923,,,,A*69
$GPGGA,193441.00,3741.5856520,N,12205.3542860,W,1,0,0.0,19.3011,M,0.0000,M,0.0000,0000*53
$GPRMC,193441.00,A,3741.5856520,N,12205.3542860,W,0.0000,242.6477,070923,,,,A*61
$GPGGA,193442.00,3741.5856520,N,12205.3542860,W,1,0,0.0,19.3011,M,0.0000,M,0.0000,0000*50
$GPRMC,193442.00,A,3741.5856520,N,12205.3542860,W,0.0019,242.6477,070923,,,,A*6a
$GPGGA,193443.00,3741.5856520,N,12205.3542860,W,1,0,0.0,19.3011,M,0.0000,M,0.0000,0000*51
$GPRMC,193443.00,A,3741.5856520,N,12205.3542860,W,0.0027,242.6478,070923,,,,A*69
$GPGGA,193444.00,3741.5856520,N,12205.3542860,W,1,0,0.0,19.3011,M,0.0000,M,0.0000,0000*56
$GPRMC,193444.00,A,3741.5856520,N,12205.3542860,W,0.0019,242.6480,070923,,,,A*64
$GPGGA,193445.00,3741.5856520,N,12205.3542860,W,1,0,0.0,19.3010,M,0.0000,M,0.0000,0000*56
$GPRMC,193445.00,A,3741.5856520,N,12205.3542860,W,0.0019,242.6479,070923,,,,A*63
$GPGGA,193446.00,3741.5856460,N,12205.3542920,W,1,0,0.0,19.2990,M,0.0000,M,0.0000,0000*55
$GPRMC,193446.00,A,3741.5856460,N,12205.3542920,W,0.1535,242.6512,070923,,,,A*66
$GPGGA,193447.00,3741.5855500,N,12205.3545380,W,1,0,0.0,19.3031,M,0.0000,M,0.0000,0000*54
$GPRMC,193447.00,A,3741.5855500,N,12205.3545380,W,1.4341,242.6717,070923,,,,A*62
$GPGGA,193448.00,3741.5852860,N,12205.3551740,W,1,0,0.0,19.3151,M,0.0000,M,0.0000,0000*5d
$GPRMC,193448.00,A,3741.5852860,N,12205.3551740,W,2.9302,242.7361,070923,,,,A*61
$GPGGA,193449.00,3741.5847700,N,12205.3564760,W,1,0,0.0,19.3461,M,0.0000,M,0.0000,0000*53
$GPRMC,193449.00,A,3741.5847700,N,12205.3564760,W,5.2988,242.8624,070923,,,,A*66
$GPGGA,193450.00,3741.5839540,N,12205.3585100,W,1,0,0.0,19.3921,M,0.0000,M,0.0000,0000*52
$GPRMC,193450.00,A,3741.5839540,N,12205.3585100,W,7.7458,243.0396,070923,,,,A*6c
$GPGGA,193451.00,3741.5828800,N,12205.3611920,W,1,0,0.0,19.4721,M,0.0000,M,0.0000,0000*57
$GPRMC,193451.00,A,3741.5828800,N,12205.3611920,W,9.1749,243.2608,070923,,,,A*6b
$GPGGA,193452.00,3741.5816200,N,12205.3644500,W,1,0,0.0,19.5671,M,0.0000,M,0.0000,0000*58
$GPRMC,193452.00,A,3741.5816200,N,12205.3644500,W,11.5156,243.9075,070923,,,,A*53
$GPGGA,193453.00,3741.5801560,N,12205.3684820,W,1,0,0.0,19.7321,M,0.0000,M,0.0000,0000*5f
$GPRMC,193453.00,A,3741.5801560,N,12205.3684820,W,13.7549,245.7417,070923,,,,A*54
$GPGGA,193454.00,3741.5786440,N,12205.3731380,W,1,0,0.0,19.8841,M,0.0000,M,0.0000,0000*57
$GPRMC,193454.00,A,3741.5786440,N,12205.3731380,W,14.5882,247.8897,070923,,,,A*58
$GPGGA,193455.00,3741.5770720,N,12205.3781840,W,1,0,0.0,20.0212,M,0.0000,M,0.0000,0000*58
$GPRMC,193455.00,A,3741.5770720,N,12205.3781840,W,16.4513,248.4370,070923,,,,A*5e
$GPGGA,193456.00,3741.5751820,N,12205.3837940,W,1,0,0.0,20.3021,M,0.0000,M,0.0000,0000*55
$GPRMC,193456.00,A,3741.5751820,N,12205.3837940,W,18.3952,245.7795,070923,,,,A*53
$GPGGA,193457.00,3741.5728060,N,12205.3899440,W,1,0,0.0,20.5872,M,0.0000,M,0.0000,0000*57
$GPRMC,193457.00,A,3741.5728060,N,12205.3899440,W,20.6959,243.3022,070923,,,,A*55
$GPGGA,193458.00,3741.5700880,N,12205.3968980,W,1,0,0.0,20.8792,M,0.0000,M,0.0000,0000*56
$GPRMC,193458.00,A,3741.5700880,N,12205.3968980,W,23.6600,244.2005,070923,,,,A*5b
$GPGGA,193459.00,3741.5671120,N,12205.4048660,W,1,0,0.0,21.3503,M,0.0000,M,0.0000,0000*5e
$GPRMC,193459.00,A,3741.5671120,N,12205.4048660,W,26.5955,244.8491,070923,,,,A*59
$GPGGA,193500.00,3741.5636560,N,12205.4136260,W,1,0,0.0,21.9953,M,0.0000,M,0.0000,0000*5f
$GPRMC,193500.00,A,3741.5636560,N,12205.4136260,W,29.2619,242.4631,070923,,,,A*56
$GPGGA,193501.00,3741.5595880,N,12205.4229800,W,1,0,0.0,22.6213,M,0.0000,M,0.0000,0000*55
$GPRMC,193501.00,A,3741.5595880,N,12205.4229800,W,31.5865,240.5435,070923,,,,A*51
$GPGGA,193502.00,3741.5550760,N,12205.4327780,W,1,0,0.0,23.2323,M,0.0000,M,0.0000,0000*51
$GPRMC,193502.00,A,3741.5550760,N,12205.4327780,W,32.9409,239.4241,070923,,,,A*51
$GPGGA,193503.00,3741.5502820,N,12205.4427320,W,1,0,0.0,23.7583,M,0.0000,M,0.0000,0000*5c
$GPRMC,193503.00,A,3741.5502820,N,12205.4427320,W,33.2012,238.1673,070923,,,,A*50
$GPGGA,193504.00,3741.5454220,N,12205.4524040,W,1,0,0.0,24.2843,M,0.0000,M,0.0000,0000*57
$GPRMC,193504.00,A,3741.5454220,N,12205.4524040,W,32.1626,237.1323,070923,,,,A*54
$GPGGA,193505.00,3741.5405020,N,12205.4615960,W,1,0,0.0,24.8473,M,0.0000,M,0.0000,0000*5f
$GPRMC,193505.00,A,3741.5405020,N,12205.4615960,W,31.4987,235.2442,070923,,,,A*5a
$GPGGA,193506.00,3741.5354680,N,12205.4707520,W,1,0,0.0,25.3763,M,0.0000,M,0.0000,0000*51
$GPRMC,193506.00,A,3741.5354680,N,12205.4707520,W,32.1607,235.2948,070923,,,,A*5a
$GPGGA,193507.00,3741.5302540,N,12205.4800640,W,1,0,0.0,25.7902,M,0.0000,M,0.0000,0000*5c
$GPRMC,193507.00,A,3741.5302540,N,12205.4800640,W,33.0663,234.3481,070923,,,,A*50
$GPGGA,193508.00,3741.5248180,N,12205.4896400,W,1,0,0.0,25.9942,M,0.0000,M,0.0000,0000*57
$GPRMC,193508.00,A,3741.5248180,N,12205.4896400,W,34.1670,234.3233,070923,,,,A*5a
$GPGGA,193509.00,3741.5191540,N,12205.4994440,W,1,0,0.0,26.1831,M,0.0000,M,0.0000,0000*50
$GPRMC,193509.00,A,3741.5191540,N,12205.4994440,W,35.0411,233.6521,070923,,,,A*50
$GPGGA,193510.00,3741.5133100,N,12205.5094220,W,1,0,0.0,26.3141,M,0.0000,M,0.0000,0000*54
$GPRMC,193510.00,A,3741.5133100,N,12205.5094220,W,35.8058,233.3666,070923,,,,A*5c
$GPGGA,193511.00,3741.5072980,N,12205.5195860,W,1,0,0.0,26.4171,M,0.0000,M,0.0000,0000*5b
$GPRMC,193511.00,A,3741.5072980,N,12205.5195860,W,36.5827,233.2902,070923,,,,A*55
$GPGGA,193512.00,3741.5011900,N,12205.5300260,W,1,0,0.0,26.2930,M,0.0000,M,0.0000,0000*5a
$GPRMC,193512.00,A,3741.5011900,N,12205.5300260,W,37.5396,233.8362,070923,,,,A*59
$GPGGA,193513.00,3741.4950760,N,12205.5408020,W,1,0,0.0,25.9599,M,0.0000,M,0.0000,0000*50
$GPRMC,193513.00,A,3741.4950760,N,12205.5408020,W,37.8911,234.8282,070923,,,,A*54
$GPGGA,193514.00,3741.4890520,N,12205.5516680,W,1,0,0.0,25.3837,M,0.0000,M,0.0000,0000*5d
$GPRMC,193514.00,A,3741.4890520,N,12205.5516680,W,37.8468,235.2593,070923,,,,A*55
$GPGGA,193515.00,3741.4831240,N,12205.5626720,W,1,0,0.0,24.5125,M,0.0000,M,0.0000,0000*50
$GPRMC,193515.00,A,3741.4831240,N,12205.5626720,W,38.3276,236.3893,070923,,,,A*57
$GPGGA,193516.00,3741.4771900,N,12205.5741020,W,1,0,0.0,23.7238,M,0.0000,M,0.0000,0000*5a
$GPRMC,193516.00,A,3741.4771900,N,12205.5741020,W,39.6918,237.4026,070923,,,,A*50
$GPGGA,193517.00,3741.4713460,N,12205.5861080,W,1,0,0.0,23.2840,M,0.0000,M,0.0000,0000*53
$GPRMC,193517.00,A,3741.4713460,N,12205.5861080,W,40.6950,239.4045,070923,,,,A*50
$GPGGA,193518.00,3741.4659340,N,12205.5986780,W,1,0,0.0,23.3692,M,0.0000,M,0.0000,0000*59
$GPRMC,193518.00,A,3741.4659340,N,12205.5986780,W,40.6409,243.8350,070923,,,,A*5d
$GPGGA,193519.00,3741.4614940,N,12205.6116080,W,1,0,0.0,23.6163,M,0.0000,M,0.0000,0000*52
$GPRMC,193519.00,A,3741.4614940,N,12205.6116080,W,39.9321,248.4886,070923,,,,A*51
$GPGGA,193520.00,3741.4578700,N,12205.6248320,W,1,0,0.0,23.7530,M,0.0000,M,0.0000,0000*59
$GPRMC,193520.00,A,3741.4578700,N,12205.6248320,W,40.0495,252.6172,070923,,,,A*5d
$GPGGA,193521.00,3741.4549540,N,12205.6384220,W,1,0,0.0,23.7930,M,0.0000,M,0.0000,0000*50
$GPRMC,193521.00,A,3741.4549540,N,12205.6384220,W,40.3954,256.5934,070923,,,,A*56
$GPGGA,193522.00,3741.4527580,N,12205.6524080,W,1,0,0.0,23.7130,M,0.0000,M,0.0000,0000*5b
$GPRMC,193522.00,A,3741.4527580,N,12205.6524080,W,41.1287,260.3355,070923,,,,A*5d
$GPGGA,193523.00,3741.4511560,N,12205.6668200,W,1,0,0.0,23.4779,M,0.0000,M,0.0000,0000*58
$GPRMC,193523.00,A,3741.4511560,N,12205.6668200,W,42.0589,262.8355,070923,,,,A*54
$GPGGA,193524.00,3741.4498480,N,12205.6816220,W,1,0,0.0,23.0458,M,0.0000,M,0.0000,0000*51
$GPRMC,193524.00,A,3741.4498480,N,12205.6816220,W,43.0867,263.8462,070923,,,,A*57
$GPGGA,193525.00,3741.4486540,N,12205.6968200,W,1,0,0.0,22.5368,M,0.0000,M,0.0000,0000*58
$GPRMC,193525.00,A,3741.4486540,N,12205.6968200,W,44.1744,264.5494,070923,,,,A*55
$GPGGA,193526.00,3741.4475920,N,12205.7123960,W,1,0,0.0,21.9858,M,0.0000,M,0.0000,0000*51
$GPRMC,193526.00,A,3741.4475920,N,12205.7123960,W,45.1576,265.3616,070923,,,,A*56
$GPGGA,193527.00,3741.4466980,N,12205.7282060,W,1,0,0.0,21.3847,M,0.0000,M,0.0000,0000*5d
$GPRMC,193527.00,A,3741.4466980,N,12205.7282060,W,45.3671,266.1703,070923,,,,A*5c
$GPGGA,193528.00,3741.4459660,N,12205.7442260,W,1,0,0.0,20.7458,M,0.0000,M,0.0000,0000*50
$GPRMC,193528.00,A,3741.4459660,N,12205.7442260,W,46.5421,266.7895,070923,,,,A*52
$GPGGA,193529.00,3741.4453540,N,12205.7608040,W,1,0,0.0,20.1408,M,0.0000,M,0.0000,0000*55
$GPRMC,193529.00,A,3741.4453540,N,12205.7608040,W,48.2292,267.5270,070923,,,,A*51
$GPGGA,193530.00,3741.4449580,N,12205.7778260,W,1,0,0.0,19.8069,M,0.0000,M,0.0000,0000*5c
$GPRMC,193530.00,A,3741.4449580,N,12205.7778260,W,48.7638,269.0176,070923,,,,A*57
$GPGGA,193531.00,3741.4451080,N,12205.7948360,W,1,0,0.0,19.5990,M,0.0000,M,0.0000,0000*5f
$GPRMC,193531.00,A,3741.4451080,N,12205.7948360,W,48.3606,271.9089,070923,,,,A*5e
$GPGGA,193532.00,3741.4459180,N,12205.8116240,W,1,0,0.0,19.4580,M,0.0000,M,0.0000,0000*56
$GPRMC,193532.00,A,3741.4459180,N,12205.8116240,W,47.7456,274.8467,070923,,,,A*57
$GPGGA,193533.00,3741.4474540,N,12205.8281120,W,1,0,0.0,19.3870,M,0.0000,M,0.0000,0000*5d
$GPRMC,193533.00,A,3741.4474540,N,12205.8281120,W,47.2352,277.9233,070923,,,,A*5a
$GPGGA,193534.00,3741.4496080,N,12205.8444800,W,1,0,0.0,19.3681,M,0.0000,M,0.0000,0000*5b
$GPRMC,193534.00,A,3741.4496080,N,12205.8444800,W,47.7019,280.3828,070923,,,,A*57
$GPGGA,193535.00,3741.4523020,N,12205.8609680,W,1,0,0.0,19.3971,M,0.0000,M,0.0000,0000*52
$GPRMC,193535.00,A,3741.4523020,N,12205.8609680,W,48.4508,282.6815,070923,,,,A*5e
$GPGGA,193536.00,3741.4556080,N,12205.8775580,W,1,0,0.0,19.4431,M,0.0000,M,0.0000,0000*5e
$GPRMC,193536.00,A,3741.4556080,N,12205.8775580,W,49.3005,285.0010,070923,,,,A*5e
$GPGGA,193537.00,3741.4594660,N,12205.8942680,W,1,0,0.0,19.4771,M,0.0000,M,0.0000,0000*57
$GPRMC,193537.00,A,3741.4594660,N,12205.8942680,W,50.2028,286.5833,070923,,,,A*59
$GPGGA,193538.00,3741.4636720,N,12205.9112660,W,1,0,0.0,19.4801,M,0.0000,M,0.0000,0000*5c
$GPRMC,193538.00,A,3741.4636720,N,12205.9112660,W,51.5490,287.6660,070923,,,,A*51
$GPGGA,193539.00,3741.4683700,N,12205.9285640,W,1,0,0.0,19.4911,M,0.0000,M,0.0000,0000*5e
$GPRMC,193539.00,A,3741.4683700,N,12205.9285640,W,52.7202,289.8430,070923,,,,A*58
$GPGGA,193540.00,3741.4737460,N,12205.9457720,W,1,0,0.0,19.4870,M,0.0000,M,0.0000,0000*53
$GPRMC,193540.00,A,3741.4737460,N,12205.9457720,W,52.8890,293.0365,070923,,,,A*59
$GPGGA,193541.00,3741.4799140,N,12205.9626020,W,1,0,0.0,19.3930,M,0.0000,M,0.0000,0000*50
$GPRMC,193541.00,A,3741.4799140,N,12205.9626020,W,53.0290,295.9268,070923,,,,A*58
$GPGGA,193542.00,3741.4867600,N,12205.9790780,W,1,0,0.0,19.2540,M,0.0000,M,0.0000,0000*55
$GPRMC,193542.00,A,3741.4867600,N,12205.9790780,W,53.2187,298.9683,070923,,,,A*5c
$GPGGA,193543.00,3741.4942480,N,12205.9951880,W,1,0,0.0,19.1240,M,0.0000,M,0.0000,0000*50
$GPRMC,193543.00,A,3741.4942480,N,12205.9951880,W,53.3721,301.3502,070923,,,,A*57
$GPGGA,193544.00,3741.5022640,N,12206.0109260,W,1,0,0.0,19.0390,M,0.0000,M,0.0000,0000*51
$GPRMC,193544.00,A,3741.5022640,N,12206.0109260,W,53.5099,303.8134,070923,,,,A*51
$GPGGA,193545.00,3741.5108740,N,12206.0262320,W,1,0,0.0,18.9450,M,0.0000,M,0.0000,0000*50
$GPRMC,193545.00,A,3741.5108740,N,12206.0262320,W,53.6146,306.8239,070923,,,,A*58
$GPGGA,193546.00,3741.5201500,N,12206.0409560,W,1,0,0.0,18.7840,M,0.0000,M,0.0000,0000*55
$GPRMC,193546.00,A,3741.5201500,N,12206.0409560,W,53.7528,309.7268,070923,,,,A*57
$GPGGA,193547.00,3741.5299600,N,12206.0551760,W,1,0,0.0,18.6320,M,0.0000,M,0.0000,0000*54
$GPRMC,193547.00,A,3741.5299600,N,12206.0551760,W,53.9064,312.0595,070923,,,,A*51
$GPGGA,193548.00,3741.5402440,N,12206.0689640,W,1,0,0.0,18.4289,M,0.0000,M,0.0000,0000*5c
$GPRMC,193548.00,A,3741.5402440,N,12206.0689640,W,54.0788,313.9893,070923,,,,A*51
$GPGGA,193549.00,3741.5509000,N,12206.0823920,W,1,0,0.0,18.2140,M,0.0000,M,0.0000,0000*50
$GPRMC,193549.00,A,3741.5509000,N,12206.0823920,W,54.4078,315.6581,070923,,,,A*56
$GPGGA,193550.00,3741.5620240,N,12206.0954960,W,1,0,0.0,18.0109,M,0.0000,M,0.0000,0000*5c
$GPRMC,193550.00,A,3741.5620240,N,12206.0954960,W,55.2711,318.0722,070923,,,,A*5a
$GPGGA,193551.00,3741.5738380,N,12206.1082520,W,1,0,0.0,17.8079,M,0.0000,M,0.0000,0000*52
$GPRMC,193551.00,A,3741.5738380,N,12206.1082520,W,56.8298,320.6541,070923,,,,A*52
$GPGGA,193552.00,3741.5865520,N,12206.1206900,W,1,0,0.0,17.5969,M,0.0000,M,0.0000,0000*5f
$GPRMC,193552.00,A,3741.5865520,N,12206.1206900,W,58.9477,323.1366,070923,,,,A*55
$GPGGA,193553.00,3741.5999800,N,12206.1330260,W,1,0,0.0,17.4620,M,0.0000,M,0.0000,0000*59
$GPRMC,193553.00,A,3741.5999800,N,12206.1330260,W,60.0755,324.3606,070923,,,,A*57
$GPGGA,193554.00,3741.6135700,N,12206.1451460,W,1,0,0.0,17.2569,M,0.0000,M,0.0000,0000*52
$GPRMC,193554.00,A,3741.6135700,N,12206.1451460,W,59.6253,324.5728,070923,,,,A*50
$GPGGA,193555.00,3741.6270640,N,12206.1571340,W,1,0,0.0,17.0090,M,0.0000,M,0.0000,0000*53
$GPRMC,193555.00,A,3741.6270640,N,12206.1571340,W,59.1121,324.5299,070923,,,,A*5e
$GPGGA,193556.00,3741.6404080,N,12206.1690020,W,1,0,0.0,16.7859,M,0.0000,M,0.0000,0000*5d
$GPRMC,193556.00,A,3741.6404080,N,12206.1690020,W,58.4368,324.7726,070923,,,,A*53
$GPGGA,193557.00,3741.6536260,N,12206.1806840,W,1,0,0.0,16.5529,M,0.0000,M,0.0000,0000*57
$GPRMC,193557.00,A,3741.6536260,N,12206.1806840,W,57.7401,324.7895,070923,,,,A*52
$GPGGA,193558.00,3741.6666820,N,12206.1922400,W,1,0,0.0,16.2799,M,0.0000,M,0.0000,0000*51
$GPRMC,193558.00,A,3741.6666820,N,12206.1922400,W,57.0707,324.7034,070923,,,,A*5b
$GPGGA,193559.00,3741.6795760,N,12206.2037000,W,1,0,0.0,16.0430,M,0.0000,M,0.0000,0000*5e
$GPRMC,193559.00,A,3741.6795760,N,12206.2037000,W,56.4022,324.5741,070923,,,,A*54
$GPGGA,193600.00,3741.6922960,N,12206.2150400,W,1,0,0.0,15.8929,M,0.0000,M,0.0000,0000*57
$GPRMC,193600.00,A,3741.6922960,N,12206.2150400,W,55.7130,324.4329,070923,,,,A*5a
$GPGGA,193601.00,3741.7048240,N,12206.2263140,W,1,0,0.0,15.6840,M,0.0000,M,0.0000,0000*59
$GPRMC,193601.00,A,3741.7048240,N,12206.2263140,W,55.0741,324.2644,070923,,,,A*5b
$GPGGA,193602.00,3741.7172320,N,12206.2374560,W,1,0,0.0,15.5100,M,0.0000,M,0.0000,0000*5a
$GPRMC,193602.00,A,3741.7172320,N,12206.2374560,W,54.6389,324.3853,070923,,,,A*58
$GPGGA,193603.00,3741.7295620,N,12206.2485380,W,1,0,0.0,15.3129,M,0.0000,M,0.0000,0000*58
$GPRMC,193603.00,A,3741.7295620,N,12206.2485380,W,54.2618,324.3310,070923,,,,A*52
$GPGGA,193604.00,3741.7417840,N,12206.2595300,W,1,0,0.0,15.1310,M,0.0000,M,0.0000,0000*59
$GPRMC,193604.00,A,3741.7417840,N,12206.2595300,W,53.7795,324.3675,070923,,,,A*59
$GPGGA,193605.00,3741.7539520,N,12206.2703600,W,1,0,0.0,14.8759,M,0.0000,M,0.0000,0000*57
$GPRMC,193605.00,A,3741.7539520,N,12206.2703600,W,53.5251,324.7739,070923,,,,A*54
$GPGGA,193606.00,3741.7661500,N,12206.2811840,W,1,0,0.0,14.6959,M,0.0000,M,0.0000,0000*5e
$GPRMC,193606.00,A,3741.7661500,N,12206.2811840,W,53.8455,324.6564,070923,,,,A*59
$GPGGA,193607.00,3741.7784320,N,12206.2920800,W,1,0,0.0,14.5050,M,0.0000,M,0.0000,0000*55
$GPRMC,193607.00,A,3741.7784320,N,12206.2920800,W,54.2481,324.7192,070923,,,,A*59
$GPGGA,193608.00,3741.7908160,N,12206.3030600,W,1,0,0.0,14.2850,M,0.0000,M,0.0000,0000*5e
$GPRMC,193608.00,A,3741.7908160,N,12206.3030600,W,54.6966,324.6834,070923,,,,A*59
$GPGGA,193609.00,3741.8033140,N,12206.3141420,W,1,0,0.0,14.0619,M,0.0000,M,0.0000,0000*55
$GPRMC,193609.00,A,3741.8033140,N,12206.3141420,W,55.2391,324.6471,070923,,,,A*59
$GPGGA,193610.00,3741.8159020,N,12206.3253680,W,1,0,0.0,13.8559,M,0.0000,M,0.0000,0000*57
$GPRMC,193610.00,A,3741.8159020,N,12206.3253680,W,55.7332,324.4514,070923,,,,A*5f
$GPGGA,193611.00,3741.8285860,N,12206.3367080,W,1,0,0.0,13.6309,M,0.0000,M,0.0000,0000*55
$GPRMC,193611.00,A,3741.8285860,N,12206.3367080,W,56.0876,324.5688,070923,,,,A*58
$GPGGA,193612.00,3741.8413120,N,12206.3480240,W,1,0,0.0,13.4410,M,0.0000,M,0.0000,0000*5f
$GPRMC,193612.00,A,3741.8413120,N,12206.3480240,W,55.8188,324.6454,070923,,,,A*5c
$GPGGA,193613.00,3741.8539240,N,12206.3592560,W,1,0,0.0,13.2400,M,0.0000,M,0.0000,0000*52
$GPRMC,193613.00,A,3741.8539240,N,12206.3592560,W,55.3389,324.5594,070923,,,,A*50
$GPGGA,193614.00,3741.8664700,N,12206.3704400,W,1,0,0.0,13.0359,M,0.0000,M,0.0000,0000*5c
$GPRMC,193614.00,A,3741.8664700,N,12206.3704400,W,55.2549,324.5526,070923,,,,A*55
$GPGGA,193615.00,3741.8789620,N,12206.3815820,W,1,0,0.0,12.8309,M,0.0000,M,0.0000,0000*51
$GPRMC,193615.00,A,3741.8789620,N,12206.3815820,W,54.8333,324.6042,070923,,,,A*50
$GPGGA,193616.00,3741.8913640,N,12206.3925980,W,1,0,0.0,12.6010,M,0.0000,M,0.0000,0000*55
$GPRMC,193616.00,A,3741.8913640,N,12206.3925980,W,54.3039,324.7036,070923,,,,A*51
$GPGGA,193617.00,3741.9036400,N,12206.4034880,W,1,0,0.0,12.4129,M,0.0000,M,0.0000,0000*5b
$GPRMC,193617.00,A,3741.9036400,N,12206.4034880,W,53.7417,324.6232,070923,,,,A*5a
$GPGGA,193618.00,3741.9158380,N,12206.4143720,W,1,0,0.0,12.2180,M,0.0000,M,0.0000,0000*53
$GPRMC,193618.00,A,3741.9158380,N,12206.4143720,W,53.8635,324.5358,070923,,,,A*54
$GPGGA,193619.00,3741.9280720,N,12206.4252920,W,1,0,0.0,12.1010,M,0.0000,M,0.0000,0000*5c
$GPRMC,193619.00,A,3741.9280720,N,12206.4252920,W,53.8587,324.5563,070923,,,,A*54
$GPGGA,193620.00,3741.9402040,N,12206.4361700,W,1,0,0.0,12.0501,M,0.0000,M,0.0000,0000*52
$GPRMC,193620.00,A,3741.9402040,N,12206.4361700,W,53.2764,324.3760,070923,,,,A*5c
$GPGGA,193621.00,3741.9521500,N,12206.4469940,W,1,0,0.0,12.1180,M,0.0000,M,0.0000,0000*5b
$GPRMC,193621.00,A,3741.9521500,N,12206.4469940,W,52.5305,323.8885,070923,,,,A*54
$GPGGA,193622.00,3741.9637840,N,12206.4579020,W,1,0,0.0,12.0710,M,0.0000,M,0.0000,0000*54
$GPRMC,193622.00,A,3741.9637840,N,12206.4579020,W,51.8492,322.7760,070923,,,,A*58
$GPGGA,193623.00,3741.9751960,N,12206.4690140,W,1,0,0.0,11.8700,M,0.0000,M,0.0000,0000*5e
$GPRMC,193623.00,A,3741.9751960,N,12206.4690140,W,52.1280,321.6781,070923,,,,A*5a
$GPGGA,193624.00,3741.9865480,N,12206.4805940,W,1,0,0.0,11.6709,M,0.0000,M,0.0000,0000*5f
$GPRMC,193624.00,A,3741.9865480,N,12206.4805940,W,52.9385,320.2574,070923,,,,A*5d
$GPGGA,193625.00,3741.9978400,N,12206.4926660,W,1,0,0.0,11.4759,M,0.0000,M,0.0000,0000*51
$GPRMC,193625.00,A,3741.9978400,N,12206.4926660,W,53.6263,318.8909,070923,,,,A*54
$GPGGA,193626.00,3742.0090300,N,12206.5052360,W,1,0,0.0,11.1589,M,0.0000,M,0.0000,0000*54
$GPRMC,193626.00,A,3742.0090300,N,12206.5052360,W,54.1775,317.3556,070923,,,,A*5b
$GPGGA,193627.00,3742.0199860,N,12206.5183280,W,1,0,0.0,10.8929,M,0.0000,M,0.0000,0000*5c
$GPRMC,193627.00,A,3742.0199860,N,12206.5183280,W,54.5100,315.5695,070923,,,,A*55
$GPGGA,193628.00,3742.0307140,N,12206.5318940,W,1,0,0.0,10.4458,M,0.0000,M,0.0000,0000*5d
$GPRMC,193628.00,A,3742.0307140,N,12206.5318940,W,54.8315,314.0117,070923,,,,A*51
$GPGGA,193629.00,3742.0412140,N,12206.5458560,W,1,0,0.0,9.8287,M,0.0000,M,0.0000,0000*62
$GPRMC,193629.00,A,3742.0412140,N,12206.5458560,W,55.0467,312.7885,070923,,,,A*56
$GPGGA,193630.00,3742.0514860,N,12206.5601780,W,1,0,0.0,9.2348,M,0.0000,M,0.0000,0000*6c
$GPRMC,193630.00,A,3742.0514860,N,12206.5601780,W,55.1183,311.3260,070923,,,,A*58
$GPGGA,193631.00,3742.0614220,N,12206.5748060,W,1,0,0.0,8.5548,M,0.0000,M,0.0000,0000*65
$GPRMC,193631.00,A,3742.0614220,N,12206.5748060,W,54.8715,309.5847,070923,,,,A*50
$GPGGA,193632.00,3742.0709680,N,12206.5897280,W,1,0,0.0,7.8316,M,0.0000,M,0.0000,0000*6b
$GPRMC,193632.00,A,3742.0709680,N,12206.5897280,W,54.6249,308.1186,070923,,,,A*52
$GPGGA,193633.00,3742.0803400,N,12206.6048600,W,1,0,0.0,6.8445,M,0.0000,M,0.0000,0000*60
$GPRMC,193633.00,A,3742.0803400,N,12206.6048600,W,55.1290,307.6882,070923,,,,A*5e
$GPGGA,193634.00,3742.0898020,N,12206.6202200,W,1,0,0.0,5.8106,M,0.0000,M,0.0000,0000*6a
$GPRMC,193634.00,A,3742.0898020,N,12206.6202200,W,55.9264,307.6227,070923,,,,A*53
$GPGGA,193635.00,3742.0993900,N,12206.6358080,W,1,0,0.0,4.8796,M,0.0000,M,0.0000,0000*60
$GPRMC,193635.00,A,3742.0993900,N,12206.6358080,W,56.6907,307.6154,070923,,,,A*52
$GPGGA,193636.00,3742.1090980,N,12206.6515760,W,1,0,0.0,4.1127,M,0.0000,M,0.0000,0000*63
$GPRMC,193636.00,A,3742.1090980,N,12206.6515760,W,57.2678,307.6186,070923,,,,A*59
$GPGGA,193637.00,3742.1189020,N,12206.6674520,W,1,0,0.0,3.5528,M,0.0000,M,0.0000,0000*62
$GPRMC,193637.00,A,3742.1189020,N,12206.6674520,W,57.5323,307.6487,070923,,,,A*58
$GPGGA,193638.00,3742.1286940,N,12206.6833820,W,1,0,0.0,3.2169,M,0.0000,M,0.0000,0000*68
$GPRMC,193638.00,A,3742.1286940,N,12206.6833820,W,57.5655,307.5911,070923,,,,A*51
$GPGGA,193639.00,3742.1384860,N,12206.6993180,W,1,0,0.0,2.9990,M,0.0000,M,0.0000,0000*65
$GPRMC,193639.00,A,3742.1384860,N,12206.6993180,W,57.5491,307.7508,070923,,,,A*54
$GPGGA,193640.00,3742.1483440,N,12206.7152240,W,1,0,0.0,2.8540,M,0.0000,M,0.0000,0000*6e
$GPRMC,193640.00,A,3742.1483440,N,12206.7152240,W,57.7566,307.8379,070923,,,,A*5b
$GPGGA,193641.00,3742.1582380,N,12206.7312080,W,1,0,0.0,2.6961,M,0.0000,M,0.0000,0000*6d
$GPRMC,193641.00,A,3742.1582380,N,12206.7312080,W,58.1437,307.7208,070923,,,,A*5d
$GPGGA,193642.00,3742.1681800,N,12206.7473600,W,1,0,0.0,2.5161,M,0.0000,M,0.0000,0000*68
$GPRMC,193642.00,A,3742.1681800,N,12206.7473600,W,58.5958,307.5793,070923,,,,A*56
$GPGGA,193643.00,3742.1781700,N,12206.7636560,W,1,0,0.0,2.3302,M,0.0000,M,0.0000,0000*60
$GPRMC,193643.00,A,3742.1781700,N,12206.7636560,W,59.0696,307.5082,070923,,,,A*51
$GPGGA,193644.00,3742.1882560,N,12206.7801260,W,1,0,0.0,2.1411,M,0.0000,M,0.0000,0000*65
$GPRMC,193644.00,A,3742.1882560,N,12206.7801260,W,59.7555,307.5138,070923,,,,A*58
$GPGGA,193645.00,3742.1984620,N,12206.7967880,W,1,0,0.0,1.9471,M,0.0000,M,0.0000,0000*6c
$GPRMC,193645.00,A,3742.1984620,N,12206.7967880,W,60.4175,307.4529,070923,,,,A*56
$GPGGA,193646.00,3742.2087280,N,12206.8136180,W,1,0,0.0,1.7461,M,0.0000,M,0.0000,0000*6d
$GPRMC,193646.00,A,3742.2087280,N,12206.8136180,W,60.7911,307.3008,070923,,,,A*50
$GPGGA,193647.00,3742.2190300,N,12206.8305500,W,1,0,0.0,1.5571,M,0.0000,M,0.0000,0000*6e
$GPRMC,193647.00,A,3742.2190300,N,12206.8305500,W,61.0531,307.3505,070923,,,,A*51
$GPGGA,193648.00,3742.2293800,N,12206.8475180,W,1,0,0.0,1.3611,M,0.0000,M,0.0000,0000*65
$GPRMC,193648.00,A,3742.2293800,N,12206.8475180,W,61.1736,307.4029,070923,,,,A*51
$GPGGA,193649.00,3742.2397720,N,12206.8644920,W,1,0,0.0,1.1701,M,0.0000,M,0.0000,0000*6c
$GPRMC,193649.00,A,3742.2397720,N,12206.8644920,W,61.2315,307.6491,070923,,,,A*59
$GPGGA,193650.00,3742.2502240,N,12206.8814180,W,1,0,0.0,1.0711,M,0.0000,M,0.0000,0000*64
$GPRMC,193650.00,A,3742.2502240,N,12206.8814180,W,61.2785,307.8107,070923,,,,A*58
$GPGGA,193651.00,3742.2606640,N,12206.8983620,W,1,0,0.0,0.9921,M,0.0000,M,0.0000,0000*61
$GPRMC,193651.00,A,3742.2606640,N,12206.8983620,W,61.0858,307.5982,070923,,,,A*5d
$GPGGA,193652.00,3742.2709720,N,12206.9152340,W,1,0,0.0,0.8132,M,0.0000,M,0.0000,0000*66
$GPRMC,193652.00,A,3742.2709720,N,12206.9152340,W,60.5837,307.3017,070923,,,,A*5f
$GPGGA,193653.00,3742.2811180,N,12206.9321840,W,1,0,0.0,0.4313,M,0.0000,M,0.0000,0000*6d
$GPRMC,193653.00,A,3742.2811180,N,12206.9321840,W,60.6961,306.3938,070923,,,,A*5d
$GPGGA,193654.00,3742.2910780,N,12206.9493860,W,1,0,0.0,-0.0707,M,0.0000,M,0.0000,0000*48
$GPRMC,193654.00,A,3742.2910780,N,12206.9493860,W,60.9499,305.6615,070923,,,,A*53
$GPGGA,193655.00,3742.3008760,N,12206.9667560,W,1,0,0.0,-0.6886,M,0.0000,M,0.0000,0000*42
$GPRMC,193655.00,A,3742.3008760,N,12206.9667560,W,60.7302,304.8907,070923,,,,A*51
$GPGGA,193656.00,3742.3104580,N,12206.9841980,W,1,0,0.0,-1.3936,M,0.0000,M,0.0000,0000*46
$GPRMC,193656.00,A,3742.3104580,N,12206.9841980,W,60.5012,304.3159,070923,,,,A*53
$GPGGA,193657.00,3742.3199140,N,12207.0017600,W,1,0,0.0,-2.2035,M,0.0000,M,0.0000,0000*47
$GPRMC,193657.00,A,3742.3199140,N,12207.0017600,W,60.7569,303.6998,070923,,,,A*56
$GPGGA,193658.00,3742.3292260,N,12207.0195740,W,1,0,0.0,-3.1175,M,0.0000,M,0.0000,0000*48
$GPRMC,193658.00,A,3742.3292260,N,12207.0195740,W,61.0927,302.8151,070923,,,,A*5c
$GPGGA,193659.00,3742.3383460,N,12207.0375980,W,1,0,0.0,-4.0385,M,0.0000,M,0.0000,0000*4b
$GPRMC,193659.00,A,3742.3383460,N,12207.0375980,W,60.9845,302.0084,070923,,,,A*58
$GPGGA,193700.00,3742.3472560,N,12207.0557060,W,1,0,0.0,-4.9895,M,0.0000,M,0.0000,0000*4c
$GPRMC,193700.00,A,3742.3472560,N,12207.0557060,W,60.7372,301.3979,070923,,,,A*56
$GPGGA,193701.00,3742.3559620,N,12207.0738740,W,1,0,0.0,-5.8955,M,0.0000,M,0.0000,0000*41
$GPRMC,193701.00,A,3742.3559620,N,12207.0738740,W,60.4850,300.5949,070923,,,,A*5a
$GPGGA,193702.00,3742.3644220,N,12207.0921260,W,1,0,0.0,-6.8305,M,0.0000,M,0.0000,0000*44
$GPRMC,193702.00,A,3742.3644220,N,12207.0921260,W,60.2497,299.8501,070923,,,,A*5e
$GPGGA,193703.00,3742.3727020,N,12207.1104080,W,1,0,0.0,-7.7795,M,0.0000,M,0.0000,0000*42
$GPRMC,193703.00,A,3742.3727020,N,12207.1104080,W,60.0092,299.3112,070923,,,,A*55
$GPGGA,193704.00,3742.3808140,N,12207.1287260,W,1,0,0.0,-8.8044,M,0.0000,M,0.0000,0000*4f
$GPRMC,193704.00,A,3742.3808140,N,12207.1287260,W,59.8559,298.7966,070923,,,,A*5d
$GPGGA,193705.00,3742.3888420,N,12207.1471280,W,1,0,0.0,-9.8444,M,0.0000,M,0.0000,0000*41
$GPRMC,193705.00,A,3742.3888420,N,12207.1471280,W,60.1912,298.5784,070923,,,,A*56
$GPGGA,193706.00,3742.3969180,N,12207.1656620,W,1,0,0.0,-10.8855,M,0.0000,M,0.0000,0000*7e
$GPRMC,193706.00,A,3742.3969180,N,12207.1656620,W,60.5844,298.7866,070923,,,,A*5a
$GPGGA,193707.00,3742.4051020,N,12207.1842740,W,1,0,0.0,-11.8505,M,0.0000,M,0.0000,0000*74
$GPRMC,193707.00,A,3742.4051020,N,12207.1842740,W,60.9288,298.8611,070923,,,,A*5e
$GPGGA,193708.00,3742.4133520,N,12207.2029040,W,1,0,0.0,-12.9494,M,0.0000,M,0.0000,0000*71
$GPRMC,193708.00,A,3742.4133520,N,12207.2029040,W,60.9220,299.1274,070923,,,,A*5d
$GPGGA,193709.00,3742.4217640,N,12207.2214020,W,1,0,0.0,-14.1603,M,0.0000,M,0.0000,0000*78
$GPRMC,193709.00,A,3742.4217640,N,12207.2214020,W,60.7768,300.5421,070923,,,,A*52
$GPGGA,193710.00,3742.4307880,N,12207.2393420,W,1,0,0.0,-15.2585,M,0.0000,M,0.0000,0000*77
$GPRMC,193710.00,A,3742.4307880,N,12207.2393420,W,60.5687,303.6928,070923,,,,A*54
$GPGGA,193711.00,3742.4404540,N,12207.2566580,W,1,0,0.0,-16.2115,M,0.0000,M,0.0000,0000*7a
$GPRMC,193711.00,A,3742.4404540,N,12207.2566580,W,60.3059,306.3446,070923,,,,A*51
$GPGGA,193712.00,3742.4507380,N,12207.2732900,W,1,0,0.0,-17.1625,M,0.0000,M,0.0000,0000*70
$GPRMC,193712.00,A,3742.4507380,N,12207.2732900,W,60.1854,309.2931,070923,,,,A*59
$GPGGA,193713.00,3742.4616940,N,12207.2892560,W,1,0,0.0,-18.0496,M,0.0000,M,0.0000,0000*7f
$GPRMC,193713.00,A,3742.4616940,N,12207.2892560,W,60.3328,312.2353,070923,,,,A*54
$GPGGA,193714.00,3742.4732500,N,12207.3046040,W,1,0,0.0,-18.6727,M,0.0000,M,0.0000,0000*7f
$GPRMC,193714.00,A,3742.4732500,N,12207.3046040,W,60.3992,314.2928,070923,,,,A*50
$GPGGA,193715.00,3742.4850580,N,12207.3196220,W,1,0,0.0,-19.0898,M,0.0000,M,0.0000,0000*79
$GPRMC,193715.00,A,3742.4850580,N,12207.3196220,W,60.3287,314.7331,070923,,,,A*52
$GPGGA,193716.00,3742.4968840,N,12207.3345800,W,1,0,0.0,-19.4888,M,0.0000,M,0.0000,0000*70
$GPRMC,193716.00,A,3742.4968840,N,12207.3345800,W,60.2627,314.6908,070923,,,,A*50
$GPGGA,193717.00,3742.5086560,N,12207.3495620,W,1,0,0.0,-19.7249,M,0.0000,M,0.0000,0000*74
$GPRMC,193717.00,A,3742.5086560,N,12207.3495620,W,60.1100,314.5200,070923,,,,A*51
$GPGGA,193718.00,3742.5203860,N,12207.3645020,W,1,0,0.0,-19.7780,M,0.0000,M,0.0000,0000*70
$GPRMC,193718.00,A,3742.5203860,N,12207.3645020,W,59.8719,314.5294,070923,,,,A*55
$GPGGA,193719.00,3742.5320800,N,12207.3793520,W,1,0,0.0,-19.7070,M,0.0000,M,0.0000,0000*70
$GPRMC,193719.00,A,3742.5320800,N,12207.3793520,W,59.6101,314.6869,070923,,,,A*57
$GPGGA,193720.00,3742.5437500,N,12207.3941600,W,1,0,0.0,-19.6270,M,0.0000,M,0.0000,0000*75
$GPRMC,193720.00,A,3742.5437500,N,12207.3941600,W,59.5817,314.5425,070923,,,,A*5b
$GPGGA,193721.00,3742.5553960,N,12207.4090100,W,1,0,0.0,-19.4781,M,0.0000,M,0.0000,0000*71
$GPRMC,193721.00,A,3742.5553960,N,12207.4090100,W,59.6592,314.4460,070923,,,,A*55
$GPGGA,193722.00,3742.5670360,N,12207.4239260,W,1,0,0.0,-19.1451,M,0.0000,M,0.0000,0000*75
$GPRMC,193722.00,A,3742.5670360,N,12207.4239260,W,59.7844,314.3532,070923,,,,A*5c
$GPGGA,193723.00,3742.5786400,N,12207.4389320,W,1,0,0.0,-18.7901,M,0.0000,M,0.0000,0000*7d
$GPRMC,193723.00,A,3742.5786400,N,12207.4389320,W,59.8903,313.8714,070923,,,,A*5c
$GPGGA,193724.00,3742.5900340,N,12207.4542200,W,1,0,0.0,-18.3811,M,0.0000,M,0.0000,0000*7f
$GPRMC,193724.00,A,3742.5900340,N,12207.4542200,W,59.8163,312.4104,070923,,,,A*5e
$GPGGA,193725.00,3742.6010740,N,12207.4698260,W,1,0,0.0,-17.8652,M,0.0000,M,0.0000,0000*7e
$GPRMC,193725.00,A,3742.6010740,N,12207.4698260,W,59.5861,310.6578,070923,,,,A*5b
$GPGGA,193726.00,3742.6116460,N,12207.4858220,W,1,0,0.0,-17.3212,M,0.0000,M,0.0000,0000*76
$GPRMC,193726.00,A,3742.6116460,N,12207.4858220,W,59.3020,308.7623,070923,,,,A*56
$GPGGA,193727.00,3742.6217500,N,12207.5021600,W,1,0,0.0,-16.7932,M,0.0000,M,0.0000,0000*7f
$GPRMC,193727.00,A,3742.6217500,N,12207.5021600,W,59.0432,306.8825,070923,,,,A*5e
$GPGGA,193728.00,3742.6314400,N,12207.5188280,W,1,0,0.0,-16.2562,M,0.0000,M,0.0000,0000*71
$GPRMC,193728.00,A,3742.6314400,N,12207.5188280,W,58.9789,305.3985,070923,,,,A*54
$GPGGA,193729.00,3742.6407580,N,12207.5358020,W,1,0,0.0,-15.7621,M,0.0000,M,0.0000,0000*79
$GPRMC,193729.00,A,3742.6407580,N,12207.5358020,W,58.9372,303.6877,070923,,,,A*51
$GPGGA,193730.00,3742.6497280,N,12207.5530760,W,1,0,0.0,-15.4270,M,0.0000,M,0.0000,0000*77
$GPRMC,193730.00,A,3742.6497280,N,12207.5530760,W,58.9489,302.4992,070923,,,,A*56
$GPGGA,193731.00,3742.6584940,N,12207.5704640,W,1,0,0.0,-14.9053,M,0.0000,M,0.0000,0000*7b
$GPRMC,193731.00,A,3742.6584940,N,12207.5704640,W,58.6538,302.1890,070923,,,,A*57
$GPGGA,193732.00,3742.6671820,N,12207.5876840,W,1,0,0.0,-14.0405,M,0.0000,M,0.0000,0000*7c
$GPRMC,193732.00,A,3742.6671820,N,12207.5876840,W,57.7339,302.3365,070923,,,,A*54
$GPGGA,193733.00,3742.6757260,N,12207.6045260,W,1,0,0.0,-12.9735,M,0.0000,M,0.0000,0000*7a
$GPRMC,193733.00,A,3742.6757260,N,12207.6045260,W,56.3731,302.5125,070923,,,,A*54
$GPGGA,193734.00,3742.6840660,N,12207.6209840,W,1,0,0.0,-12.0244,M,0.0000,M,0.0000,0000*78
$GPRMC,193734.00,A,3742.6840660,N,12207.6209840,W,55.3634,302.3664,070923,,,,A*5f
$GPGGA,193735.00,3742.6922920,N,12207.6372380,W,1,0,0.0,-11.1743,M,0.0000,M,0.0000,0000*7d
$GPRMC,193735.00,A,3742.6922920,N,12207.6372380,W,54.7384,302.4148,070923,,,,A*5f
$GPGGA,193736.00,3742.7004880,N,12207.6532880,W,1,0,0.0,-10.5032,M,0.0000,M,0.0000,0000*74
$GPRMC,193736.00,A,3742.7004880,N,12207.6532880,W,54.2799,302.7624,070923,,,,A*51
$GPGGA,193737.00,3742.7087440,N,12207.6691340,W,1,0,0.0,-10.0742,M,0.0000,M,0.0000,0000*76
$GPRMC,193737.00,A,3742.7087440,N,12207.6691340,W,54.0210,303.6110,070923,,,,A*50
$GPGGA,193738.00,3742.7172760,N,12207.6846800,W,1,0,0.0,-9.5912,M,0.0000,M,0.0000,0000*4e
$GPRMC,193738.00,A,3742.7172760,N,12207.6846800,W,53.9422,305.3353,070923,,,,A*51
$GPGGA,193739.00,3742.7261500,N,12207.6999140,W,1,0,0.0,-9.1482,M,0.0000,M,0.0000,0000*44
$GPRMC,193739.00,A,3742.7261500,N,12207.6999140,W,53.9849,307.0257,070923,,,,A*5e
$GPGGA,193740.00,3742.7354500,N,12207.7147640,W,1,0,0.0,-8.7181,M,0.0000,M,0.0000,0000*41
$GPRMC,193740.00,A,3742.7354500,N,12207.7147640,W,54.0483,309.1698,070923,,,,A*56
$GPGGA,193741.00,3742.7451640,N,12207.7292360,W,1,0,0.0,-8.2951,M,0.0000,M,0.0000,0000*49
$GPRMC,193741.00,A,3742.7451640,N,12207.7292360,W,54.2070,310.7783,070923,,,,A*51
$GPGGA,193742.00,3742.7552560,N,12207.7434320,W,1,0,0.0,-7.8991,M,0.0000,M,0.0000,0000*4e
$GPRMC,193742.00,A,3742.7552560,N,12207.7434320,W,54.6554,312.6387,070923,,,,A*5b
$GPGGA,193743.00,3742.7657920,N,12207.7573640,W,1,0,0.0,-7.5701,M,0.0000,M,0.0000,0000*4a
$GPRMC,193743.00,A,3742.7657920,N,12207.7573640,W,55.2400,314.2691,070923,,,,A*50
$GPGGA,193744.00,3742.7767900,N,12207.7710140,W,1,0,0.0,-7.3300,M,0.0000,M,0.0000,0000*4e
$GPRMC,193744.00,A,3742.7767900,N,12207.7710140,W,55.7779,316.2510,070923,,,,A*57
$GPGGA,193745.00,3742.7882440,N,12207.7843160,W,1,0,0.0,-7.1720,M,0.0000,M,0.0000,0000*4d
$GPRMC,193745.00,A,3742.7882440,N,12207.7843160,W,56.2743,318.1390,070923,,,,A*5c
$GPGGA,193746.00,3742.8001540,N,12207.7972460,W,1,0,0.0,-7.0950,M,0.0000,M,0.0000,0000*4d
$GPRMC,193746.00,A,3742.8001540,N,12207.7972460,W,56.8473,319.9861,070923,,,,A*52
$GPGGA,193747.00,3742.8124960,N,12207.8098460,W,1,0,0.0,-7.0170,M,0.0000,M,0.0000,0000*4c
$GPRMC,193747.00,A,3742.8124960,N,12207.8098460,W,57.4016,321.7223,070923,,,,A*5a
$GPGGA,193748.00,3742.8252760,N,12207.8220500,W,1,0,0.0,-6.9370,M,0.0000,M,0.0000,0000*43
$GPRMC,193748.00,A,3742.8252760,N,12207.8220500,W,57.9242,323.5684,070923,,,,A*58
$GPGGA,193749.00,3742.8384520,N,12207.8338580,W,1,0,0.0,-6.8600,M,0.0000,M,0.0000,0000*4d
$GPRMC,193749.00,A,3742.8384520,N,12207.8338580,W,58.2732,325.3072,070923,,,,A*5c
$GPGGA,193750.00,3742.8519520,N,12207.8450780,W,1,0,0.0,-6.7800,M,0.0000,M,0.0000,0000*4d
$GPRMC,193750.00,A,3742.8519520,N,12207.8450780,W,57.9296,327.6364,070923,,,,A*51
$GPGGA,193751.00,3742.8656320,N,12207.8555480,W,1,0,0.0,-6.7140,M,0.0000,M,0.0000,0000*48
$GPRMC,193751.00,A,3742.8656320,N,12207.8555480,W,57.1862,329.5245,070923,,,,A*5f
$GPGGA,193752.00,3742.8793840,N,12207.8653220,W,1,0,0.0,-6.6320,M,0.0000,M,0.0000,0000*42
$GPRMC,193752.00,A,3742.8793840,N,12207.8653220,W,56.4033,331.4315,070923,,,,A*54
$GPGGA,193753.00,3742.8932380,N,12207.8743880,W,1,0,0.0,-6.5840,M,0.0000,M,0.0000,0000*4f
$GPRMC,193753.00,A,3742.8932380,N,12207.8743880,W,56.0162,333.3197,070923,,,,A*5b
$GPGGA,193754.00,3742.9072720,N,12207.8829380,W,1,0,0.0,-6.5120,M,0.0000,M,0.0000,0000*4d
$GPRMC,193754.00,A,3742.9072720,N,12207.8829380,W,55.9785,334.9430,070923,,,,A*56
$GPGGA,193755.00,3742.9214200,N,12207.8908640,W,1,0,0.0,-6.4340,M,0.0000,M,0.0000,0000*47
$GPRMC,193755.00,A,3742.9214200,N,12207.8908640,W,55.3184,336.7017,070923,,,,A*59
$GPGGA,193756.00,3742.9355260,N,12207.8982440,W,1,0,0.0,-6.2561,M,0.0000,M,0.0000,0000*45
$GPRMC,193756.00,A,3742.9355260,N,12207.8982440,W,54.5128,337.9636,070923,,,,A*53
$GPGGA,193757.00,3742.9495360,N,12207.9051740,W,1,0,0.0,-6.1869,M,0.0000,M,0.0000,0000*4d
$GPRMC,193757.00,A,3742.9495360,N,12207.9051740,W,53.8171,338.6917,070923,,,,A*57
$GPGGA,193758.00,3742.9634260,N,12207.9119480,W,1,0,0.0,-6.4608,M,0.0000,M,0.0000,0000*44
$GPRMC,193758.00,A,3742.9634260,N,12207.9119480,W,53.3204,338.7961,070923,,,,A*58
$GPGGA,193759.00,3742.9772020,N,12207.9186200,W,1,0,0.0,-6.7408,M,0.0000,M,0.0000,0000*49
$GPRMC,193759.00,A,3742.9772020,N,12207.9186200,W,52.8514,338.8249,070923,,,,A*56
$GPGGA,193800.00,3742.9908760,N,12207.9252560,W,1,0,0.0,-7.0008,M,0.0000,M,0.0000,0000*43
$GPRMC,193800.00,A,3742.9908760,N,12207.9252560,W,52.6554,338.7799,070923,,,,A*53
$GPGGA,193801.00,3743.0045380,N,12207.9318920,W,1,0,0.0,-7.1779,M,0.0000,M,0.0000,0000*47
$GPRMC,193801.00,A,3743.0045380,N,12207.9318920,W,52.6311,338.6612,070923,,,,A*53
$GPGGA,193802.00,3743.0181640,N,12207.9385640,W,1,0,0.0,-7.1470,M,0.0000,M,0.0000,0000*43
$GPRMC,193802.00,A,3743.0181640,N,12207.9385640,W,52.4879,338.5373,070923,,,,A*5b
$GPGGA,193803.00,3743.0317300,N,12207.9452360,W,1,0,0.0,-6.9810,M,0.0000,M,0.0000,0000*47
$GPRMC,193803.00,A,3743.0317300,N,12207.9452360,W,52.2559,338.5401,070923,,,,A*57
$GPGGA,193804.00,3743.0452420,N,12207.9518840,W,1,0,0.0,-6.8340,M,0.0000,M,0.0000,0000*4a
$GPRMC,193804.00,A,3743.0452420,N,12207.9518840,W,52.0633,338.4901,070923,,,,A*54
$GPGGA,193805.00,3743.0586880,N,12207.9585140,W,1,0,0.0,-6.6111,M,0.0000,M,0.0000,0000*40
$GPRMC,193805.00,A,3743.0586880,N,12207.9585140,W,51.6962,338.4905,070923,,,,A*5c
$GPGGA,193806.00,3743.0719720,N,12207.9650600,W,1,0,0.0,-6.2781,M,0.0000,M,0.0000,0000*41
$GPRMC,193806.00,A,3743.0719720,N,12207.9650600,W,50.8420,338.6649,070923,,,,A*57
$GPGGA,193807.00,3743.0850160,N,12207.9714860,W,1,0,0.0,-5.7622,M,0.0000,M,0.0000,0000*47
$GPRMC,193807.00,A,3743.0850160,N,12207.9714860,W,49.9977,338.3377,070923,,,,A*54
$GPGGA,193808.00,3743.0978920,N,12207.9779480,W,1,0,0.0,-5.2382,M,0.0000,M,0.0000,0000*4c
$GPRMC,193808.00,A,3743.0978920,N,12207.9779480,W,49.7520,338.0109,070923,,,,A*5d
$GPGGA,193809.00,3743.1106780,N,12207.9845360,W,1,0,0.0,-4.7702,M,0.0000,M,0.0000,0000*48
$GPRMC,193809.00,A,3743.1106780,N,12207.9845360,W,49.5927,337.3773,070923,,,,A*5f
$GPGGA,193810.00,3743.1233740,N,12207.9912560,W,1,0,0.0,-4.3371,M,0.0000,M,0.0000,0000*48
$GPRMC,193810.00,A,3743.1233740,N,12207.9912560,W,49.4860,336.8026,070923,,,,A*55
$GPGGA,193811.00,3743.1360100,N,12207.9981560,W,1,0,0.0,-3.8821,M,0.0000,M,0.0000,0000*44
$GPRMC,193811.00,A,3743.1360100,N,12207.9981560,W,49.6386,336.2278,070923,,,,A*59
$GPGGA,193812.00,3743.1486940,N,12208.0052480,W,1,0,0.0,-3.4531,M,0.0000,M,0.0000,0000*4a
$GPRMC,193812.00,A,3743.1486940,N,12208.0052480,W,50.3268,335.7458,070923,,,,A*59
$GPGGA,193813.00,3743.1615520,N,12208.0125980,W,1,0,0.0,-3.1400,M,0.0000,M,0.0000,0000*43
$GPRMC,193813.00,A,3743.1615520,N,12208.0125980,W,51.1711,335.2067,070923,,,,A*53
$GPGGA,193814.00,3743.1745420,N,12208.0202360,W,1,0,0.0,-2.8591,M,0.0000,M,0.0000,0000*42
$GPRMC,193814.00,A,3743.1745420,N,12208.0202360,W,51.9351,334.5202,070923,,,,A*5c
$GPGGA,193815.00,3743.1876400,N,12208.0281980,W,1,0,0.0,-2.6720,M,0.0000,M,0.0000,0000*47
$GPRMC,193815.00,A,3743.1876400,N,12208.0281980,W,52.7238,333.8100,070923,,,,A*57
$GPGGA,193816.00,3743.2008700,N,12208.0364660,W,1,0,0.0,-2.5840,M,0.0000,M,0.0000,0000*44
$GPRMC,193816.00,A,3743.2008700,N,12208.0364660,W,53.2656,333.2776,070923,,,,A*5b
$GPGGA,193817.00,3743.2140160,N,12208.0448840,W,1,0,0.0,-2.5909,M,0.0000,M,0.0000,0000*41
$GPRMC,193817.00,A,3743.2140160,N,12208.0448840,W,52.7660,332.6204,070923,,,,A*56
$GPGGA,193818.00,3743.2269280,N,12208.0534280,W,1,0,0.0,-2.7099,M,0.0000,M,0.0000,0000*45
$GPRMC,193818.00,A,3743.2269280,N,12208.0534280,W,52.1620,331.9160,070923,,,,A*5f
$GPGGA,193819.00,3743.2396300,N,12208.0620380,W,1,0,0.0,-2.9108,M,0.0000,M,0.0000,0000*4c
$GPRMC,193819.00,A,3743.2396300,N,12208.0620380,W,51.5690,331.3174,070923,,,,A*52
$GPGGA,193820.00,3743.2521160,N,12208.0707140,W,1,0,0.0,-3.1978,M,0.0000,M,0.0000,0000*44
$GPRMC,193820.00,A,3743.2521160,N,12208.0707140,W,51.0385,330.7928,070923,,,,A*5c
$GPGGA,193821.00,3743.2644160,N,12208.0794620,W,1,0,0.0,-3.5577,M,0.0000,M,0.0000,0000*49
$GPRMC,193821.00,A,3743.2644160,N,12208.0794620,W,50.5853,330.0426,070923,,,,A*56
$GPGGA,193822.00,3743.2765180,N,12208.0883660,W,1,0,0.0,-4.0317,M,0.0000,M,0.0000,0000*49
$GPRMC,193822.00,A,3743.2765180,N,12208.0883660,W,50.2040,329.2069,070923,,,,A*5c
$GPGGA,193823.00,3743.2884460,N,12208.0973720,W,1,0,0.0,-4.5937,M,0.0000,M,0.0000,0000*45
$GPRMC,193823.00,A,3743.2884460,N,12208.0973720,W,49.9038,328.8767,070923,,,,A*53
$GPGGA,193824.00,3743.3003020,N,12208.1063960,W,1,0,0.0,-5.2966,M,0.0000,M,0.0000,0000*45
$GPRMC,193824.00,A,3743.3003020,N,12208.1063960,W,49.7062,328.5461,070923,,,,A*58
$GPGGA,193825.00,3743.3120620,N,12208.1154740,W,1,0,0.0,-6.0476,M,0.0000,M,0.0000,0000*46
$GPRMC,193825.00,A,3743.3120620,N,12208.1154740,W,49.5240,328.3951,070923,,,,A*5e
$GPGGA,193826.00,3743.3237920,N,12208.1245220,W,1,0,0.0,-6.7986,M,0.0000,M,0.0000,0000*4a
$GPRMC,193826.00,A,3743.3237920,N,12208.1245220,W,49.5263,328.3532,070923,,,,A*5f
$GPGGA,193827.00,3743.3356240,N,12208.1336480,W,1,0,0.0,-7.4517,M,0.0000,M,0.0000,0000*4f
$GPRMC,193827.00,A,3743.3356240,N,12208.1336480,W,50.3335,328.4063,070923,,,,A*56
$GPGGA,193828.00,3743.3476120,N,12208.1429120,W,1,0,0.0,-7.8328,M,0.0000,M,0.0000,0000*40
$GPRMC,193828.00,A,3743.3476120,N,12208.1429120,W,50.5450,328.2859,070923,,,,A*5a
$GPGGA,193829.00,3743.3595340,N,12208.1521220,W,1,0,0.0,-8.0279,M,0.0000,M,0.0000,0000*41
$GPRMC,193829.00,A,3743.3595340,N,12208.1521220,W,50.0737,328.1951,070923,,,,A*54
$GPGGA,193830.00,3743.3713780,N,12208.1613560,W,1,0,0.0,-8.0250,M,0.0000,M,0.0000,0000*47
$GPRMC,193830.00,A,3743.3713780,N,12208.1613560,W,50.1869,328.1491,070923,,,,A*5d
$GPGGA,193831.00,3743.3833060,N,12208.1706020,W,1,0,0.0,-7.9830,M,0.0000,M,0.0000,0000*4c
$GPRMC,193831.00,A,3743.3833060,N,12208.1706020,W,50.6246,328.3559,070923,,,,A*5b
$GPGGA,193832.00,3743.3953840,N,12208.1798840,W,1,0,0.0,-7.9730,M,0.0000,M,0.0000,0000*44
$GPRMC,193832.00,A,3743.3953840,N,12208.1798840,W,51.1260,328.5992,070923,,,,A*53
$GPGGA,193833.00,3743.4076180,N,12208.1891960,W,1,0,0.0,-8.0209,M,0.0000,M,0.0000,0000*45
$GPRMC,193833.00,A,3743.4076180,N,12208.1891960,W,51.7177,328.7382,070923,,,,A*51
$GPGGA,193834.00,3743.4200320,N,12208.1985740,W,1,0,0.0,-8.1599,M,0.0000,M,0.0000,0000*4e
$GPRMC,193834.00,A,3743.4200320,N,12208.1985740,W,52.3570,329.1555,070923,,,,A*5a
$GPGGA,193835.00,3743.4326920,N,12208.2076160,W,1,0,0.0,-8.1220,M,0.0000,M,0.0000,0000*47
$GPRMC,193835.00,A,3743.4326920,N,12208.2076160,W,52.0935,331.4709,070923,,,,A*5f
$GPGGA,193836.00,3743.4454780,N,12208.2159200,W,1,0,0.0,-7.8171,M,0.0000,M,0.0000,0000*4a
$GPRMC,193836.00,A,3743.4454780,N,12208.2159200,W,51.4853,333.6437,070923,,,,A*5b
$GPGGA,193837.00,3743.4584500,N,12208.2235880,W,1,0,0.0,-7.3542,M,0.0000,M,0.0000,0000*49
$GPRMC,193837.00,A,3743.4584500,N,12208.2235880,W,51.5503,335.7160,070923,,,,A*5e
$GPGGA,193838.00,3743.4716440,N,12208.2306440,W,1,0,0.0,-6.7183,M,0.0000,M,0.0000,0000*47
$GPRMC,193838.00,A,3743.4716440,N,12208.2306440,W,51.4989,337.9362,070923,,,,A*5f
$GPGGA,193839.00,3743.4850120,N,12208.2370520,W,1,0,0.0,-5.9293,M,0.0000,M,0.0000,0000*41
$GPRMC,193839.00,A,3743.4850120,N,12208.2370520,W,51.3506,340.0976,070923,,,,A*5c
$GPGGA,193840.00,3743.4985240,N,12208.2428120,W,1,0,0.0,-5.1263,M,0.0000,M,0.0000,0000*4a
$GPRMC,193840.00,A,3743.4985240,N,12208.2428120,W,51.1888,342.1306,070923,,,,A*57
$GPGGA,193841.00,3743.5121260,N,12208.2479600,W,1,0,0.0,-4.3313,M,0.0000,M,0.0000,0000*4a
$GPRMC,193841.00,A,3743.5121260,N,12208.2479600,W,51.0350,344.0510,070923,,,,A*5b
$GPGGA,193842.00,3743.5258480,N,12208.2524960,W,1,0,0.0,-3.6162,M,0.0000,M,0.0000,0000*4a
$GPRMC,193842.00,A,3743.5258480,N,12208.2524960,W,50.9752,346.2852,070923,,,,A*58
$GPGGA,193843.00,3743.5397020,N,12208.2563240,W,1,0,0.0,-2.9852,M,0.0000,M,0.0000,0000*49
$GPRMC,193843.00,A,3743.5397020,N,12208.2563240,W,50.9560,348.4995,070923,,,,A*5e
$GPGGA,193844.00,3743.5536460,N,12208.2595160,W,1,0,0.0,-2.4472,M,0.0000,M,0.0000,0000*48
$GPRMC,193844.00,A,3743.5536460,N,12208.2595160,W,50.9861,350.6152,070923,,,,A*58
$GPGGA,193845.00,3743.5676680,N,12208.2621620,W,1,0,0.0,-1.8682,M,0.0000,M,0.0000,0000*4f
$GPRMC,193845.00,A,3743.5676680,N,12208.2621620,W,50.9950,351.9450,070923,,,,A*57
$GPGGA,193846.00,3743.5817380,N,12208.2644300,W,1,0,0.0,-1.3212,M,0.0000,M,0.0000,0000*42
$GPRMC,193846.00,A,3743.5817380,N,12208.2644300,W,51.0307,353.0835,070923,,,,A*58
$GPGGA,193847.00,3743.5958500,N,12208.2665240,W,1,0,0.0,-0.9581,M,0.0000,M,0.0000,0000*47
$GPRMC,193847.00,A,3743.5958500,N,12208.2665240,W,51.1779,353.0947,070923,,,,A*53
$GPGGA,193848.00,3743.6100040,N,12208.2686780,W,1,0,0.0,-0.5971,M,0.0000,M,0.0000,0000*44
$GPRMC,193848.00,A,3743.6100040,N,12208.2686780,W,51.2989,352.9668,070923,,,,A*57
$GPGGA,193849.00,3743.6241520,N,12208.2708260,W,1,0,0.0,-0.0902,M,0.0000,M,0.0000,0000*4d
$GPRMC,193849.00,A,3743.6241520,N,12208.2708260,W,51.1454,353.0567,070923,,,,A*55
$GPGGA,193850.00,3743.6382340,N,12208.2729260,W,1,0,0.0,0.5597,M,0.0000,M,0.0000,0000*60
$GPRMC,193850.00,A,3743.6382340,N,12208.2729260,W,50.8464,353.1539,070923,,,,A*51
$GPGGA,193851.00,3743.6522320,N,12208.2750500,W,1,0,0.0,1.2638,M,0.0000,M,0.0000,0000*64
$GPRMC,193851.00,A,3743.6522320,N,12208.2750500,W,50.5438,352.9709,070923,,,,A*59
$GPGGA,193852.00,3743.6660740,N,12208.2771980,W,1,0,0.0,1.8518,M,0.0000,M,0.0000,0000*6c
$GPRMC,193852.00,A,3743.6660740,N,12208.2771980,W,49.7951,352.6960,070923,,,,A*5c
$GPGGA,193853.00,3743.6797780,N,12208.2794360,W,1,0,0.0,2.3179,M,0.0000,M,0.0000,0000*6c
$GPRMC,193853.00,A,3743.6797780,N,12208.2794360,W,49.5929,352.2812,070923,,,,A*5a
$GPGGA,193854.00,3743.6934760,N,12208.2818540,W,1,0,0.0,2.6639,M,0.0000,M,0.0000,0000*6b
$GPRMC,193854.00,A,3743.6934760,N,12208.2818540,W,49.9839,351.6249,070923,,,,A*54
$GPGGA,193855.00,3743.7072880,N,12208.2844880,W,1,0,0.0,2.8500,M,0.0000,M,0.0000,0000*6e
$GPRMC,193855.00,A,3743.7072880,N,12208.2844880,W,50.4895,351.0023,070923,,,,A*5d
$GPGGA,193856.00,3743.7212260,N,12208.2873440,W,1,0,0.0,2.9680,M,0.0000,M,0.0000,0000*63
$GPRMC,193856.00,A,3743.7212260,N,12208.2873440,W,51.0776,350.3238,070923,,,,A*57
$GPGGA,193857.00,3743.7352600,N,12208.2905000,W,1,0,0.0,2.9801,M,0.0000,M,0.0000,0000*62
$GPRMC,193857.00,A,3743.7352600,N,12208.2905000,W,51.2012,349.2393,070923,,,,A*5f
$GPGGA,193858.00,3743.7491560,N,12208.2939380,W,1,0,0.0,2.9171,M,0.0000,M,0.0000,0000*6a
$GPRMC,193858.00,A,3743.7491560,N,12208.2939380,W,50.6060,348.3589,070923,,,,A*54
$GPGGA,193859.00,3743.7628300,N,12208.2975440,W,1,0,0.0,2.7672,M,0.0000,M,0.0000,0000*62
$GPRMC,193859.00,A,3743.7628300,N,12208.2975440,W,49.9292,347.9271,070923,,,,A*5b
$GPGGA,193900.00,3743.7763240,N,12208.3012160,W,1,0,0.0,2.4882,M,0.0000,M,0.0000,0000*68
$GPRMC,193900.00,A,3743.7763240,N,12208.3012160,W,49.3692,347.4850,070923,,,,A*59
$GPGGA,193901.00,3743.7896500,N,12208.3049360,W,1,0,0.0,2.2101,M,0.0000,M,0.0000,0000*67
$GPRMC,193901.00,A,3743.7896500,N,12208.3049360,W,48.8117,347.2241,070923,,,,A*5e
$GPGGA,193902.00,3743.8028080,N,12208.3086560,W,1,0,0.0,2.0262,M,0.0000,M,0.0000,0000*6a
$GPRMC,193902.00,A,3743.8028080,N,12208.3086560,W,48.1647,347.3388,070923,,,,A*59
$GPGGA,193903.00,3743.8158220,N,12208.3123100,W,1,0,0.0,1.9641,M,0.0000,M,0.0000,0000*66
$GPRMC,193903.00,A,3743.8158220,N,12208.3123100,W,47.8564,347.1858,070923,,,,A*5a
$GPGGA,193904.00,3743.8288120,N,12208.3160000,W,1,0,0.0,1.8951,M,0.0000,M,0.0000,0000*65
$GPRMC,193904.00,A,3743.8288120,N,12208.3160000,W,47.9374,347.1855,070923,,,,A*5d
$GPGGA,193905.00,3743.8418260,N,12208.3196720,W,1,0,0.0,1.9120,M,0.0000,M,0.0000,0000*6f
$GPRMC,193905.00,A,3743.8418260,N,12208.3196720,W,48.0063,347.1358,070923,,,,A*5d
$GPGGA,193906.00,3743.8548640,N,12208.3234160,W,1,0,0.0,1.8601,M,0.0000,M,0.0000,0000*62
$GPRMC,193906.00,A,3743.8548640,N,12208.3234160,W,48.1623,346.8983,070923,,,,A*52
$GPGGA,193907.00,3743.8679260,N,12208.3272140,W,1,0,0.0,1.8701,M,0.0000,M,0.0000,0000*65
$GPRMC,193907.00,A,3743.8679260,N,12208.3272140,W,48.2610,346.7806,070923,,,,A*54
$GPGGA,193908.00,3743.8809520,N,12208.3309760,W,1,0,0.0,1.8539,M,0.0000,M,0.0000,0000*60
$GPRMC,193908.00,A,3743.8809520,N,12208.3309760,W,47.7632,347.0753,070923,,,,A*5b
$GPGGA,193909.00,3743.8938100,N,12208.3346240,W,1,0,0.0,1.8030,M,0.0000,M,0.0000,0000*64
$GPRMC,193909.00,A,3743.8938100,N,12208.3346240,W,47.0663,347.2255,070923,,,,A*51
$GPGGA,193910.00,3743.9064940,N,12208.3382060,W,1,0,0.0,1.7711,M,0.0000,M,0.0000,0000*62
$GPRMC,193910.00,A,3743.9064940,N,12208.3382060,W,46.4181,347.2526,070923,,,,A*51
$GPGGA,193911.00,3743.9190040,N,12208.3417220,W,1,0,0.0,1.7451,M,0.0000,M,0.0000,0000*6a
$GPRMC,193911.00,A,3743.9190040,N,12208.3417220,W,45.8338,347.2454,070923,,,,A*55
$GPGGA,193912.00,3743.9315020,N,12208.3452380,W,1,0,0.0,1.7211,M,0.0000,M,0.0000,0000*68
$GPRMC,193912.00,A,3743.9315020,N,12208.3452380,W,46.3513,347.4146,070923,,,,A*52
$GPGGA,193913.00,3743.9441920,N,12208.3487360,W,1,0,0.0,1.6811,M,0.0000,M,0.0000,0000*6b
$GPRMC,193913.00,A,3743.9441920,N,12208.3487360,W,47.0392,347.6860,070923,,,,A*58
$GPGGA,193914.00,3743.9570740,N,12208.3521620,W,1,0,0.0,1.6571,M,0.0000,M,0.0000,0000*60
$GPRMC,193914.00,A,3743.9570740,N,12208.3521620,W,47.7163,348.1545,070923,,,,A*51
