% program   : RTKLIB ver.demo5 gdsc_2022
% inp file  : supplemental\gnss_log.obs
% inp file  : ..\slac2000.21o
% inp file  : ..\BRDM00DLR_S_20212000000_01D_MN.rnx
% obs start : 2021/07/19 20:49:35.4 GPST (week2167 161375.4s)
% obs end   : 2021/07/19 21:21:11.4 GPST (week2167 163271.4s)
% pos mode  : Kinematic
% freqs     : L1+L2/E5b+L5
% solution  : Combined-No Phase Reset
% elev mask : 5.0 deg
% dynamics  : on
% tidecorr  : off
% ionos opt : Broadcast
% tropo opt : Saastamoinen
% ephemeris : Broadcast
% navi sys  : GPS GLONASS Galileo
% amb res   : OFF
% amb glo   : OFF
% val thres : 3.0
% antenna1  :                       ( 0.0000  0.0000  0.0000)
% antenna2  :                       ( 0.0000  0.0000  0.0000)
% ref pos   : 37.416519040-122.204268280   63.7780
%
% (lat/lon/height=WGS84/ellipsoidal,Q=1:fix,2:float,3:sbas,4:dgps,5:single,6:ppp,ns=# of satellites)
%  GPST          latitude(deg) longitude(deg)  height(m)   Q  ns   sdn(m)   sde(m)   sdu(m)  sdne(m)  sdeu(m)  sdun(m) age(s)  ratio
2167 161375.441   37.444003526 -122.232822894   -38.7972   2   7   2.4870   1.5051   5.6972  -0.7766  -1.0630   1.8787   5.44    0.0
2167 161376.441   37.444098575 -122.232773275     9.6800   2   7   0.1383   0.1058   0.3446  -0.0524  -0.1007   0.0735   6.44    0.0
2167 161377.441   37.444097227 -122.232772979     9.1179   2   5   0.1378   0.1064   0.3425  -0.0538  -0.1014   0.0936   7.44    0.0
2167 161378.441   37.444096683 -122.232773257     8.9397   2   7   0.1409   0.1074   0.3473  -0.0570  -0.1025   0.0984   8.44    0.0
2167 161379.441   37.444096179 -122.232773217     8.4865   2   7   0.1509   0.1081   0.3692  -0.0632  -0.1146   0.1286   9.44    0.0
2167 161380.441   37.444097231 -122.232774346     7.7941   2   5   0.2042   0.1191   0.3521  -0.1043  -0.1187   0.1442  10.44    0.0
2167 161381.441   37.444091595 -122.232772094     7.8331   2   6   0.1066   0.1042   0.3538  -0.0184  -0.0945   0.0612  11.44    0.0
2167 161382.441   37.444091115 -122.232772737     7.8824   2   4   0.1066   0.1043   0.4605  -0.0260  -0.0488  -0.1010  12.44    0.0
2167 161383.441   37.444090963 -122.232772696     7.7700   2   4   0.0904   0.0990   0.3152   0.0274  -0.0938   0.0771  13.44    0.0
2167 161384.441   37.444087204 -122.232776212     7.6597   2   4   0.0906   0.0992   0.2962   0.0279  -0.0978   0.1042  14.44    0.0
2167 161385.441   37.444082225 -122.232783225     7.3604   2   4   0.0873   0.0982   0.2634   0.0282  -0.0946   0.0861 -14.56    0.0
2167 161386.441   37.444080285 -122.232792042     9.2373   2   6   0.0803   0.1004   0.2076   0.0297  -0.1011   0.0345 -13.56    0.0
2167 161387.441   37.444082251 -122.232798972    11.7358   4   3   0.0781   0.0938   0.1865  -0.0100  -0.0918   0.0381 -12.56    0.0
2167 161388.441   37.444081856 -122.232802579    11.9641   2   9   0.0818   0.1058   0.1781  -0.0319  -0.0875   0.0158 -11.56    0.0
2167 161389.441   37.444089164 -122.232822745    11.6243   2   8   0.1047   0.1722   0.1933  -0.0854  -0.0894  -0.0520 -10.56    0.0
2167 161390.441   37.444084363 -122.232799448    11.2603   2   5   0.0893   0.0846   0.1558   0.0617  -0.0808   0.0175  -9.56    0.0
2167 161391.441   37.444083543 -122.232827697    11.3057   2  12   0.1483   0.1323   0.1863   0.1209  -0.1017   0.0311  -8.56    0.0
2167 161392.441   37.444094069 -122.232853132    11.2492   2  10   0.0515   0.0576   0.1269   0.0164  -0.0662  -0.0387  -7.56    0.0
2167 161393.441   37.444083079 -122.232895490    11.3699   2  13   0.0502   0.0519   0.1230   0.0151  -0.0626  -0.0405  -6.56    0.0
2167 161394.441   37.444058905 -122.232929008    11.2623   2  11   0.0469   0.0483   0.1167   0.0106  -0.0570  -0.0348  -5.56    0.0
2167 161395.441   37.444032648 -122.232945782    11.2844   2  13   0.0467   0.0481   0.1164   0.0111  -0.0570  -0.0344  -4.56    0.0
2167 161396.441   37.444016438 -122.232956015    11.2050   2   6   0.0467   0.0482   0.1163   0.0116  -0.0570  -0.0346  -3.56    0.0
2167 161397.441   37.443997062 -122.232968439    11.1854   2  10   0.0467   0.0483   0.1164   0.0114  -0.0571  -0.0344  -2.56    0.0
2167 161398.441   37.443970145 -122.232984226    10.8988   2  10   0.0468   0.0481   0.1166   0.0122  -0.0569  -0.0348  -1.56    0.0
2167 161399.441   37.443934613 -122.233007489    10.8683   2  13   0.0469   0.0482   0.1158   0.0101  -0.0562  -0.0338  -0.56    0.0
2167 161400.441   37.443899788 -122.233032089    10.8798   2  13   0.0464   0.0470   0.1182   0.0174  -0.0577  -0.0368   0.44    0.0
2167 161401.441   37.443873282 -122.233056337    10.4661   2  14   0.0439   0.0455   0.1111   0.0114  -0.0558  -0.0286   1.44    0.0
2167 161402.441   37.443856540 -122.233075755    10.3236   2  12   0.0430   0.0455   0.1095   0.0087  -0.0553  -0.0251   2.44    0.0
2167 161403.441   37.443846815 -122.233095618    10.2692   2  14   0.0428   0.0464   0.1138   0.0069  -0.0577  -0.0227   3.44    0.0
2167 161404.441   37.443842682 -122.233124692    10.1105   2  15   0.0433   0.0487   0.1289   0.0066  -0.0652  -0.0225   4.44    0.0
2167 161405.441   37.443848956 -122.233167034     9.8538   2   9   0.0367   0.0394   0.1009   0.0045  -0.0493  -0.0182   5.44    0.0
2167 161406.441   37.443870767 -122.233225083    10.1042   2  15   0.0268   0.0462   0.0936   0.0041  -0.0567  -0.0307   6.44    0.0
2167 161407.441   37.443902677 -122.233299663     9.8576   2   5   0.0268   0.0267   0.0657   0.0061  -0.0267  -0.0312   7.44    0.0
2167 161408.441   37.443944195 -122.233386318     9.6435   2  12   0.0268   0.0259   0.0649   0.0060  -0.0254  -0.0312   8.44    0.0
2167 161409.441   37.443991249 -122.233481966     9.3877   2  11   0.0268   0.0257   0.0650   0.0062  -0.0249  -0.0313   9.44    0.0
2167 161410.441   37.444041402 -122.233582732     9.1046   2  11   0.0268   0.0256   0.0658   0.0063  -0.0251  -0.0313  10.44    0.0
2167 161411.441   37.444093750 -122.233685895     8.9107   2  12   0.0268   0.0255   0.0674   0.0062  -0.0245  -0.0316  11.44    0.0
2167 161412.441   37.444147723 -122.233790519     8.6056   2  14   0.0267   0.0253   0.0626   0.0065  -0.0242  -0.0312  12.44    0.0
2167 161413.441   37.444202487 -122.233894320     8.3792   2  11   0.0268   0.0259   0.0633   0.0067  -0.0251  -0.0312  13.44    0.0
2167 161414.441   37.444255099 -122.233992350     8.0804   2  11   0.0268   0.0268   0.0650   0.0064  -0.0272  -0.0311  14.44    0.0
2167 161415.441   37.444300933 -122.234079836     7.9454   2  16   0.0267   0.0245   0.0614   0.0071  -0.0225  -0.0315 -14.56    0.0
2167 161416.441   37.444339566 -122.234154815     7.8037   2  12   0.0267   0.0243   0.0611   0.0070  -0.0221  -0.0314 -13.56    0.0
2167 161417.441   37.444364627 -122.234211134     7.6378   2  15   0.0267   0.0240   0.0606   0.0069  -0.0215  -0.0314 -12.56    0.0
2167 161418.441   37.444379472 -122.234245501     7.5889   2  14   0.0267   0.0240   0.0606   0.0069  -0.0216  -0.0314 -11.56    0.0
2167 161419.441   37.444388111 -122.234265292     7.5001   2  16   0.0267   0.0240   0.0606   0.0069  -0.0215  -0.0314 -10.56    0.0
2167 161420.441   37.444390345 -122.234270855     7.5335   2  14   0.0267   0.0239   0.0605   0.0068  -0.0214  -0.0314  -9.56    0.0
2167 161421.441   37.444390393 -122.234270980     7.5411   2  12   0.0267   0.0237   0.0605   0.0065  -0.0212  -0.0313  -8.56    0.0
2167 161422.441   37.444390284 -122.234271118     7.5588   2  14   0.0267   0.0237   0.0605   0.0065  -0.0213  -0.0313  -7.56    0.0
2167 161423.441   37.444390288 -122.234271179     7.5542   2  13   0.0267   0.0236   0.0604   0.0065  -0.0211  -0.0313  -6.56    0.0
2167 161424.441   37.444390286 -122.234271512     7.5981   2  12   0.0267   0.0237   0.0604   0.0066  -0.0212  -0.0313  -5.56    0.0
2167 161425.441   37.444390289 -122.234271325     7.5737   2  12   0.0267   0.0238   0.0604   0.0066  -0.0213  -0.0313  -4.56    0.0
2167 161426.441   37.444390371 -122.234271261     7.5500   2  11   0.0267   0.0236   0.0604   0.0065  -0.0211  -0.0313  -3.56    0.0
2167 161427.441   37.444390395 -122.234271203     7.5481   2   9   0.0267   0.0236   0.0604   0.0065  -0.0211  -0.0313  -2.56    0.0
2167 161428.441   37.444390437 -122.234271249     7.5374   2  12   0.0267   0.0235   0.0604   0.0064  -0.0210  -0.0313  -1.56    0.0
2167 161429.441   37.444390380 -122.234270715     7.5223   2  12   0.0267   0.0236   0.0604   0.0065  -0.0211  -0.0313  -0.56    0.0
2167 161430.441   37.444390391 -122.234270694     7.5353   2  13   0.0267   0.0235   0.0603   0.0065  -0.0209  -0.0313   0.44    0.0
2167 161431.441   37.444390371 -122.234270879     7.5528   2  14   0.0267   0.0235   0.0603   0.0064  -0.0210  -0.0312   1.44    0.0
2167 161432.441   37.444391206 -122.234272676     7.5648   2  11   0.0268   0.0236   0.0603   0.0069  -0.0209  -0.0314   2.44    0.0
2167 161433.441   37.444400845 -122.234296804     7.4855   2  13   0.0266   0.0228   0.0601   0.0064  -0.0200  -0.0313   3.44    0.0
2167 161434.441   37.444416067 -122.234349275     7.4943   2  11   0.0267   0.0227   0.0605   0.0066  -0.0202  -0.0315   4.44    0.0
2167 161435.441   37.444423186 -122.234420339     7.5448   2  12   0.0265   0.0226   0.0600   0.0058  -0.0195  -0.0310   5.44    0.0
2167 161436.441   37.444411613 -122.234502495     7.5800   2  17   0.0259   0.0226   0.0575   0.0041  -0.0184  -0.0295   6.44    0.0
2167 161437.441   37.444372970 -122.234585242     7.4966   2  17   0.0258   0.0224   0.0565   0.0039  -0.0182  -0.0292   7.44    0.0
2167 161438.441   37.444307368 -122.234658571     7.3679   2  16   0.0257   0.0222   0.0560   0.0037  -0.0178  -0.0292   8.44    0.0
2167 161439.441   37.444223887 -122.234726962     7.6211   2  16   0.0257   0.0223   0.0559   0.0035  -0.0178  -0.0291   9.44    0.0
2167 161440.441   37.444125558 -122.234800968     7.9499   2  15   0.0257   0.0223   0.0558   0.0035  -0.0177  -0.0290  10.44    0.0
2167 161441.441   37.444016307 -122.234875694     8.3226   2  11   0.0257   0.0222   0.0557   0.0036  -0.0177  -0.0290  11.44    0.0
2167 161442.441   37.443897429 -122.234952507     8.8599   2  15   0.0257   0.0223   0.0558   0.0037  -0.0177  -0.0291  12.44    0.0
2167 161443.441   37.443768332 -122.235035232     9.1357   2  12   0.0257   0.0223   0.0559   0.0040  -0.0177  -0.0291  13.44    0.0
2167 161444.441   37.443631822 -122.235123590     9.3125   2  15   0.0257   0.0225   0.0557   0.0045  -0.0178  -0.0290  14.44    0.0
2167 161445.441   37.443487001 -122.235219007     9.4705   2   6   0.0255   0.0223   0.0557   0.0031  -0.0176  -0.0289 -14.56    0.0
2167 161446.441   37.443337087 -122.235318987     9.6505   2  13   0.0255   0.0224   0.0558   0.0033  -0.0176  -0.0290 -13.56    0.0
2167 161447.441   37.443188585 -122.235419490     9.8238   2  13   0.0255   0.0224   0.0559   0.0033  -0.0177  -0.0290 -12.56    0.0
2167 161448.441   37.443043985 -122.235518460     9.9720   2  11   0.0255   0.0225   0.0559   0.0035  -0.0180  -0.0289 -11.56    0.0
2167 161449.441   37.442900310 -122.235613599    10.3625   2  15   0.0255   0.0224   0.0561   0.0033  -0.0179  -0.0289 -10.56    0.0
2167 161450.441   37.442756722 -122.235709064    10.9047   2  15   0.0255   0.0224   0.0562   0.0034  -0.0177  -0.0290  -9.56    0.0
2167 161451.441   37.442612656 -122.235803811    11.5067   2  13   0.0256   0.0225   0.0562   0.0034  -0.0180  -0.0290  -8.56    0.0
2167 161452.441   37.442468911 -122.235897589    12.3328   2  12   0.0255   0.0225   0.0562   0.0033  -0.0181  -0.0289  -7.56    0.0
2167 161453.441   37.442329339 -122.235988829    13.3433   2  15   0.0255   0.0228   0.0569   0.0032  -0.0187  -0.0289  -6.56    0.0
2167 161454.441   37.442195660 -122.236077364    14.1738   2  14   0.0255   0.0236   0.0574   0.0029  -0.0206  -0.0286  -5.56    0.0
2167 161455.441   37.442066725 -122.236162211    16.0182   2  14   0.0255   0.0236   0.0576   0.0030  -0.0205  -0.0287  -4.56    0.0
2167 161456.441   37.441940717 -122.236249327    16.5704   2  13   0.0254   0.0221   0.0559   0.0050  -0.0172  -0.0295  -3.56    0.0
2167 161457.441   37.441815117 -122.236337522    17.3132   2  14   0.0253   0.0220   0.0560   0.0051  -0.0175  -0.0295  -2.56    0.0
2167 161458.441   37.441688788 -122.236427573    17.9012   2  15   0.0254   0.0221   0.0568   0.0051  -0.0176  -0.0296  -1.56    0.0
2167 161459.441   37.441557100 -122.236520778    18.5904   2  11   0.0255   0.0222   0.0555   0.0053  -0.0181  -0.0295  -0.56    0.0
2167 161460.441   37.441421784 -122.236624940    19.2561   2  13   0.0257   0.0221   0.0560   0.0059  -0.0184  -0.0300   0.44    0.0
2167 161461.441   37.441288897 -122.236746762    20.1918   2  14   0.0260   0.0222   0.0570   0.0066  -0.0190  -0.0307   1.44    0.0
2167 161462.441   37.441156851 -122.236885190    20.9582   2  12   0.0251   0.0219   0.0555   0.0045  -0.0176  -0.0292   2.44    0.0
2167 161463.441   37.441026784 -122.237040944    22.0021   2  16   0.0251   0.0219   0.0550   0.0043  -0.0174  -0.0290   3.44    0.0
2167 161464.441   37.440900915 -122.237214162    23.1180   2  19   0.0251   0.0220   0.0551   0.0040  -0.0172  -0.0289   4.44    0.0
2167 161465.441   37.440786450 -122.237401351    24.2208   2  16   0.0250   0.0220   0.0551   0.0040  -0.0169  -0.0290   5.44    0.0
2167 161466.441   37.440679493 -122.237597982    25.6694   2  14   0.0251   0.0221   0.0557   0.0040  -0.0168  -0.0290   6.44    0.0
2167 161467.441   37.440574995 -122.237796664    26.9473   2  17   0.0252   0.0223   0.0571   0.0040  -0.0162  -0.0292   7.44    0.0
2167 161468.441   37.440468419 -122.237993132    28.0285   2  15   0.0252   0.0219   0.0548   0.0040  -0.0175  -0.0290   8.44    0.0
2167 161469.441   37.440354313 -122.238179620    29.8329   2  10   0.0254   0.0220   0.0553   0.0039  -0.0176  -0.0291   9.44    0.0
2167 161470.441   37.440236074 -122.238363451    30.7986   2  10   0.0254   0.0219   0.0551   0.0043  -0.0174  -0.0293  10.44    0.0
2167 161471.441   37.440114233 -122.238544854    31.8276   2  14   0.0256   0.0220   0.0555   0.0042  -0.0174  -0.0295  11.44    0.0
2167 161472.441   37.439987421 -122.238724103    32.9456   2  18   0.0263   0.0222   0.0563   0.0039  -0.0174  -0.0299  12.44    0.0
2167 161473.441   37.439853900 -122.238898557    33.9236   2  16   0.0252   0.0224   0.0564   0.0039  -0.0189  -0.0292  13.44    0.0
2167 161474.441   37.439716974 -122.239066913    34.8605   2  17   0.0244   0.0215   0.0575   0.0047  -0.0183  -0.0285  14.44    0.0
2167 161475.441   37.439576460 -122.239227719    35.8534   2  14   0.0240   0.0213   0.0527   0.0045  -0.0164  -0.0285 -14.56    0.0
2167 161476.441   37.439434377 -122.239375771    37.0889   2  16   0.0239   0.0212   0.0524   0.0042  -0.0161  -0.0283 -13.56    0.0
2167 161477.441   37.439292726 -122.239516283    38.1792   2  14   0.0239   0.0213   0.0523   0.0042  -0.0161  -0.0282 -12.56    0.0
2167 161478.441   37.439150283 -122.239649737    39.2040   2  17   0.0239   0.0213   0.0524   0.0043  -0.0162  -0.0283 -11.56    0.0
2167 161479.441   37.439005831 -122.239775849    40.0776   2  16   0.0238   0.0212   0.0522   0.0040  -0.0160  -0.0282 -10.56    0.0
2167 161480.441   37.438859653 -122.239895206    40.9408   2  16   0.0238   0.0212   0.0522   0.0040  -0.0161  -0.0282  -9.56    0.0
2167 161481.441   37.438711438 -122.240008934    41.6355   2  15   0.0239   0.0212   0.0522   0.0041  -0.0161  -0.0282  -8.56    0.0
2167 161482.441   37.438559025 -122.240118212    42.1145   2  14   0.0239   0.0212   0.0523   0.0040  -0.0161  -0.0282  -7.56    0.0
2167 161483.441   37.438401524 -122.240221959    42.5289   2  13   0.0239   0.0212   0.0523   0.0040  -0.0161  -0.0282  -6.56    0.0
2167 161484.441   37.438239079 -122.240319265    42.8438   2  15   0.0239   0.0213   0.0523   0.0040  -0.0163  -0.0281  -5.56    0.0
2167 161485.441   37.438072122 -122.240410811    43.0443   2  17   0.0239   0.0214   0.0525   0.0039  -0.0165  -0.0279  -4.56    0.0
2167 161486.441   37.437901537 -122.240497887    43.2587   2  15   0.0238   0.0211   0.0518   0.0042  -0.0157  -0.0282  -3.56    0.0
2167 161487.441   37.437729028 -122.240580294    43.4640   2  10   0.0237   0.0212   0.0516   0.0042  -0.0157  -0.0281  -2.56    0.0
2167 161488.441   37.437555703 -122.240660530    43.4929   2  16   0.0238   0.0212   0.0517   0.0042  -0.0158  -0.0280  -1.56    0.0
2167 161489.441   37.437382617 -122.240744690    43.7892   2  11   0.0238   0.0212   0.0518   0.0041  -0.0158  -0.0279  -0.56    0.0
2167 161490.441   37.437210873 -122.240834480    44.1672   2  17   0.0236   0.0211   0.0514   0.0044  -0.0157  -0.0284   0.44    0.0
2167 161491.441   37.437042765 -122.240929593    44.6457   2  11   0.0236   0.0211   0.0515   0.0041  -0.0157  -0.0283   1.44    0.0
2167 161492.441   37.436882456 -122.241032479    45.1341   2   7   0.0235   0.0210   0.0514   0.0039  -0.0156  -0.0283   2.44    0.0
2167 161493.441   37.436732268 -122.241148876    45.7514   2  15   0.0235   0.0210   0.0515   0.0040  -0.0156  -0.0284   3.44    0.0
2167 161494.441   37.436597501 -122.241281103    46.4735   2  16   0.0235   0.0210   0.0507   0.0037  -0.0152  -0.0283   4.44    0.0
2167 161495.441   37.436479385 -122.241426632    47.1470   2  17   0.0235   0.0210   0.0507   0.0035  -0.0152  -0.0282   5.44    0.0
2167 161496.441   37.436372512 -122.241575930    47.7579   2  17   0.0235   0.0210   0.0505   0.0037  -0.0150  -0.0282   6.44    0.0
2167 161497.441   37.436274265 -122.241723804    48.4643   2  17   0.0235   0.0210   0.0505   0.0037  -0.0150  -0.0283   7.44    0.0
2167 161498.441   37.436186657 -122.241868539    49.1104   2  17   0.0235   0.0210   0.0505   0.0038  -0.0150  -0.0283   8.44    0.0
2167 161499.441   37.436108799 -122.242005712    49.7363   2  14   0.0235   0.0210   0.0505   0.0039  -0.0152  -0.0283   9.44    0.0
2167 161500.441   37.436047784 -122.242130838    50.3326   2  19   0.0236   0.0210   0.0506   0.0040  -0.0152  -0.0284  10.44    0.0
2167 161501.441   37.436007047 -122.242234874    50.6078   2  20   0.0235   0.0210   0.0505   0.0037  -0.0151  -0.0283  11.44    0.0
2167 161502.441   37.435987313 -122.242314092    50.9766   2  21   0.0236   0.0211   0.0510   0.0039  -0.0154  -0.0286  12.44    0.0
2167 161503.441   37.435977885 -122.242367135    51.1809   2  15   0.0239   0.0213   0.0519   0.0050  -0.0162  -0.0292  13.44    0.0
2167 161504.441   37.435974525 -122.242396300    51.3117   2  16   0.0236   0.0210   0.0511   0.0026  -0.0149  -0.0285  14.44    0.0
2167 161505.441   37.435972590 -122.242419183    51.3779   2  17   0.0236   0.0210   0.0511   0.0025  -0.0150  -0.0286 -14.56    0.0
2167 161506.441   37.435970927 -122.242458669    51.4999   2  19   0.0235   0.0211   0.0514   0.0031  -0.0153  -0.0286 -13.56    0.0
2167 161507.441   37.435971828 -122.242525534    51.7375   2  20   0.0232   0.0210   0.0517   0.0012  -0.0145  -0.0282 -12.56    0.0
2167 161508.441   37.435980449 -122.242610582    52.0589   2  18   0.0232   0.0210   0.0514  -0.0018  -0.0151  -0.0282 -11.56    0.0
2167 161509.441   37.435999511 -122.242703362    52.7277   2  13   0.0231   0.0213   0.0527  -0.0015  -0.0161  -0.0282 -10.56    0.0
2167 161510.441   37.436027143 -122.242805291    53.1272   2  15   0.0231   0.0206   0.0502  -0.0006  -0.0132  -0.0284  -9.56    0.0
2167 161511.441   37.436060880 -122.242917539    53.7017   2  16   0.0231   0.0207   0.0506   0.0004  -0.0133  -0.0283  -8.56    0.0
2167 161512.441   37.436100738 -122.243035915    54.2922   2  15   0.0231   0.0208   0.0516  -0.0007  -0.0134  -0.0284  -7.56    0.0
2167 161513.441   37.436145416 -122.243157610    54.7441   2  15   0.0231   0.0207   0.0515  -0.0013  -0.0125  -0.0285  -6.56    0.0
2167 161514.441   37.436191955 -122.243277362    55.4008   2  17   0.0231   0.0207   0.0519  -0.0013  -0.0122  -0.0286  -5.56    0.0
2167 161515.441   37.436236809 -122.243390907    56.0701   2   8   0.0231   0.0207   0.0513  -0.0012  -0.0126  -0.0285  -4.56    0.0
2167 161516.441   37.436280696 -122.243501272    56.6488   2  15   0.0231   0.0207   0.0495  -0.0015  -0.0134  -0.0286  -3.56    0.0
2167 161517.441   37.436326169 -122.243612905    57.2608   2  17   0.0231   0.0206   0.0491  -0.0017  -0.0133  -0.0285  -2.56    0.0
2167 161518.441   37.436375499 -122.243728715    57.9849   2  16   0.0231   0.0206   0.0489  -0.0017  -0.0134  -0.0284  -1.56    0.0
2167 161519.441   37.436429231 -122.243847384    58.7047   2  18   0.0231   0.0205   0.0487  -0.0012  -0.0132  -0.0284  -0.56    0.0
2167 161520.441   37.436487149 -122.243965655    59.4494   2  18   0.0231   0.0204   0.0487  -0.0012  -0.0131  -0.0284   0.44    0.0
2167 161521.441   37.436551199 -122.244082676    60.1388   2  18   0.0231   0.0204   0.0487  -0.0012  -0.0132  -0.0285   1.44    0.0
2167 161522.441   37.436620849 -122.244198787    60.8852   2  19   0.0231   0.0204   0.0487  -0.0011  -0.0131  -0.0284   2.44    0.0
2167 161523.441   37.436695441 -122.244314085    61.6436   2  16   0.0230   0.0202   0.0486  -0.0013  -0.0129  -0.0284   3.44    0.0
2167 161524.441   37.436774947 -122.244428190    62.5110   2  19   0.0230   0.0202   0.0485  -0.0016  -0.0129  -0.0284   4.44    0.0
2167 161525.441   37.436857958 -122.244542594    63.3763   2  18   0.0230   0.0202   0.0485  -0.0015  -0.0128  -0.0284   5.44    0.0
2167 161526.441   37.436943138 -122.244658272    64.2081   2  19   0.0230   0.0202   0.0485  -0.0015  -0.0129  -0.0284   6.44    0.0
2167 161527.441   37.437029344 -122.244776124    64.9783   2  20   0.0230   0.0202   0.0485  -0.0015  -0.0129  -0.0284   7.44    0.0
2167 161528.441   37.437117478 -122.244897894    65.6647   2  19   0.0230   0.0202   0.0486  -0.0015  -0.0129  -0.0284   8.44    0.0
2167 161529.441   37.437208524 -122.245023161    66.3500   2  16   0.0230   0.0202   0.0485  -0.0015  -0.0129  -0.0284   9.44    0.0
2167 161530.441   37.437303344 -122.245152015    67.0341   2  16   0.0230   0.0202   0.0485  -0.0015  -0.0129  -0.0284  10.44    0.0
2167 161531.441   37.437402470 -122.245285827    67.6841   2  19   0.0230   0.0202   0.0485  -0.0015  -0.0129  -0.0284  11.44    0.0
2167 161532.441   37.437505755 -122.245424778    68.3704   2  19   0.0231   0.0202   0.0485  -0.0016  -0.0129  -0.0284  12.44    0.0
2167 161533.441   37.437613796 -122.245567188    69.0552   2  18   0.0230   0.0202   0.0485  -0.0016  -0.0129  -0.0284  13.44    0.0
2167 161534.441   37.437723918 -122.245709546    69.7570   2  18   0.0230   0.0202   0.0485  -0.0016  -0.0129  -0.0284  14.44    0.0
2167 161535.441   37.437834413 -122.245850830    70.5756   2  19   0.0231   0.0202   0.0486  -0.0017  -0.0129  -0.0284 -14.56    0.0
2167 161536.441   37.437942618 -122.245994249    71.3652   2  20   0.0231   0.0202   0.0486  -0.0019  -0.0128  -0.0284 -13.56    0.0
2167 161537.441   37.438050514 -122.246142846    72.0739   2  16   0.0231   0.0202   0.0486  -0.0017  -0.0129  -0.0284 -12.56    0.0
2167 161538.441   37.438162050 -122.246296115    72.8770   2  19   0.0231   0.0202   0.0485  -0.0018  -0.0128  -0.0284 -11.56    0.0
2167 161539.441   37.438279859 -122.246451607    73.6574   2  20   0.0231   0.0202   0.0486  -0.0018  -0.0129  -0.0284 -10.56    0.0
2167 161540.441   37.438402916 -122.246608559    74.5203   2  19   0.0231   0.0202   0.0485  -0.0017  -0.0129  -0.0284  -9.56    0.0
2167 161541.441   37.438528237 -122.246763145    75.3069   2  18   0.0231   0.0202   0.0485  -0.0017  -0.0129  -0.0284  -8.56    0.0
2167 161542.441   37.438653799 -122.246915694    76.0281   2  20   0.0231   0.0202   0.0485  -0.0017  -0.0129  -0.0284  -7.56    0.0
2167 161543.441   37.438778403 -122.247067097    76.8215   2  19   0.0230   0.0202   0.0485  -0.0018  -0.0129  -0.0284  -6.56    0.0
2167 161544.441   37.438900612 -122.247217805    77.6028   2  19   0.0231   0.0202   0.0486  -0.0018  -0.0129  -0.0284  -5.56    0.0
2167 161545.441   37.439022394 -122.247370453    78.3724   2  19   0.0231   0.0202   0.0486  -0.0018  -0.0129  -0.0284  -4.56    0.0
2167 161546.441   37.439145418 -122.247525664    79.1478   2  19   0.0230   0.0202   0.0485  -0.0019  -0.0128  -0.0284  -3.56    0.0
2167 161547.441   37.439271009 -122.247685230    79.9644   2  20   0.0230   0.0202   0.0485  -0.0020  -0.0128  -0.0284  -2.56    0.0
2167 161548.441   37.439398966 -122.247847697    80.7578   2  20   0.0230   0.0202   0.0485  -0.0020  -0.0128  -0.0284  -1.56    0.0
2167 161549.441   37.439528527 -122.248012547    81.5771   2  19   0.0230   0.0202   0.0485  -0.0020  -0.0128  -0.0284  -0.56    0.0
2167 161550.441   37.439658835 -122.248178005    82.3921   2  18   0.0230   0.0202   0.0485  -0.0019  -0.0128  -0.0284   0.44    0.0
2167 161551.441   37.439789483 -122.248343874    83.2153   2  18   0.0231   0.0202   0.0485  -0.0020  -0.0128  -0.0284   1.44    0.0
2167 161552.441   37.439920267 -122.248511632    84.0214   2  19   0.0230   0.0202   0.0485  -0.0020  -0.0128  -0.0284   2.44    0.0
2167 161553.441   37.440051159 -122.248681127    84.8733   2  18   0.0230   0.0202   0.0485  -0.0020  -0.0128  -0.0284   3.44    0.0
2167 161554.441   37.440182122 -122.248851398    85.7229   2  18   0.0230   0.0202   0.0485  -0.0021  -0.0128  -0.0284   4.44    0.0
2167 161555.441   37.440313448 -122.249023711    86.6044   2  17   0.0230   0.0202   0.0486  -0.0020  -0.0128  -0.0284   5.44    0.0
2167 161556.441   37.440445070 -122.249196942    87.4286   2  16   0.0230   0.0202   0.0486  -0.0021  -0.0129  -0.0284   6.44    0.0
2167 161557.441   37.440576836 -122.249369664    88.2761   2  17   0.0231   0.0202   0.0486  -0.0021  -0.0129  -0.0284   7.44    0.0
2167 161558.441   37.440708591 -122.249541711    89.1233   2  17   0.0230   0.0202   0.0486  -0.0021  -0.0129  -0.0284   8.44    0.0
2167 161559.441   37.440840912 -122.249714124    89.9371   2  18   0.0230   0.0202   0.0486  -0.0021  -0.0129  -0.0284   9.44    0.0
2167 161560.441   37.440974805 -122.249887509    90.7866   2  17   0.0230   0.0202   0.0486  -0.0020  -0.0129  -0.0284  10.44    0.0
2167 161561.441   37.441109994 -122.250062582    91.6376   2  15   0.0230   0.0202   0.0485  -0.0022  -0.0128  -0.0283  11.44    0.0
2167 161562.441   37.441246600 -122.250239916    92.4882   2  19   0.0230   0.0202   0.0485  -0.0022  -0.0128  -0.0283  12.44    0.0
2167 161563.441   37.441384728 -122.250419149    93.3780   2  14   0.0230   0.0202   0.0485  -0.0022  -0.0128  -0.0283  13.44    0.0
2167 161564.441   37.441523911 -122.250600394    94.3478   2  18   0.0230   0.0202   0.0485  -0.0022  -0.0128  -0.0283  14.44    0.0
2167 161565.441   37.441663784 -122.250783446    95.4319   2  19   0.0230   0.0202   0.0485  -0.0022  -0.0128  -0.0283 -14.56    0.0
2167 161566.441   37.441804830 -122.250968350    96.4670   2  18   0.0230   0.0202   0.0485  -0.0022  -0.0128  -0.0283 -13.56    0.0
2167 161567.441   37.441946951 -122.251154332    97.5385   2  18   0.0231   0.0202   0.0485  -0.0021  -0.0129  -0.0284 -12.56    0.0
2167 161568.441   37.442088247 -122.251340903    98.5310   2  17   0.0231   0.0202   0.0486  -0.0024  -0.0128  -0.0284 -11.56    0.0
2167 161569.441   37.442226415 -122.251529660    99.4909   2  14   0.0231   0.0202   0.0486  -0.0025  -0.0128  -0.0284 -10.56    0.0
2167 161570.441   37.442360576 -122.251722584   100.3686   2  10   0.0230   0.0202   0.0486  -0.0023  -0.0129  -0.0284  -9.56    0.0
2167 161571.441   37.442490276 -122.251919297   101.2878   2  13   0.0230   0.0202   0.0486  -0.0023  -0.0129  -0.0283  -8.56    0.0
2167 161572.441   37.442616013 -122.252119194   102.1635   2  14   0.0230   0.0202   0.0486  -0.0022  -0.0130  -0.0283  -7.56    0.0
2167 161573.441   37.442736570 -122.252323210   103.0916   2  13   0.0230   0.0202   0.0486  -0.0023  -0.0129  -0.0283  -6.56    0.0
2167 161574.441   37.442852455 -122.252530623   103.9974   2  16   0.0230   0.0202   0.0487  -0.0021  -0.0130  -0.0284  -5.56    0.0
2167 161575.441   37.442963744 -122.252741348   104.8868   2  15   0.0230   0.0203   0.0488  -0.0019  -0.0131  -0.0285  -4.56    0.0
2167 161576.441   37.443070678 -122.252954731   105.7575   2  16   0.0231   0.0203   0.0488  -0.0018  -0.0131  -0.0285  -3.56    0.0
2167 161577.441   37.443173277 -122.253171014   106.6438   2  16   0.0231   0.0203   0.0488  -0.0018  -0.0132  -0.0285  -2.56    0.0
2167 161578.441   37.443272375 -122.253389787   107.4900   2  14   0.0230   0.0203   0.0488  -0.0019  -0.0131  -0.0284  -1.56    0.0
2167 161579.441   37.443367783 -122.253611016   108.3418   2  14   0.0230   0.0203   0.0487  -0.0022  -0.0130  -0.0284  -0.56    0.0
2167 161580.441   37.443458905 -122.253835229   109.2187   2  14   0.0230   0.0203   0.0488  -0.0023  -0.0130  -0.0284   0.44    0.0
2167 161581.441   37.443545459 -122.254062117   110.1346   2  17   0.0231   0.0203   0.0489  -0.0022  -0.0131  -0.0285   1.44    0.0
2167 161582.441   37.443627382 -122.254290624   111.0220   2  19   0.0231   0.0203   0.0489  -0.0023  -0.0131  -0.0285   2.44    0.0
2167 161583.441   37.443704174 -122.254520597   111.9272   2  19   0.0231   0.0204   0.0490  -0.0026  -0.0130  -0.0286   3.44    0.0
2167 161584.441   37.443776178 -122.254752168   112.7985   2  19   0.0231   0.0204   0.0489  -0.0024  -0.0130  -0.0286   4.44    0.0
2167 161585.441   37.443843594 -122.254985452   113.6454   2  17   0.0231   0.0204   0.0489  -0.0023  -0.0131  -0.0286   5.44    0.0
2167 161586.441   37.443906006 -122.255216520   114.5235   2  18   0.0231   0.0205   0.0489  -0.0024  -0.0132  -0.0286   6.44    0.0
2167 161587.441   37.443964671 -122.255448657   115.3970   2  17   0.0232   0.0206   0.0490  -0.0027  -0.0133  -0.0286   7.44    0.0
2167 161588.441   37.444019349 -122.255681833   116.2025   2  16   0.0232   0.0205   0.0491  -0.0025  -0.0132  -0.0287   8.44    0.0
2167 161589.441   37.444069246 -122.255915749   117.0266   2  15   0.0232   0.0204   0.0492  -0.0018  -0.0133  -0.0288   9.44    0.0
2167 161590.441   37.444114459 -122.256150010   117.8345   2  17   0.0233   0.0204   0.0495  -0.0007  -0.0136  -0.0290  10.44    0.0
2167 161591.441   37.444154723 -122.256384681   118.6578   2  16   0.0234   0.0204   0.0497  -0.0004  -0.0135  -0.0291  11.44    0.0
2167 161592.441   37.444190652 -122.256619543   119.3533   2  18   0.0233   0.0203   0.0492  -0.0020  -0.0132  -0.0288  12.44    0.0
2167 161593.441   37.444222628 -122.256854528   120.0477   2  18   0.0231   0.0202   0.0489  -0.0028  -0.0128  -0.0285  13.44    0.0
2167 161594.441   37.444250887 -122.257089980   120.7298   2  15   0.0231   0.0202   0.0488  -0.0032  -0.0127  -0.0285  14.44    0.0
2167 161595.441   37.444274872 -122.257325872   121.3537   2  15   0.0231   0.0203   0.0488  -0.0034  -0.0126  -0.0285 -14.56    0.0
2167 161596.441   37.444294201 -122.257562735   121.9686   2  14   0.0231   0.0203   0.0488  -0.0033  -0.0127  -0.0284 -13.56    0.0
2167 161597.441   37.444308852 -122.257800136   122.5321   2  15   0.0231   0.0203   0.0488  -0.0034  -0.0126  -0.0285 -12.56    0.0
2167 161598.441   37.444318864 -122.258038436   123.0446   2  16   0.0231   0.0203   0.0488  -0.0034  -0.0127  -0.0285 -11.56    0.0
2167 161599.441   37.444324591 -122.258277782   123.5490   2  12   0.0231   0.0203   0.0488  -0.0034  -0.0127  -0.0285 -10.56    0.0
2167 161600.441   37.444326027 -122.258517960   124.0800   2  15   0.0231   0.0203   0.0489  -0.0035  -0.0126  -0.0285  -9.56    0.0
2167 161601.441   37.444322927 -122.258759533   124.4940   2  17   0.0232   0.0203   0.0489  -0.0038  -0.0124  -0.0286  -8.56    0.0
2167 161602.441   37.444314841 -122.259002975   124.8617   2  17   0.0231   0.0203   0.0489  -0.0036  -0.0126  -0.0284  -7.56    0.0
2167 161603.441   37.444302950 -122.259248221   125.1782   2  15   0.0232   0.0203   0.0491  -0.0033  -0.0129  -0.0286  -6.56    0.0
2167 161604.441   37.444287609 -122.259496142   125.3792   2  18   0.0232   0.0203   0.0490  -0.0034  -0.0128  -0.0285  -5.56    0.0
2167 161605.441   37.444268580 -122.259747458   125.6104   2  17   0.0233   0.0204   0.0491  -0.0038  -0.0127  -0.0286  -4.56    0.0
2167 161606.441   37.444248033 -122.260003176   125.8456   2  16   0.0233   0.0204   0.0491  -0.0039  -0.0127  -0.0286  -3.56    0.0
2167 161607.441   37.444228099 -122.260261647   125.9441   2  13   0.0232   0.0204   0.0491  -0.0037  -0.0128  -0.0285  -2.56    0.0
2167 161608.441   37.444207875 -122.260522909   126.0200   2  17   0.0232   0.0205   0.0492  -0.0039  -0.0131  -0.0285  -1.56    0.0
2167 161609.441   37.444186419 -122.260788589   126.1195   2  14   0.0232   0.0206   0.0493  -0.0041  -0.0135  -0.0284  -0.56    0.0
2167 161610.441   37.444164833 -122.261054719   126.2319   2  15   0.0233   0.0206   0.0492  -0.0042  -0.0133  -0.0283   0.44    0.0
2167 161611.441   37.444143302 -122.261317275   126.3902   2  17   0.0232   0.0204   0.0490  -0.0038  -0.0130  -0.0284   1.44    0.0
2167 161612.441   37.444121705 -122.261575649   126.5597   2  16   0.0232   0.0204   0.0490  -0.0038  -0.0129  -0.0284   2.44    0.0
2167 161613.441   37.444100287 -122.261829589   126.6887   2  17   0.0232   0.0204   0.0489  -0.0037  -0.0128  -0.0284   3.44    0.0
2167 161614.441   37.444080548 -122.262079826   126.8198   2  18   0.0232   0.0204   0.0489  -0.0036  -0.0127  -0.0284   4.44    0.0
2167 161615.441   37.444061314 -122.262325935   126.9263   2  16   0.0232   0.0204   0.0489  -0.0034  -0.0126  -0.0283   5.44    0.0
2167 161616.441   37.444042225 -122.262568250   127.0514   2  16   0.0233   0.0204   0.0491  -0.0031  -0.0124  -0.0282   6.44    0.0
2167 161617.441   37.444024119 -122.262806809   127.1169   2  17   0.0233   0.0204   0.0491  -0.0031  -0.0123  -0.0282   7.44    0.0
2167 161618.441   37.444007082 -122.263041938   127.1851   2  14   0.0232   0.0204   0.0491  -0.0036  -0.0124  -0.0283   8.44    0.0
2167 161619.441   37.443990257 -122.263273189   127.3084   2  18   0.0232   0.0204   0.0490  -0.0038  -0.0125  -0.0284   9.44    0.0
2167 161620.441   37.443973181 -122.263500897   127.3716   2  19   0.0233   0.0204   0.0490  -0.0039  -0.0125  -0.0285  10.44    0.0
2167 161621.441   37.443955692 -122.263725352   127.4323   2  18   0.0233   0.0204   0.0490  -0.0042  -0.0124  -0.0286  11.44    0.0
2167 161622.441   37.443939389 -122.263947782   127.5048   2  17   0.0233   0.0203   0.0490  -0.0040  -0.0125  -0.0286  12.44    0.0
2167 161623.441   37.443925080 -122.264173701   127.5021   2  17   0.0233   0.0203   0.0490  -0.0040  -0.0125  -0.0286  13.44    0.0
2167 161624.441   37.443915175 -122.264405158   127.4538   2  17   0.0233   0.0203   0.0490  -0.0040  -0.0125  -0.0287  14.44    0.0
2167 161625.441   37.443910210 -122.264641123   127.4320   2  15   0.0233   0.0203   0.0490  -0.0038  -0.0127  -0.0286 -14.56    0.0
2167 161626.441   37.443909068 -122.264879679   127.3640   2  14   0.0233   0.0203   0.0490  -0.0036  -0.0128  -0.0286 -13.56    0.0
2167 161627.441   37.443911724 -122.265120777   127.3160   2  14   0.0232   0.0203   0.0489  -0.0036  -0.0127  -0.0285 -12.56    0.0
2167 161628.441   37.443918227 -122.265366757   127.2371   2  14   0.0232   0.0203   0.0488  -0.0037  -0.0127  -0.0285 -11.56    0.0
2167 161629.441   37.443929020 -122.265617393   127.1224   2  19   0.0232   0.0203   0.0488  -0.0037  -0.0127  -0.0285 -10.56    0.0
2167 161630.441   37.443944908 -122.265872183   126.9402   2  21   0.0232   0.0203   0.0488  -0.0037  -0.0127  -0.0285  -9.56    0.0
2167 161631.441   37.443966198 -122.266131228   126.7570   2  21   0.0232   0.0203   0.0488  -0.0038  -0.0127  -0.0285  -8.56    0.0
2167 161632.441   37.443992874 -122.266394640   126.5110   2  19   0.0233   0.0203   0.0488  -0.0040  -0.0126  -0.0285  -7.56    0.0
2167 161633.441   37.444024989 -122.266663069   126.2132   2  15   0.0232   0.0203   0.0488  -0.0038  -0.0127  -0.0285  -6.56    0.0
2167 161634.441   37.444062237 -122.266937482   125.8310   2  17   0.0232   0.0203   0.0487  -0.0036  -0.0128  -0.0285  -5.56    0.0
2167 161635.441   37.444104684 -122.267216426   125.5297   2  15   0.0232   0.0203   0.0486  -0.0038  -0.0127  -0.0284  -4.56    0.0
2167 161636.441   37.444153716 -122.267498408   125.1994   2  17   0.0232   0.0204   0.0487  -0.0039  -0.0126  -0.0285  -3.56    0.0
2167 161637.441   37.444210805 -122.267781209   124.7878   2  16   0.0232   0.0203   0.0487  -0.0038  -0.0127  -0.0285  -2.56    0.0
2167 161638.441   37.444274022 -122.268060863   124.3964   2  16   0.0232   0.0203   0.0486  -0.0036  -0.0128  -0.0284  -1.56    0.0
2167 161639.441   37.444342821 -122.268336154   123.9705   2  16   0.0231   0.0203   0.0485  -0.0037  -0.0127  -0.0284  -0.56    0.0
2167 161640.441   37.444416601 -122.268607240   123.6366   2  14   0.0231   0.0203   0.0485  -0.0037  -0.0127  -0.0283   0.44    0.0
2167 161641.441   37.444495356 -122.268873675   123.3018   2  16   0.0231   0.0204   0.0486  -0.0035  -0.0129  -0.0284   1.44    0.0
2167 161642.441   37.444578812 -122.269136275   123.0043   2  15   0.0232   0.0204   0.0487  -0.0039  -0.0132  -0.0283   2.44    0.0
2167 161643.441   37.444668317 -122.269397503   122.5669   2  19   0.0232   0.0204   0.0487  -0.0038  -0.0130  -0.0283   3.44    0.0
2167 161644.441   37.444762782 -122.269659386   122.2278   2  14   0.0231   0.0204   0.0488  -0.0038  -0.0130  -0.0283   4.44    0.0
2167 161645.441   37.444862283 -122.269920565   121.8589   2  17   0.0232   0.0204   0.0488  -0.0037  -0.0130  -0.0283   5.44    0.0
2167 161646.441   37.444966619 -122.270179955   121.4428   2  15   0.0232   0.0205   0.0487  -0.0034  -0.0131  -0.0284   6.44    0.0
2167 161647.441   37.445077273 -122.270438766   121.1047   2  15   0.0232   0.0206   0.0489  -0.0035  -0.0134  -0.0284   7.44    0.0
2167 161648.441   37.445194400 -122.270695374   120.8059   2  17   0.0232   0.0205   0.0489  -0.0035  -0.0133  -0.0284   8.44    0.0
2167 161649.441   37.445318468 -122.270949005   120.5927   2  14   0.0232   0.0205   0.0488  -0.0036  -0.0131  -0.0284   9.44    0.0
2167 161650.441   37.445448490 -122.271199707   120.4502   2  17   0.0232   0.0205   0.0488  -0.0036  -0.0131  -0.0284  10.44    0.0
2167 161651.441   37.445585007 -122.271446934   120.3312   2  17   0.0232   0.0204   0.0488  -0.0037  -0.0130  -0.0284  11.44    0.0
2167 161652.441   37.445727745 -122.271690257   120.3333   2  16   0.0232   0.0204   0.0487  -0.0038  -0.0129  -0.0284  12.44    0.0
2167 161653.441   37.445875822 -122.271929556   120.3975   2  19   0.0232   0.0204   0.0488  -0.0041  -0.0128  -0.0284  13.44    0.0
2167 161654.441   37.446028283 -122.272165179   120.6245   2  17   0.0232   0.0204   0.0489  -0.0040  -0.0129  -0.0284  14.44    0.0
2167 161655.441   37.446184429 -122.272396187   120.8250   2  16   0.0232   0.0204   0.0489  -0.0040  -0.0130  -0.0284 -14.56    0.0
2167 161656.441   37.446342862 -122.272623949   121.1550   2  13   0.0232   0.0204   0.0489  -0.0040  -0.0129  -0.0284 -13.56    0.0
2167 161657.441   37.446501048 -122.272851404   121.5247   2  15   0.0232   0.0204   0.0488  -0.0040  -0.0129  -0.0284 -12.56    0.0
2167 161658.441   37.446659007 -122.273077969   121.9239   2  17   0.0232   0.0204   0.0489  -0.0040  -0.0129  -0.0284 -11.56    0.0
2167 161659.441   37.446816756 -122.273303419   122.3447   2  18   0.0232   0.0204   0.0489  -0.0040  -0.0129  -0.0284 -10.56    0.0
2167 161660.441   37.446974168 -122.273528248   122.8527   2  15   0.0232   0.0204   0.0489  -0.0039  -0.0130  -0.0284  -9.56    0.0
2167 161661.441   37.447130640 -122.273751878   123.3709   2  16   0.0232   0.0205   0.0490  -0.0038  -0.0131  -0.0285  -8.56    0.0
2167 161662.441   37.447285665 -122.273975089   123.9672   2  16   0.0232   0.0205   0.0489  -0.0038  -0.0130  -0.0285  -7.56    0.0
2167 161663.441   37.447440079 -122.274197052   124.6535   2  13   0.0232   0.0204   0.0489  -0.0038  -0.0130  -0.0285  -6.56    0.0
2167 161664.441   37.447593952 -122.274417614   125.3670   2  15   0.0232   0.0204   0.0489  -0.0039  -0.0130  -0.0285  -5.56    0.0
2167 161665.441   37.447747107 -122.274636640   126.1021   2  13   0.0232   0.0204   0.0489  -0.0038  -0.0130  -0.0285  -4.56    0.0
2167 161666.441   37.447899590 -122.274854517   126.8212   2  11   0.0233   0.0205   0.0490  -0.0038  -0.0131  -0.0285  -3.56    0.0
2167 161667.441   37.448051150 -122.275071168   127.5924   2  15   0.0233   0.0205   0.0490  -0.0038  -0.0131  -0.0285  -2.56    0.0
2167 161668.441   37.448202727 -122.275286878   128.2920   2  15   0.0233   0.0205   0.0490  -0.0037  -0.0132  -0.0285  -1.56    0.0
2167 161669.441   37.448354542 -122.275502680   129.0574   2  15   0.0233   0.0205   0.0491  -0.0036  -0.0132  -0.0286  -0.56    0.0
2167 161670.441   37.448508248 -122.275718769   129.7784   2  16   0.0234   0.0205   0.0493  -0.0030  -0.0135  -0.0287   0.44    0.0
2167 161671.441   37.448663470 -122.275936223   130.5232   2  15   0.0234   0.0206   0.0492  -0.0033  -0.0135  -0.0287   1.44    0.0
2167 161672.441   37.448819598 -122.276154978   131.2622   2  11   0.0233   0.0205   0.0492  -0.0036  -0.0133  -0.0286   2.44    0.0
2167 161673.441   37.448973243 -122.276375139   132.0407   2  14   0.0234   0.0205   0.0493  -0.0032  -0.0134  -0.0287   3.44    0.0
2167 161674.441   37.449124663 -122.276596869   132.7406   2  13   0.0234   0.0204   0.0492  -0.0034  -0.0133  -0.0287   4.44    0.0
2167 161675.441   37.449274666 -122.276820652   133.4203   2  11   0.0234   0.0204   0.0492  -0.0036  -0.0132  -0.0286   5.44    0.0
2167 161676.441   37.449425058 -122.277045798   134.1002   2   8   0.0234   0.0204   0.0492  -0.0036  -0.0133  -0.0286   6.44    0.0
2167 161677.441   37.449574840 -122.277269385   134.6950   2  14   0.0233   0.0204   0.0492  -0.0036  -0.0133  -0.0286   7.44    0.0
2167 161678.441   37.449721014 -122.277490376   135.1576   2  18   0.0233   0.0205   0.0493  -0.0037  -0.0134  -0.0286   8.44    0.0
2167 161679.441   37.449864136 -122.277708576   135.6218   2  15   0.0234   0.0205   0.0493  -0.0037  -0.0134  -0.0286   9.44    0.0
2167 161680.441   37.450005595 -122.277924440   136.0369   2  14   0.0233   0.0205   0.0492  -0.0037  -0.0134  -0.0286  10.44    0.0
2167 161681.441   37.450146764 -122.278139478   136.4176   2  18   0.0233   0.0204   0.0492  -0.0037  -0.0134  -0.0286  11.44    0.0
2167 161682.441   37.450288122 -122.278355392   136.8413   2  15   0.0234   0.0205   0.0492  -0.0036  -0.0134  -0.0286  12.44    0.0
2167 161683.441   37.450430189 -122.278569832   137.2120   2  19   0.0234   0.0205   0.0492  -0.0037  -0.0134  -0.0286  13.44    0.0
2167 161684.441   37.450571953 -122.278783737   137.6123   2  18   0.0234   0.0204   0.0492  -0.0037  -0.0134  -0.0286  14.44    0.0
2167 161685.441   37.450713859 -122.278996640   137.7843   2  19   0.0234   0.0204   0.0493  -0.0037  -0.0134  -0.0286 -14.56    0.0
2167 161686.441   37.450856010 -122.279211793   137.9105   2  18   0.0234   0.0205   0.0493  -0.0037  -0.0135  -0.0286 -13.56    0.0
2167 161687.441   37.450999029 -122.279428946   137.9930   2  20   0.0234   0.0205   0.0493  -0.0037  -0.0134  -0.0286 -12.56    0.0
2167 161688.441   37.451143700 -122.279646904   138.0060   2  20   0.0234   0.0205   0.0493  -0.0037  -0.0134  -0.0286 -11.56    0.0
2167 161689.441   37.451289191 -122.279865805   138.0296   2  19   0.0234   0.0204   0.0493  -0.0037  -0.0134  -0.0286 -10.56    0.0
2167 161690.441   37.451434452 -122.280086381   138.0464   2  21   0.0234   0.0204   0.0493  -0.0038  -0.0133  -0.0287  -9.56    0.0
2167 161691.441   37.451579876 -122.280307854   138.0313   2  18   0.0234   0.0205   0.0494  -0.0037  -0.0134  -0.0287  -8.56    0.0
2167 161692.441   37.451724611 -122.280531448   137.9834   2  17   0.0234   0.0205   0.0494  -0.0037  -0.0134  -0.0287  -7.56    0.0
2167 161693.441   37.451868227 -122.280755478   137.8730   2  21   0.0234   0.0205   0.0493  -0.0038  -0.0133  -0.0287  -6.56    0.0
2167 161694.441   37.452012889 -122.280978791   137.6786   2  17   0.0234   0.0205   0.0493  -0.0039  -0.0133  -0.0287  -5.56    0.0
2167 161695.441   37.452158781 -122.281201536   137.4961   2  17   0.0234   0.0205   0.0494  -0.0039  -0.0133  -0.0287  -4.56    0.0
2167 161696.441   37.452306519 -122.281424025   137.2277   2  19   0.0234   0.0205   0.0494  -0.0039  -0.0133  -0.0287  -3.56    0.0
2167 161697.441   37.452455071 -122.281648580   136.9138   2  21   0.0234   0.0205   0.0493  -0.0040  -0.0132  -0.0287  -2.56    0.0
2167 161698.441   37.452604330 -122.281876340   136.5641   2  19   0.0234   0.0205   0.0493  -0.0039  -0.0133  -0.0287  -1.56    0.0
2167 161699.441   37.452754757 -122.282107296   136.1894   2  17   0.0234   0.0205   0.0493  -0.0039  -0.0133  -0.0287  -0.56    0.0
2167 161700.441   37.452907782 -122.282341046   135.6856   2  17   0.0234   0.0205   0.0494  -0.0038  -0.0134  -0.0287   0.44    0.0
2167 161701.441   37.453063593 -122.282577924   135.1842   2  20   0.0234   0.0205   0.0494  -0.0039  -0.0134  -0.0287   1.44    0.0
2167 161702.441   37.453222498 -122.282818190   134.5991   2  19   0.0234   0.0205   0.0493  -0.0039  -0.0133  -0.0287   2.44    0.0
2167 161703.441   37.453384412 -122.283062802   133.9746   2  21   0.0234   0.0205   0.0494  -0.0040  -0.0133  -0.0287   3.44    0.0
2167 161704.441   37.453548937 -122.283311070   133.3608   2  18   0.0235   0.0205   0.0494  -0.0039  -0.0134  -0.0287   4.44    0.0
2167 161705.441   37.453714863 -122.283564261   132.6854   2  14   0.0235   0.0205   0.0494  -0.0039  -0.0134  -0.0287   5.44    0.0
2167 161706.441   37.453882688 -122.283821702   132.0803   2  17   0.0235   0.0205   0.0495  -0.0039  -0.0134  -0.0287   6.44    0.0
2167 161707.441   37.454051144 -122.284079091   131.4244   2  18   0.0235   0.0205   0.0495  -0.0040  -0.0134  -0.0288   7.44    0.0
2167 161708.441   37.454219082 -122.284335215   130.7335   2  17   0.0235   0.0205   0.0495  -0.0040  -0.0134  -0.0288   8.44    0.0
2167 161709.441   37.454387927 -122.284589758   130.1078   2  15   0.0235   0.0205   0.0495  -0.0040  -0.0134  -0.0288   9.44    0.0
2167 161710.441   37.454556754 -122.284844326   129.4753   2  15   0.0235   0.0205   0.0495  -0.0041  -0.0133  -0.0288  10.44    0.0
2167 161711.441   37.454725589 -122.285098580   128.7736   2  16   0.0235   0.0205   0.0495  -0.0042  -0.0133  -0.0287  11.44    0.0
2167 161712.441   37.454893726 -122.285354324   128.1435   2  16   0.0235   0.0205   0.0495  -0.0043  -0.0133  -0.0287  12.44    0.0
2167 161713.441   37.455061184 -122.285611024   127.5127   2  16   0.0235   0.0205   0.0495  -0.0043  -0.0133  -0.0287  13.44    0.0
2167 161714.441   37.455229163 -122.285868201   126.7919   2  15   0.0235   0.0205   0.0496  -0.0041  -0.0135  -0.0288  14.44    0.0
2167 161715.441   37.455398199 -122.286124688   126.1031   2  15   0.0235   0.0205   0.0496  -0.0042  -0.0134  -0.0287 -14.56    0.0
2167 161716.441   37.455567033 -122.286382056   125.4092   2  17   0.0235   0.0205   0.0496  -0.0040  -0.0135  -0.0288 -13.56    0.0
2167 161717.441   37.455736006 -122.286640503   124.6283   2  17   0.0235   0.0205   0.0496  -0.0040  -0.0135  -0.0288 -12.56    0.0
2167 161718.441   37.455907515 -122.286898180   123.9066   2  17   0.0235   0.0205   0.0496  -0.0040  -0.0135  -0.0288 -11.56    0.0
2167 161719.441   37.456082818 -122.287153526   123.2772   2  13   0.0235   0.0205   0.0496  -0.0040  -0.0135  -0.0288 -10.56    0.0
2167 161720.441   37.456263406 -122.287403866   122.8408   2  14   0.0235   0.0205   0.0496  -0.0040  -0.0135  -0.0288  -9.56    0.0
2167 161721.441   37.456450814 -122.287646732   122.5051   2  17   0.0235   0.0205   0.0496  -0.0043  -0.0134  -0.0288  -8.56    0.0
2167 161722.441   37.456646795 -122.287880978   122.2802   2  16   0.0235   0.0205   0.0496  -0.0042  -0.0134  -0.0288  -7.56    0.0
2167 161723.441   37.456850153 -122.288107226   122.1964   2  19   0.0235   0.0204   0.0496  -0.0042  -0.0134  -0.0288  -6.56    0.0
2167 161724.441   37.457059666 -122.288326531   122.2052   2  14   0.0236   0.0205   0.0498  -0.0039  -0.0137  -0.0289  -5.56    0.0
2167 161725.441   37.457274416 -122.288537489   122.3816   2  15   0.0236   0.0205   0.0497  -0.0040  -0.0136  -0.0288  -4.56    0.0
2167 161726.441   37.457493611 -122.288736848   122.7098   2  16   0.0236   0.0205   0.0497  -0.0044  -0.0134  -0.0289  -3.56    0.0
2167 161727.441   37.457716776 -122.288926466   123.1583   2  19   0.0235   0.0205   0.0496  -0.0042  -0.0135  -0.0288  -2.56    0.0
2167 161728.441   37.457944332 -122.289105702   123.6796   2  20   0.0235   0.0205   0.0496  -0.0042  -0.0135  -0.0288  -1.56    0.0
2167 161729.441   37.458175324 -122.289274872   124.2841   2  19   0.0235   0.0205   0.0497  -0.0043  -0.0134  -0.0288  -0.56    0.0
2167 161730.441   37.458408912 -122.289434874   124.8843   2  21   0.0235   0.0205   0.0497  -0.0043  -0.0135  -0.0288   0.44    0.0
2167 161731.441   37.458645797 -122.289583402   125.4700   2  17   0.0235   0.0204   0.0497  -0.0043  -0.0134  -0.0288   1.44    0.0
2167 161732.441   37.458885221 -122.289720387   126.1271   2  19   0.0235   0.0204   0.0496  -0.0042  -0.0135  -0.0287   2.44    0.0
2167 161733.441   37.459126932 -122.289846969   126.7133   2  22   0.0235   0.0204   0.0496  -0.0042  -0.0135  -0.0287   3.44    0.0
2167 161734.441   37.459370777 -122.289963442   127.2306   2  19   0.0235   0.0204   0.0496  -0.0043  -0.0135  -0.0287   4.44    0.0
2167 161735.441   37.459616870 -122.290069166   127.7152   2  17   0.0236   0.0204   0.0497  -0.0044  -0.0135  -0.0287   5.44    0.0
2167 161736.441   37.459864789 -122.290165597   128.2668   2  18   0.0236   0.0204   0.0497  -0.0044  -0.0135  -0.0287   6.44    0.0
2167 161737.441   37.460113561 -122.290253335   128.8777   2  18   0.0236   0.0205   0.0498  -0.0041  -0.0137  -0.0288   7.44    0.0
2167 161738.441   37.460363645 -122.290330413   129.5370   2  17   0.0237   0.0205   0.0498  -0.0044  -0.0136  -0.0289   8.44    0.0
2167 161739.441   37.460616243 -122.290395942   130.1572   2  16   0.0237   0.0205   0.0498  -0.0044  -0.0136  -0.0289   9.44    0.0
2167 161740.441   37.460871866 -122.290451140   130.7544   2  13   0.0237   0.0206   0.0500  -0.0042  -0.0139  -0.0290  10.44    0.0
2167 161741.441   37.461130311 -122.290496856   131.3991   2  13   0.0238   0.0211   0.0505  -0.0039  -0.0150  -0.0290  11.44    0.0
2167 161742.441   37.461391726 -122.290531094   132.0480   2  14   0.0238   0.0214   0.0506  -0.0037  -0.0155  -0.0290  12.44    0.0
2167 161743.441   37.461654762 -122.290553675   132.7177   2  14   0.0237   0.0212   0.0505  -0.0036  -0.0152  -0.0290  13.44    0.0
2167 161744.441   37.461918169 -122.290568256   133.4783   2  15   0.0237   0.0213   0.0505  -0.0037  -0.0153  -0.0290  14.44    0.0
2167 161745.441   37.462181272 -122.290580368   134.2576   2  15   0.0237   0.0211   0.0504  -0.0038  -0.0150  -0.0290 -14.56    0.0
2167 161746.441   37.462444787 -122.290590125   134.8659   2  15   0.0238   0.0214   0.0507  -0.0042  -0.0156  -0.0289 -13.56    0.0
2167 161747.441   37.462709009 -122.290599071   135.4225   2  18   0.0237   0.0213   0.0506  -0.0042  -0.0154  -0.0289 -12.56    0.0
2167 161748.441   37.462973494 -122.290608151   136.0476   2  17   0.0237   0.0211   0.0504  -0.0043  -0.0150  -0.0288 -11.56    0.0
2167 161749.441   37.463238049 -122.290617264   136.7335   2  17   0.0237   0.0210   0.0503  -0.0044  -0.0148  -0.0288 -10.56    0.0
2167 161750.441   37.463501340 -122.290625502   137.4439   2  19   0.0237   0.0211   0.0504  -0.0043  -0.0150  -0.0289  -9.56    0.0
2167 161751.441   37.463760725 -122.290635132   138.2800   2  17   0.0238   0.0211   0.0504  -0.0048  -0.0150  -0.0288  -8.56    0.0
2167 161752.441   37.464016106 -122.290648705   138.9450   2  14   0.0238   0.0210   0.0503  -0.0048  -0.0148  -0.0288  -7.56    0.0
2167 161753.441   37.464268519 -122.290667357   139.3669   2  14   0.0238   0.0210   0.0503  -0.0048  -0.0147  -0.0287  -6.56    0.0
2167 161754.441   37.464518450 -122.290689591   139.7253   2  13   0.0238   0.0209   0.0502  -0.0048  -0.0146  -0.0288  -5.56    0.0
2167 161755.441   37.464766428 -122.290713142   140.0973   2  15   0.0238   0.0209   0.0502  -0.0049  -0.0146  -0.0288  -4.56    0.0
2167 161756.441   37.465012463 -122.290739128   140.4312   2  18   0.0238   0.0209   0.0502  -0.0048  -0.0146  -0.0288  -3.56    0.0
2167 161757.441   37.465256252 -122.290771136   140.7299   2  14   0.0238   0.0209   0.0503  -0.0050  -0.0146  -0.0287  -2.56    0.0
2167 161758.441   37.465497792 -122.290812544   141.0179   2  14   0.0238   0.0210   0.0503  -0.0050  -0.0146  -0.0287  -1.56    0.0
2167 161759.441   37.465738356 -122.290862608   141.2714   2  18   0.0239   0.0209   0.0503  -0.0051  -0.0146  -0.0287  -0.56    0.0
2167 161760.441   37.465977445 -122.290916241   141.5333   2  13   0.0239   0.0209   0.0503  -0.0051  -0.0146  -0.0287   0.44    0.0
2167 161761.441   37.466215847 -122.290967385   141.8776   2  16   0.0239   0.0209   0.0502  -0.0051  -0.0146  -0.0287   1.44    0.0
2167 161762.441   37.466450313 -122.291018584   142.1732   2  15   0.0239   0.0209   0.0502  -0.0051  -0.0145  -0.0287   2.44    0.0
2167 161763.441   37.466676305 -122.291072483   142.5145   2  15   0.0239   0.0210   0.0504  -0.0051  -0.0147  -0.0287   3.44    0.0
2167 161764.441   37.466892025 -122.291130795   142.5806   2  15   0.0240   0.0210   0.0507  -0.0055  -0.0150  -0.0285   4.44    0.0
2167 161765.441   37.467097015 -122.291192348   142.4151   2  18   0.0240   0.0210   0.0505  -0.0054  -0.0149  -0.0285   5.44    0.0
2167 161766.441   37.467289839 -122.291255717   142.0780   2  13   0.0240   0.0210   0.0506  -0.0055  -0.0150  -0.0284   6.44    0.0
2167 161767.441   37.467470771 -122.291319255   141.4770   2  15   0.0244   0.0215   0.0510  -0.0059  -0.0156  -0.0289   7.44    0.0
2167 161768.441   37.467641518 -122.291382887   140.9999   2  13   0.0243   0.0213   0.0507  -0.0060  -0.0152  -0.0287   8.44    0.0
2167 161769.441   37.467803171 -122.291448348   140.3129   2  15   0.0242   0.0213   0.0507  -0.0060  -0.0151  -0.0287   9.44    0.0
2167 161770.441   37.467953631 -122.291516430   139.3969   2  21   0.0242   0.0213   0.0507  -0.0060  -0.0151  -0.0287  10.44    0.0
2167 161771.441   37.468094128 -122.291583382   138.5516   2  20   0.0243   0.0213   0.0506  -0.0061  -0.0151  -0.0286  11.44    0.0
2167 161772.441   37.468224407 -122.291641993   137.7406   2  20   0.0246   0.0213   0.0506  -0.0065  -0.0149  -0.0289  12.44    0.0
2167 161773.441   37.468347819 -122.291692027   136.9150   2  18   0.0245   0.0213   0.0505  -0.0063  -0.0150  -0.0288  13.44    0.0
2167 161774.441   37.468458343 -122.291733374   136.3361   2  18   0.0244   0.0213   0.0505  -0.0063  -0.0150  -0.0288  14.44    0.0
2167 161775.441   37.468550514 -122.291767614   135.9953   2  14   0.0245   0.0212   0.0505  -0.0063  -0.0150  -0.0288 -14.56    0.0
2167 161776.441   37.468622564 -122.291798803   135.9078   2  17   0.0245   0.0212   0.0506  -0.0063  -0.0149  -0.0288 -13.56    0.0
2167 161777.441   37.468669071 -122.291827354   135.9262   2  16   0.0244   0.0212   0.0506  -0.0062  -0.0149  -0.0288 -12.56    0.0
2167 161778.441   37.468691495 -122.291844925   135.9634   2  19   0.0244   0.0213   0.0507  -0.0061  -0.0150  -0.0289 -11.56    0.0
2167 161779.441   37.468698418 -122.291850680   135.9443   2  16   0.0244   0.0213   0.0507  -0.0060  -0.0150  -0.0289 -10.56    0.0
2167 161780.441   37.468699415 -122.291851399   135.9464   2  16   0.0244   0.0213   0.0507  -0.0061  -0.0150  -0.0289  -9.56    0.0
2167 161781.441   37.468706266 -122.291857294   135.9638   2  17   0.0244   0.0213   0.0506  -0.0061  -0.0150  -0.0289  -8.56    0.0
2167 161782.441   37.468724727 -122.291873523   136.0081   2  19   0.0244   0.0213   0.0507  -0.0061  -0.0150  -0.0288  -7.56    0.0
2167 161783.441   37.468753018 -122.291903122   136.0617   2  19   0.0245   0.0213   0.0507  -0.0062  -0.0149  -0.0289  -6.56    0.0
2167 161784.441   37.468781394 -122.291952233   136.1934   2  18   0.0245   0.0214   0.0508  -0.0060  -0.0152  -0.0289  -5.56    0.0
2167 161785.441   37.468791732 -122.292023351   136.3389   2  16   0.0246   0.0214   0.0511  -0.0064  -0.0151  -0.0289  -4.56    0.0
2167 161786.441   37.468779083 -122.292106056   136.0280   2  13   0.0265   0.0219   0.0542  -0.0050  -0.0164  -0.0315  -3.56    0.0
2167 161787.441   37.468736149 -122.292195994   135.4117   2  13   0.0468   0.0373   0.0976   0.0231   0.0465   0.0210  -2.56    0.0
2167 161788.441   37.468676089 -122.292294240   134.7062   2   6   0.1009   0.2108   0.2345   0.1198   0.2096   0.1055  -1.56    0.0
2167 161789.441   37.468611299 -122.292372921   135.4340   2   4   0.3207   0.4101   0.3175   0.1159   0.2675  -0.1016  -0.56    0.0
2167 161790.441   37.468522236 -122.292420477   135.8476   4   2   0.5177   0.6338   0.3199   0.2021   0.1161  -0.1745   0.44    0.0
2167 161792.441   37.468351413 -122.292678759   134.8519   2   6   0.0458   0.0410   0.0753   0.0285  -0.0271  -0.0362   2.44    0.0
2167 161793.441   37.468272441 -122.292796476   134.2687   2  14   0.0287   0.0305   0.0663  -0.0095  -0.0211  -0.0236   3.44    0.0
2167 161794.441   37.468191411 -122.292909947   133.6911   2  17   0.0287   0.0305   0.0662  -0.0096  -0.0210  -0.0235   4.44    0.0
2167 161795.441   37.468109682 -122.293010164   133.0431   2  16   0.0288   0.0305   0.0662  -0.0097  -0.0209  -0.0236   5.44    0.0
2167 161796.441   37.468037352 -122.293104756   132.3226   2  16   0.0287   0.0305   0.0660  -0.0096  -0.0209  -0.0235   6.44    0.0
2167 161797.441   37.467984055 -122.293202169   131.5464   2  20   0.0288   0.0307   0.0661  -0.0097  -0.0210  -0.0235   7.44    0.0
2167 161798.441   37.467958864 -122.293302530   130.6815   2  19   0.0288   0.0306   0.0661  -0.0099  -0.0207  -0.0237   8.44    0.0
2167 161799.441   37.467972046 -122.293405085   130.2445   2  20   0.0288   0.0304   0.0660  -0.0096  -0.0208  -0.0236   9.44    0.0
2167 161800.441   37.468020614 -122.293497961   130.1358   2  18   0.0288   0.0304   0.0659  -0.0097  -0.0207  -0.0235  10.44    0.0
2167 161801.441   37.468093810 -122.293593072   130.2018   2  20   0.0288   0.0304   0.0657  -0.0097  -0.0206  -0.0236  11.44    0.0
2167 161802.441   37.468180778 -122.293692766   130.3189   2  17   0.0288   0.0304   0.0658  -0.0097  -0.0206  -0.0236  12.44    0.0
2167 161803.441   37.468274625 -122.293798461   130.5140   2  18   0.0287   0.0303   0.0657  -0.0097  -0.0205  -0.0235  13.44    0.0
2167 161804.441   37.468375966 -122.293912346   130.9667   2  14   0.0287   0.0303   0.0657  -0.0097  -0.0205  -0.0234  14.44    0.0
2167 161805.441   37.468482311 -122.294029803   131.6406   2  20   0.0287   0.0303   0.0657  -0.0097  -0.0206  -0.0235 -14.56    0.0
2167 161806.441   37.468589678 -122.294141148   132.3273   2  20   0.0287   0.0304   0.0657  -0.0097  -0.0206  -0.0234 -13.56    0.0
2167 161807.441   37.468697939 -122.294229394   133.0595   2  22   0.0287   0.0303   0.0660  -0.0098  -0.0207  -0.0234 -12.56    0.0
2167 161808.441   37.468809724 -122.294280192   133.8412   2  22   0.0287   0.0303   0.0661  -0.0097  -0.0209  -0.0233 -11.56    0.0
2167 161809.441   37.468922333 -122.294289224   134.7697   2  19   0.0285   0.0302   0.0657  -0.0100  -0.0207  -0.0225 -10.56    0.0
2167 161810.441   37.469030876 -122.294260052   135.7587   2  17   0.0286   0.0302   0.0662  -0.0102  -0.0207  -0.0221  -9.56    0.0
2167 161811.441   37.469131239 -122.294193490   136.6221   2  12   0.0285   0.0303   0.0653  -0.0101  -0.0208  -0.0228  -8.56    0.0
2167 161812.441   37.469215787 -122.294092540   137.3957   2  21   0.0284   0.0303   0.0650  -0.0099  -0.0207  -0.0230  -7.56    0.0
2167 161813.441   37.469277092 -122.293964343   138.3322   2  20   0.0285   0.0303   0.0651  -0.0099  -0.0207  -0.0233  -6.56    0.0
2167 161814.441   37.469307091 -122.293821256   139.0907   2  20   0.0285   0.0304   0.0653  -0.0100  -0.0212  -0.0230  -5.56    0.0
2167 161815.441   37.469301709 -122.293671797   139.7728   2  13   0.0285   0.0303   0.0651  -0.0103  -0.0207  -0.0228  -4.56    0.0
2167 161816.441   37.469260306 -122.293527555   140.8056   2  20   0.0285   0.0294   0.0654  -0.0099  -0.0208  -0.0225  -3.56    0.0
2167 161817.441   37.469187004 -122.293399523   141.4274   2  23   0.0283   0.0290   0.0646  -0.0101  -0.0214  -0.0228  -2.56    0.0
2167 161818.441   37.469091671 -122.293280049   142.0658   2  20   0.0283   0.0290   0.0646  -0.0101  -0.0215  -0.0228  -1.56    0.0
