$GPGGA,204918.44,3726.6464320,N,12213.9661280,W,1,0,0.0,11.1800,M,0.0000,M,0.0000,0000*5f
$GPRMC,204918.44,A,3726.6464320,N,12213.9661280,W,0.0027,30.3122,190721,,,,A*5e
$GPGGA,204919.44,3726.6464320,N,12213.9661280,W,1,0,0.0,11.1800,M,0.0000,M,0.0000,0000*5e
$GPRMC,204919.44,A,3726.6464320,N,12213.9661280,W,0.0027,30.3124,190721,,,,A*59
$GPGGA,204920.44,3726.6464320,N,12213.9661280,W,1,0,0.0,11.1790,M,0.0000,M,0.0000,0000*52
$GPRMC,204920.44,A,3726.6464320,N,12213.9661280,W,0.0037,30.3125,190721,,,,A*53
$GPGGA,204921.44,3726.6464320,N,12213.9661280,W,1,0,0.0,11.1790,M,0.0000,M,0.0000,0000*53
$GPRMC,204921.44,A,3726.6464320,N,12213.9661280,W,0.0043,30.3126,190721,,,,A*52
$GPGGA,204922.44,3726.6464320,N,12213.9661280,W,1,0,0.0,11.1781,M,0.0000,M,0.0000,0000*50
$GPRMC,204922.44,A,3726.6464320,N,12213.9661280,W,0.0043,30.3125,190721,,,,A*52
$GPGGA,204923.44,3726.6464320,N,12213.9661280,W,1,0,0.0,11.1790,M,0.0000,M,0.0000,0000*51
$GPRMC,204923.44,A,3726.6464320,N,12213.9661280,W,0.0050,30.3124,190721,,,,A*50
$GPGGA,204924.44,3726.6464320,N,12213.9661280,W,1,0,0.0,11.1810,M,0.0000,M,0.0000,0000*51
$GPRMC,204924.44,A,3726.6464320,N,12213.9661280,W,0.0099,30.3118,190721,,,,A*5d
$GPGGA,204925.44,3726.6464260,N,12213.9661220,W,1,0,0.0,11.1895,M,0.0000,M,0.0000,0000*52
$GPRMC,204925.44,A,3726.6464260,N,12213.9661220,W,0.2408,30.4200,190721,,,,A*50
$GPGGA,204926.44,3726.6462760,N,12213.9663260,W,1,0,0.0,11.1866,M,0.0000,M,0.0000,0000*58
$GPRMC,204926.44,A,3726.6462760,N,12213.9663260,W,1.1452,26.8135,190721,,,,A*55
$GPGGA,204927.44,3726.6459640,N,12213.9667580,W,1,0,0.0,11.1746,M,0.0000,M,0.0000,0000*52
$GPRMC,204927.44,A,3726.6459640,N,12213.9667580,W,1.7827,17.0209,190721,,,,A*5c
$GPGGA,204928.44,3726.6454540,N,12213.9672140,W,1,0,0.0,11.1562,M,0.0000,M,0.0000,0000*5b
$GPRMC,204928.44,A,3726.6454540,N,12213.9672140,W,2.0758,3.9651,190721,,,,A*67
$GPGGA,204929.44,3726.6449620,N,12213.9674840,W,1,0,0.0,11.1376,M,0.0000,M,0.0000,0000*5f
$GPRMC,204929.44,A,3726.6449620,N,12213.9674840,W,1.1991,352.9588,190721,,,,A*69
$GPGGA,204930.44,3726.6448000,N,12213.9675380,W,1,0,0.0,11.1365,M,0.0000,M,0.0000,0000*56
$GPRMC,204930.44,A,3726.6448000,N,12213.9675380,W,0.0610,349.8087,190721,,,,A*65
$GPGGA,204931.44,3726.6448420,N,12213.9675500,W,1,0,0.0,11.1325,M,0.0000,M,0.0000,0000*5b
$GPRMC,204931.44,A,3726.6448420,N,12213.9675500,W,0.7035,349.3276,190721,,,,A*6d
$GPGGA,204932.44,3726.6452440,N,12213.9679100,W,1,0,0.0,11.1551,M,0.0000,M,0.0000,0000*58
$GPRMC,204932.44,A,3726.6452440,N,12213.9679100,W,2.8037,340.1119,190721,,,,A*65
$GPGGA,204933.44,3726.6458140,N,12213.9690800,W,1,0,0.0,11.1776,M,0.0000,M,0.0000,0000*5f
$GPRMC,204933.44,A,3726.6458140,N,12213.9690800,W,4.5079,315.3988,190721,,,,A*66
$GPGGA,204934.44,3726.6459520,N,12213.9710060,W,1,0,0.0,11.1318,M,0.0000,M,0.0000,0000*50
$GPRMC,204934.44,A,3726.6459520,N,12213.9710060,W,6.3008,283.4699,190721,,,,A*61
$GPGGA,204935.44,3726.6453040,N,12213.9733520,W,1,0,0.0,11.0693,M,0.0000,M,0.0000,0000*5f
$GPRMC,204935.44,A,3726.6453040,N,12213.9733520,W,7.5444,252.9650,190721,,,,A*66
$GPGGA,204936.44,3726.6438040,N,12213.9752660,W,1,0,0.0,10.9703,M,0.0000,M,0.0000,0000*51
$GPRMC,204936.44,A,3726.6438040,N,12213.9752660,W,7.4943,226.3102,190721,,,,A*6a
$GPGGA,204937.44,3726.6422740,N,12213.9762920,W,1,0,0.0,10.8760,M,0.0000,M,0.0000,0000*50
$GPRMC,204937.44,A,3726.6422740,N,12213.9762920,W,4.4812,211.1014,190721,,,,A*69
$GPGGA,204938.44,3726.6412960,N,12213.9769100,W,1,0,0.0,10.8154,M,0.0000,M,0.0000,0000*50
$GPRMC,204938.44,A,3726.6412960,N,12213.9769100,W,4.2984,208.4538,190721,,,,A*66
$GPGGA,204939.44,3726.6401200,N,12213.9776780,W,1,0,0.0,10.7253,M,0.0000,M,0.0000,0000*55
$GPRMC,204939.44,A,3726.6401200,N,12213.9776780,W,5.3521,207.7102,190721,,,,A*6a
$GPGGA,204940.44,3726.6385060,N,12213.9786980,W,1,0,0.0,10.6859,M,0.0000,M,0.0000,0000*54
$GPRMC,204940.44,A,3726.6385060,N,12213.9786980,W,7.7980,206.9154,190721,,,,A*67
$GPGGA,204941.44,3726.6363700,N,12213.9800720,W,1,0,0.0,10.6092,M,0.0000,M,0.0000,0000*56
$GPRMC,204941.44,A,3726.6363700,N,12213.9800720,W,8.8638,207.2190,190721,,,,A*64
$GPGGA,204942.44,3726.6343000,N,12213.9815180,W,1,0,0.0,10.5424,M,0.0000,M,0.0000,0000*52
$GPRMC,204942.44,A,3726.6343000,N,12213.9815180,W,8.0817,209.5027,190721,,,,A*65
$GPGGA,204943.44,3726.6326500,N,12213.9830240,W,1,0,0.0,10.4758,M,0.0000,M,0.0000,0000*54
$GPRMC,204943.44,A,3726.6326500,N,12213.9830240,W,6.2337,215.7649,190721,,,,A*6e
$GPGGA,204944.44,3726.6316420,N,12213.9841940,W,1,0,0.0,10.3767,M,0.0000,M,0.0000,0000*55
$GPRMC,204944.44,A,3726.6316420,N,12213.9841940,W,3.8310,221.3862,190721,,,,A*6a
$GPGGA,204945.44,3726.6310300,N,12213.9854000,W,1,0,0.0,10.2493,M,0.0000,M,0.0000,0000*57
$GPRMC,204945.44,A,3726.6310300,N,12213.9854000,W,4.3188,232.6526,190721,,,,A*64
$GPGGA,204946.44,3726.6308260,N,12213.9871940,W,1,0,0.0,10.1166,M,0.0000,M,0.0000,0000*5c
$GPRMC,204946.44,A,3726.6308260,N,12213.9871940,W,5.7447,255.3352,190721,,,,A*61
$GPGGA,204947.44,3726.6312220,N,12213.9897320,W,1,0,0.0,10.0898,M,0.0000,M,0.0000,0000*5f
$GPRMC,204947.44,A,3726.6312220,N,12213.9897320,W,8.7081,279.2851,190721,,,,A*6f
$GPGGA,204948.44,3726.6324820,N,12213.9931340,W,1,0,0.0,9.9743,M,0.0000,M,0.0000,0000*6c
$GPRMC,204948.44,A,3726.6324820,N,12213.9931340,W,12.6389,295.2909,190721,,,,A*5b
$GPGGA,204949.44,3726.6343900,N,12213.9976100,W,1,0,0.0,9.7344,M,0.0000,M,0.0000,0000*67
$GPRMC,204949.44,A,3726.6343900,N,12213.9976100,W,16.3088,298.8771,190721,,,,A*58
$GPGGA,204950.44,3726.6368680,N,12214.0028060,W,1,0,0.0,9.5165,M,0.0000,M,0.0000,0000*69
$GPRMC,204950.44,A,3726.6368680,N,12214.0028060,W,18.3461,301.3947,190721,,,,A*59
$GPGGA,204951.44,3726.6396940,N,12214.0085540,W,1,0,0.0,9.2564,M,0.0000,M,0.0000,0000*68
$GPRMC,204951.44,A,3726.6396940,N,12214.0085540,W,20.1155,301.6511,190721,,,,A*5b
$GPGGA,204952.44,3726.6426880,N,12214.0145780,W,1,0,0.0,8.9506,M,0.0000,M,0.0000,0000*67
$GPRMC,204952.44,A,3726.6426880,N,12214.0145780,W,20.7265,302.1623,190721,,,,A*5a
$GPGGA,204953.44,3726.6458380,N,12214.0207760,W,1,0,0.0,8.6992,M,0.0000,M,0.0000,0000*61
$GPRMC,204953.44,A,3726.6458380,N,12214.0207760,W,21.2683,302.6144,190721,,,,A*5b
$GPGGA,204954.44,3726.6490660,N,12214.0270340,W,1,0,0.0,8.4893,M,0.0000,M,0.0000,0000*6d
$GPRMC,204954.44,A,3726.6490660,N,12214.0270340,W,21.4133,303.2793,190721,,,,A*56
$GPGGA,204955.44,3726.6523600,N,12214.0332380,W,1,0,0.0,8.2546,M,0.0000,M,0.0000,0000*6b
$GPRMC,204955.44,A,3726.6523600,N,12214.0332380,W,21.1450,303.6688,190721,,,,A*59
$GPGGA,204956.44,3726.6554740,N,12214.0391660,W,1,0,0.0,8.0248,M,0.0000,M,0.0000,0000*64
$GPRMC,204956.44,A,3726.6554740,N,12214.0391660,W,19.3103,303.3214,190721,,,,A*53
$GPGGA,204957.44,3726.6582400,N,12214.0444220,W,1,0,0.0,7.8545,M,0.0000,M,0.0000,0000*6b
$GPRMC,204957.44,A,3726.6582400,N,12214.0444220,W,16.8049,303.4854,190721,,,,A*53
$GPGGA,204958.44,3726.6605740,N,12214.0489160,W,1,0,0.0,7.6760,M,0.0000,M,0.0000,0000*62
$GPRMC,204958.44,A,3726.6605740,N,12214.0489160,W,13.5408,302.3153,190721,,,,A*50
$GPGGA,204959.44,3726.6620860,N,12214.0523060,W,1,0,0.0,7.5693,M,0.0000,M,0.0000,0000*67
$GPRMC,204959.44,A,3726.6620860,N,12214.0523060,W,8.6807,298.7028,190721,,,,A*6a
$GPGGA,205000.44,3726.6629800,N,12214.0543820,W,1,0,0.0,7.4951,M,0.0000,M,0.0000,0000*66
$GPRMC,205000.44,A,3726.6629800,N,12214.0543820,W,5.2317,298.4499,190721,,,,A*65
$GPGGA,205001.44,3726.6634900,N,12214.0555760,W,1,0,0.0,7.4588,M,0.0000,M,0.0000,0000*6e
$GPRMC,205001.44,A,3726.6634900,N,12214.0555760,W,2.5048,298.4659,190721,,,,A*62
$GPGGA,205002.44,3726.6636340,N,12214.0559060,W,1,0,0.0,7.4448,M,0.0000,M,0.0000,0000*67
$GPRMC,205002.44,A,3726.6636340,N,12214.0559060,W,0.0824,298.4733,190721,,,,A*6e
$GPGGA,205003.44,3726.6636340,N,12214.0559060,W,1,0,0.0,7.4391,M,0.0000,M,0.0000,0000*65
$GPRMC,205003.44,A,3726.6636340,N,12214.0559060,W,0.0018,298.4759,190721,,,,A*64
$GPGGA,205004.44,3726.6636340,N,12214.0559060,W,1,0,0.0,7.4381,M,0.0000,M,0.0000,0000*63
$GPRMC,205004.44,A,3726.6636340,N,12214.0559060,W,0.0058,298.4756,190721,,,,A*68
$GPGGA,205005.44,3726.6636340,N,12214.0559120,W,1,0,0.0,7.4370,M,0.0000,M,0.0000,0000*69
$GPRMC,205005.44,A,3726.6636340,N,12214.0559120,W,0.0023,298.4739,190721,,,,A*69
$GPGGA,205006.44,3726.6636340,N,12214.0559120,W,1,0,0.0,7.4370,M,0.0000,M,0.0000,0000*6a
$GPRMC,205006.44,A,3726.6636340,N,12214.0559120,W,0.0008,298.4739,190721,,,,A*63
$GPGGA,205007.44,3726.6636340,N,12214.0559120,W,1,0,0.0,7.4370,M,0.0000,M,0.0000,0000*6b
$GPRMC,205007.44,A,3726.6636340,N,12214.0559120,W,0.0023,298.4740,190721,,,,A*65
$GPGGA,205008.44,3726.6636340,N,12214.0559120,W,1,0,0.0,7.4381,M,0.0000,M,0.0000,0000*6a
$GPRMC,205008.44,A,3726.6636340,N,12214.0559120,W,0.0019,298.4739,190721,,,,A*6d
$GPGGA,205009.44,3726.6636340,N,12214.0559180,W,1,0,0.0,7.4381,M,0.0000,M,0.0000,0000*61
$GPRMC,205009.44,A,3726.6636340,N,12214.0559180,W,0.0023,298.4736,190721,,,,A*60
$GPGGA,205010.44,3726.6636340,N,12214.0559180,W,1,0,0.0,7.4381,M,0.0000,M,0.0000,0000*69
$GPRMC,205010.44,A,3726.6636340,N,12214.0559180,W,0.0018,298.4737,190721,,,,A*61
$GPGGA,205011.44,3726.6636340,N,12214.0559180,W,1,0,0.0,7.4381,M,0.0000,M,0.0000,0000*68
$GPRMC,205011.44,A,3726.6636340,N,12214.0559180,W,0.0011,298.4737,190721,,,,A*69
$GPGGA,205012.44,3726.6636340,N,12214.0559180,W,1,0,0.0,7.4381,M,0.0000,M,0.0000,0000*6b
$GPRMC,205012.44,A,3726.6636340,N,12214.0559180,W,0.0024,298.4738,190721,,,,A*63
$GPGGA,205013.44,3726.6636340,N,12214.0559120,W,1,0,0.0,7.4381,M,0.0000,M,0.0000,0000*60
$GPRMC,205013.44,A,3726.6636340,N,12214.0559120,W,0.0034,298.4739,190721,,,,A*68
$GPGGA,205014.44,3726.6636820,N,12214.0560260,W,1,0,0.0,7.4182,M,0.0000,M,0.0000,0000*66
$GPRMC,205014.44,A,3726.6636820,N,12214.0560260,W,1.6745,298.4543,190721,,,,A*66
$GPGGA,205015.44,3726.6642520,N,12214.0574780,W,1,0,0.0,7.3715,M,0.0000,M,0.0000,0000*68
$GPRMC,205015.44,A,3726.6642520,N,12214.0574780,W,7.5927,296.7548,190721,,,,A*6e
$GPGGA,205016.44,3726.6651580,N,12214.0606640,W,1,0,0.0,7.3405,M,0.0000,M,0.0000,0000*6a
$GPRMC,205016.44,A,3726.6651580,N,12214.0606640,W,11.2279,288.4795,190721,,,,A*50
$GPGGA,205017.44,3726.6655780,N,12214.0649600,W,1,0,0.0,7.4102,M,0.0000,M,0.0000,0000*67
$GPRMC,205017.44,A,3726.6655780,N,12214.0649600,W,13.7480,273.8425,190721,,,,A*5f
$GPGGA,205018.44,3726.6648340,N,12214.0699100,W,1,0,0.0,7.5661,M,0.0000,M,0.0000,0000*65
$GPRMC,205018.44,A,3726.6648340,N,12214.0699100,W,15.3178,254.0867,190721,,,,A*59
$GPGGA,205019.44,3726.6624880,N,12214.0748720,W,1,0,0.0,7.6278,M,0.0000,M,0.0000,0000*6f
$GPRMC,205019.44,A,3726.6624880,N,12214.0748720,W,17.9778,233.6604,190721,,,,A*5e
$GPGGA,205020.44,3726.6586000,N,12214.0792820,W,1,0,0.0,7.7470,M,0.0000,M,0.0000,0000*69
$GPRMC,205020.44,A,3726.6586000,N,12214.0792820,W,20.0097,217.8661,190721,,,,A*57
$GPGGA,205021.44,3726.6535900,N,12214.0834040,W,1,0,0.0,7.9770,M,0.0000,M,0.0000,0000*69
$GPRMC,205021.44,A,3726.6535900,N,12214.0834040,W,23.2347,212.2930,190721,,,,A*51
$GPGGA,205022.44,3726.6476920,N,12214.0878380,W,1,0,0.0,8.3051,M,0.0000,M,0.0000,0000*68
$GPRMC,205022.44,A,3726.6476920,N,12214.0878380,W,25.9452,209.9405,190721,,,,A*55
$GPGGA,205023.44,3726.6411280,N,12214.0923140,W,1,0,0.0,8.6935,M,0.0000,M,0.0000,0000*66
$GPRMC,205023.44,A,3726.6411280,N,12214.0923140,W,27.7672,207.8727,190721,,,,A*55
$GPGGA,205024.44,3726.6340060,N,12214.0969160,W,1,0,0.0,9.2081,M,0.0000,M,0.0000,0000*61
$GPRMC,205024.44,A,3726.6340060,N,12214.0969160,W,30.0493,207.1218,190721,,,,A*5d
$GPGGA,205025.44,3726.6262720,N,12214.1018900,W,1,0,0.0,9.5284,M,0.0000,M,0.0000,0000*62
$GPRMC,205025.44,A,3726.6262720,N,12214.1018900,W,32.1931,207.0494,190721,,,,A*5b
$GPGGA,205026.44,3726.6180700,N,12214.1071820,W,1,0,0.0,9.7858,M,0.0000,M,0.0000,0000*69
$GPRMC,205026.44,A,3726.6180700,N,12214.1071820,W,34.2016,207.4240,190721,,,,A*5b
$GPGGA,205027.44,3726.6094120,N,12214.1128940,W,1,0,0.0,9.9138,M,0.0000,M,0.0000,0000*63
$GPRMC,205027.44,A,3726.6094120,N,12214.1128940,W,36.0607,207.7946,190721,,,,A*58
$GPGGA,205028.44,3726.6004240,N,12214.1189000,W,1,0,0.0,10.0602,M,0.0000,M,0.0000,0000*59
$GPRMC,205028.44,A,3726.6004240,N,12214.1189000,W,36.7010,208.0988,190721,,,,A*50
$GPGGA,205029.44,3726.5915140,N,12214.1249120,W,1,0,0.0,10.2366,M,0.0000,M,0.0000,0000*58
$GPRMC,205029.44,A,3726.5915140,N,12214.1249120,W,36.0155,208.2570,190721,,,,A*5a
$GPGGA,205030.44,3726.5828080,N,12214.1307980,W,1,0,0.0,10.4627,M,0.0000,M,0.0000,0000*5d
$GPRMC,205030.44,A,3726.5828080,N,12214.1307980,W,35.1047,208.1312,190721,,,,A*58
$GPGGA,205031.44,3726.5742100,N,12214.1365460,W,1,0,0.0,10.7576,M,0.0000,M,0.0000,0000*55
$GPRMC,205031.44,A,3726.5742100,N,12214.1365460,W,35.0425,207.9722,190721,,,,A*55
$GPGGA,205032.44,3726.5656000,N,12214.1422760,W,1,0,0.0,11.2271,M,0.0000,M,0.0000,0000*50
$GPRMC,205032.44,A,3726.5656000,N,12214.1422760,W,35.0296,207.7489,190721,,,,A*56
$GPGGA,205033.44,3726.5569600,N,12214.1479460,W,1,0,0.0,11.8991,M,0.0000,M,0.0000,0000*5a
$GPRMC,205033.44,A,3726.5569600,N,12214.1479460,W,35.1554,207.4089,190721,,,,A*5c
$GPGGA,205034.44,3726.5483140,N,12214.1535620,W,1,0,0.0,12.7367,M,0.0000,M,0.0000,0000*5b
$GPRMC,205034.44,A,3726.5483140,N,12214.1535620,W,34.6171,207.3958,190721,,,,A*55
$GPGGA,205035.44,3726.5399440,N,12214.1590460,W,1,0,0.0,13.7994,M,0.0000,M,0.0000,0000*5d
$GPRMC,205035.44,A,3726.5399440,N,12214.1590460,W,33.3158,207.6131,190721,,,,A*5f
$GPGGA,205036.44,3726.5319220,N,12214.1643560,W,1,0,0.0,14.8122,M,0.0000,M,0.0000,0000*57
$GPRMC,205036.44,A,3726.5319220,N,12214.1643560,W,31.8863,208.0800,190721,,,,A*52
$GPGGA,205037.44,3726.5242360,N,12214.1695700,W,1,0,0.0,15.6533,M,0.0000,M,0.0000,0000*58
$GPRMC,205037.44,A,3726.5242360,N,12214.1695700,W,31.0509,208.6312,190721,,,,A*51
$GPGGA,205038.44,3726.5166700,N,12214.1748140,W,1,0,0.0,16.4257,M,0.0000,M,0.0000,0000*57
$GPRMC,205038.44,A,3726.5166700,N,12214.1748140,W,31.1143,208.9341,190721,,,,A*58
$GPGGA,205039.44,3726.5091280,N,12214.1801060,W,1,0,0.0,17.1689,M,0.0000,M,0.0000,0000*50
$GPRMC,205039.44,A,3726.5091280,N,12214.1801060,W,31.0480,209.2647,190721,,,,A*5e
$GPGGA,205040.44,3726.5015320,N,12214.1855060,W,1,0,0.0,17.8408,M,0.0000,M,0.0000,0000*5a
$GPRMC,205040.44,A,3726.5015320,N,12214.1855060,W,31.9327,209.1414,190721,,,,A*52
$GPGGA,205041.44,3726.4936060,N,12214.1911040,W,1,0,0.0,18.5373,M,0.0000,M,0.0000,0000*5f
$GPRMC,205041.44,A,3726.4936060,N,12214.1911040,W,33.7029,209.4926,190721,,,,A*56
$GPGGA,205042.44,3726.4854880,N,12214.1973500,W,1,0,0.0,19.3705,M,0.0000,M,0.0000,0000*58
$GPRMC,205042.44,A,3726.4854880,N,12214.1973500,W,34.7442,213.3281,190721,,,,A*57
$GPGGA,205043.44,3726.4775080,N,12214.2046760,W,1,0,0.0,20.2970,M,0.0000,M,0.0000,0000*52
$GPRMC,205043.44,A,3726.4775080,N,12214.2046760,W,36.3683,217.9873,190721,,,,A*5a
$GPGGA,205044.44,3726.4695580,N,12214.2129980,W,1,0,0.0,21.2532,M,0.0000,M,0.0000,0000*5c
$GPRMC,205044.44,A,3726.4695580,N,12214.2129980,W,38.0772,221.4357,190721,,,,A*58
$GPGGA,205045.44,3726.4617280,N,12214.2223580,W,1,0,0.0,22.3653,M,0.0000,M,0.0000,0000*53
$GPRMC,205045.44,A,3726.4617280,N,12214.2223580,W,39.6656,225.1456,190721,,,,A*56
$GPGGA,205046.44,3726.4541680,N,12214.2327440,W,1,0,0.0,23.5470,M,0.0000,M,0.0000,0000*58
$GPRMC,205046.44,A,3726.4541680,N,12214.2327440,W,40.5673,229.6429,190721,,,,A*50
$GPGGA,205047.44,3726.4472920,N,12214.2439820,W,1,0,0.0,24.7572,M,0.0000,M,0.0000,0000*59
$GPRMC,205047.44,A,3726.4472920,N,12214.2439820,W,40.6672,234.5026,190721,,,,A*51
$GPGGA,205048.44,3726.4408900,N,12214.2557480,W,1,0,0.0,26.0177,M,0.0000,M,0.0000,0000*52
$GPRMC,205048.44,A,3726.4408900,N,12214.2557480,W,40.9709,236.2728,190721,,,,A*50
$GPGGA,205049.44,3726.4346380,N,12214.2677000,W,1,0,0.0,27.2411,M,0.0000,M,0.0000,0000*57
$GPRMC,205049.44,A,3726.4346380,N,12214.2677000,W,40.9086,236.6987,190721,,,,A*5c
$GPGGA,205050.44,3726.4282420,N,12214.2794360,W,1,0,0.0,28.5395,M,0.0000,M,0.0000,0000*51
$GPRMC,205050.44,A,3726.4282420,N,12214.2794360,W,40.6458,234.4248,190721,,,,A*59
$GPGGA,205051.44,3726.4214140,N,12214.2907220,W,1,0,0.0,29.8201,M,0.0000,M,0.0000,0000*5d
$GPRMC,205051.44,A,3726.4214140,N,12214.2907220,W,40.5912,231.8039,190721,,,,A*58
$GPGGA,205052.44,3726.4143280,N,12214.3017620,W,1,0,0.0,30.9376,M,0.0000,M,0.0000,0000*55
$GPRMC,205052.44,A,3726.4143280,N,12214.3017620,W,40.6921,230.6974,190721,,,,A*54
$GPGGA,205053.44,3726.4070200,N,12214.3126460,W,1,0,0.0,31.9862,M,0.0000,M,0.0000,0000*57
$GPRMC,205053.44,A,3726.4070200,N,12214.3126460,W,40.9563,229.2843,190721,,,,A*55
$GPGGA,205054.44,3726.3994000,N,12214.3234040,W,1,0,0.0,33.0600,M,0.0000,M,0.0000,0000*51
$GPRMC,205054.44,A,3726.3994000,N,12214.3234040,W,41.5595,227.6013,190721,,,,A*51
$GPGGA,205055.44,3726.3914140,N,12214.3338560,W,1,0,0.0,34.1618,M,0.0000,M,0.0000,0000*58
$GPRMC,205055.44,A,3726.3914140,N,12214.3338560,W,41.4921,225.1640,190721,,,,A*50
$GPGGA,205056.44,3726.3831820,N,12214.3439480,W,1,0,0.0,35.0758,M,0.0000,M,0.0000,0000*5e
$GPRMC,205056.44,A,3726.3831820,N,12214.3439480,W,41.2646,223.4043,190721,,,,A*5d
$GPGGA,205057.44,3726.3747580,N,12214.3536080,W,1,0,0.0,36.1387,M,0.0000,M,0.0000,0000*58
$GPRMC,205057.44,A,3726.3747580,N,12214.3536080,W,40.5678,221.3660,190721,,,,A*56
$GPGGA,205058.44,3726.3662380,N,12214.3624820,W,1,0,0.0,37.3255,M,0.0000,M,0.0000,0000*58
$GPRMC,205058.44,A,3726.3662380,N,12214.3624820,W,39.2261,218.5607,190721,,,,A*53
$GPGGA,205059.44,3726.3577420,N,12214.3709120,W,1,0,0.0,38.4451,M,0.0000,M,0.0000,0000*5e
$GPRMC,205059.44,A,3726.3577420,N,12214.3709120,W,38.6367,217.9163,190721,,,,A*5b
$GPGGA,205100.44,3726.3492040,N,12214.3789100,W,1,0,0.0,39.4516,M,0.0000,M,0.0000,0000*52
$GPRMC,205100.44,A,3726.3492040,N,12214.3789100,W,38.1097,215.9382,190721,,,,A*50
$GPGGA,205101.44,3726.3405340,N,12214.3864820,W,1,0,0.0,40.3297,M,0.0000,M,0.0000,0000*5e
$GPRMC,205101.44,A,3726.3405340,N,12214.3864820,W,37.8214,214.0669,190721,,,,A*5c
$GPGGA,205102.44,3726.3317620,N,12214.3936460,W,1,0,0.0,41.2171,M,0.0000,M,0.0000,0000*5f
$GPRMC,205102.44,A,3726.3317620,N,12214.3936460,W,37.4868,212.2819,190721,,,,A*56
$GPGGA,205103.44,3726.3228760,N,12214.4004680,W,1,0,0.0,41.9315,M,0.0000,M,0.0000,0000*5e
$GPRMC,205103.44,A,3726.3228760,N,12214.4004680,W,37.5875,210.8014,190721,,,,A*5c
$GPGGA,205104.44,3726.3137380,N,12214.4070200,W,1,0,0.0,42.4458,M,0.0000,M,0.0000,0000*51
$GPRMC,205104.44,A,3726.3137380,N,12214.4070200,W,38.1462,208.9544,190721,,,,A*5a
$GPGGA,205105.44,3726.3042820,N,12214.4132360,W,1,0,0.0,42.9075,M,0.0000,M,0.0000,0000*54
$GPRMC,205105.44,A,3726.3042820,N,12214.4132360,W,38.6157,206.6339,190721,,,,A*50
$GPGGA,205106.44,3726.2945380,N,12214.4190560,W,1,0,0.0,43.2561,M,0.0000,M,0.0000,0000*5d
$GPRMC,205106.44,A,3726.2945380,N,12214.4190560,W,39.0536,204.5782,190721,,,,A*52
$GPGGA,205107.44,3726.2845120,N,12214.4245400,W,1,0,0.0,43.4869,M,0.0000,M,0.0000,0000*5a
$GPRMC,205107.44,A,3726.2845120,N,12214.4245400,W,39.5916,202.9305,190721,,,,A*5c
$GPGGA,205108.44,3726.2742580,N,12214.4297480,W,1,0,0.0,43.6473,M,0.0000,M,0.0000,0000*51
$GPRMC,205108.44,A,3726.2742580,N,12214.4297480,W,39.8744,201.4439,190721,,,,A*50
$GPGGA,205109.44,3726.2639200,N,12214.4346800,W,1,0,0.0,43.8143,M,0.0000,M,0.0000,0000*53
$GPRMC,205109.44,A,3726.2639200,N,12214.4346800,W,39.7809,200.1823,190721,,,,A*50
$GPGGA,205110.44,3726.2535220,N,12214.4395160,W,1,0,0.0,43.8528,M,0.0000,M,0.0000,0000*5e
$GPRMC,205110.44,A,3726.2535220,N,12214.4395160,W,39.9482,200.4956,190721,,,,A*53
$GPGGA,205111.44,3726.2431420,N,12214.4445500,W,1,0,0.0,44.1202,M,0.0000,M,0.0000,0000*55
$GPRMC,205111.44,A,3726.2431420,N,12214.4445500,W,40.0804,201.7336,190721,,,,A*52
$GPGGA,205112.44,3726.2328340,N,12214.4499320,W,1,0,0.0,44.4769,M,0.0000,M,0.0000,0000*50
$GPRMC,205112.44,A,3726.2328340,N,12214.4499320,W,40.1310,203.1035,190721,,,,A*51
$GPGGA,205113.44,3726.2227540,N,12214.4556260,W,1,0,0.0,44.9380,M,0.0000,M,0.0000,0000*50
$GPRMC,205113.44,A,3726.2227540,N,12214.4556260,W,39.3139,205.2588,190721,,,,A*5c
$GPGGA,205114.44,3726.2131300,N,12214.4618360,W,1,0,0.0,45.4913,M,0.0000,M,0.0000,0000*55
$GPRMC,205114.44,A,3726.2131300,N,12214.4618360,W,38.5037,208.7403,190721,,,,A*57
$GPGGA,205115.44,3726.2041000,N,12214.4688200,W,1,0,0.0,46.1729,M,0.0000,M,0.0000,0000*5e
$GPRMC,205115.44,A,3726.2041000,N,12214.4688200,W,37.6518,214.4166,190721,,,,A*51
$GPGGA,205116.44,3726.1959880,N,12214.4767760,W,1,0,0.0,46.9648,M,0.0000,M,0.0000,0000*53
$GPRMC,205116.44,A,3726.1959880,N,12214.4767760,W,36.3435,221.0599,190721,,,,A*5e
$GPGGA,205117.44,3726.1888840,N,12214.4854940,W,1,0,0.0,47.6140,M,0.0000,M,0.0000,0000*51
$GPRMC,205117.44,A,3726.1888840,N,12214.4854940,W,35.1166,226.2411,190721,,,,A*5b
$GPGGA,205118.44,3726.1824760,N,12214.4944520,W,1,0,0.0,48.1781,M,0.0000,M,0.0000,0000*5c
$GPRMC,205118.44,A,3726.1824760,N,12214.4944520,W,33.8583,229.1988,190721,,,,A*54
$GPGGA,205119.44,3726.1765780,N,12214.5033320,W,1,0,0.0,48.8663,M,0.0000,M,0.0000,0000*53
$GPRMC,205119.44,A,3726.1765780,N,12214.5033320,W,32.2881,230.9074,190721,,,,A*51
$GPGGA,205120.44,3726.1713100,N,12214.5120080,W,1,0,0.0,49.5678,M,0.0000,M,0.0000,0000*5a
$GPRMC,205120.44,A,3726.1713100,N,12214.5120080,W,30.2059,233.4381,190721,,,,A*56
$GPGGA,205121.44,3726.1666480,N,12214.5202400,W,1,0,0.0,50.1759,M,0.0000,M,0.0000,0000*54
$GPRMC,205121.44,A,3726.1666480,N,12214.5202400,W,27.2863,235.7419,190721,,,,A*52
$GPGGA,205122.44,3726.1629880,N,12214.5277400,W,1,0,0.0,50.7728,M,0.0000,M,0.0000,0000*52
$GPRMC,205122.44,A,3726.1629880,N,12214.5277400,W,22.8122,240.3627,190721,,,,A*5e
$GPGGA,205123.44,3726.1605760,N,12214.5340040,W,1,0,0.0,51.1475,M,0.0000,M,0.0000,0000*55
$GPRMC,205123.44,A,3726.1605760,N,12214.5340040,W,17.1560,246.5635,190721,,,,A*5b
$GPGGA,205124.44,3726.1593100,N,12214.5387800,W,1,0,0.0,51.4335,M,0.0000,M,0.0000,0000*5f
$GPRMC,205124.44,A,3726.1593100,N,12214.5387800,W,11.8062,253.4348,190721,,,,A*55
$GPGGA,205125.44,3726.1587760,N,12214.5419660,W,1,0,0.0,51.6164,M,0.0000,M,0.0000,0000*57
$GPRMC,205125.44,A,3726.1587760,N,12214.5419660,W,6.9445,258.6153,190721,,,,A*6e
$GPGGA,205126.44,3726.1585840,N,12214.5437060,W,1,0,0.0,51.7005,M,0.0000,M,0.0000,0000*56
$GPRMC,205126.44,A,3726.1585840,N,12214.5437060,W,3.7785,261.3349,190721,,,,A*6a
$GPGGA,205127.44,3726.1584760,N,12214.5450800,W,1,0,0.0,51.7491,M,0.0000,M,0.0000,0000*5d
$GPRMC,205127.44,A,3726.1584760,N,12214.5450800,W,4.5163,263.3216,190721,,,,A*6a
$GPGGA,205128.44,3726.1583800,N,12214.5474320,W,1,0,0.0,51.8310,M,0.0000,M,0.0000,0000*52
$GPRMC,205128.44,A,3726.1583800,N,12214.5474320,W,9.2990,266.6307,190721,,,,A*6b
$GPGGA,205129.44,3726.1584400,N,12214.5514640,W,1,0,0.0,51.9967,M,0.0000,M,0.0000,0000*57
$GPRMC,205129.44,A,3726.1584400,N,12214.5514640,W,13.4825,272.0960,190721,,,,A*5f
$GPGGA,205130.44,3726.1589800,N,12214.5565460,W,1,0,0.0,52.3125,M,0.0000,M,0.0000,0000*5f
$GPRMC,205130.44,A,3726.1589800,N,12214.5565460,W,15.6391,279.3264,190721,,,,A*57
$GPGGA,205131.44,3726.1601260,N,12214.5621320,W,1,0,0.0,52.7281,M,0.0000,M,0.0000,0000*58
$GPRMC,205131.44,A,3726.1601260,N,12214.5621320,W,17.5754,285.8727,190721,,,,A*5f
$GPGGA,205132.44,3726.1617760,N,12214.5683120,W,1,0,0.0,53.1060,M,0.0000,M,0.0000,0000*59
$GPRMC,205132.44,A,3726.1617760,N,12214.5683120,W,19.6396,289.1133,190721,,,,A*55
$GPGGA,205133.44,3726.1638040,N,12214.5750320,W,1,0,0.0,53.6334,M,0.0000,M,0.0000,0000*58
$GPRMC,205133.44,A,3726.1638040,N,12214.5750320,W,21.4612,291.4996,190721,,,,A*5a
$GPGGA,205134.44,3726.1661860,N,12214.5821240,W,1,0,0.0,54.2078,M,0.0000,M,0.0000,0000*5f
$GPRMC,205134.44,A,3726.1661860,N,12214.5821240,W,22.6008,293.5221,190721,,,,A*5d
$GPGGA,205135.44,3726.1688560,N,12214.5894080,W,1,0,0.0,54.8433,M,0.0000,M,0.0000,0000*55
$GPRMC,205135.44,A,3726.1688560,N,12214.5894080,W,23.2523,295.1767,190721,,,,A*5a
$GPGGA,205136.44,3726.1716460,N,12214.5966080,W,1,0,0.0,55.5461,M,0.0000,M,0.0000,0000*56
$GPRMC,205136.44,A,3726.1716460,N,12214.5966080,W,22.4547,296.0752,190721,,,,A*53
$GPGGA,205137.44,3726.1743340,N,12214.6034180,W,1,0,0.0,56.1910,M,0.0000,M,0.0000,0000*52
$GPRMC,205137.44,A,3726.1743340,N,12214.6034180,W,21.2825,296.3225,190721,,,,A*51
$GPGGA,205138.44,3726.1769740,N,12214.6100360,W,1,0,0.0,56.8156,M,0.0000,M,0.0000,0000*58
$GPRMC,205138.44,A,3726.1769740,N,12214.6100360,W,21.2742,296.5974,190721,,,,A*5f
$GPGGA,205139.44,3726.1796980,N,12214.6167320,W,1,0,0.0,57.4214,M,0.0000,M,0.0000,0000*56
$GPRMC,205139.44,A,3726.1796980,N,12214.6167320,W,21.9443,297.2607,190721,,,,A*5d
$GPGGA,205140.44,3726.1826620,N,12214.6236800,W,1,0,0.0,58.1145,M,0.0000,M,0.0000,0000*5a
$GPRMC,205140.44,A,3726.1826620,N,12214.6236800,W,23.2285,298.5388,190721,,,,A*53
$GPGGA,205141.44,3726.1858900,N,12214.6307960,W,1,0,0.0,58.8305,M,0.0000,M,0.0000,0000*54
$GPRMC,205141.44,A,3726.1858900,N,12214.6307960,W,23.6470,300.0911,190721,,,,A*55
$GPGGA,205142.44,3726.1893640,N,12214.6378820,W,1,0,0.0,59.5701,M,0.0000,M,0.0000,0000*5a
$GPRMC,205142.44,A,3726.1893640,N,12214.6378820,W,24.1229,302.5261,190721,,,,A*56
$GPGGA,205143.44,3726.1932100,N,12214.6449080,W,1,0,0.0,60.2829,M,0.0000,M,0.0000,0000*5d
$GPRMC,205143.44,A,3726.1932100,N,12214.6449080,W,24.6892,305.4706,190721,,,,A*56
$GPGGA,205144.44,3726.1973860,N,12214.6518740,W,1,0,0.0,61.0388,M,0.0000,M,0.0000,0000*5d
$GPRMC,205144.44,A,3726.1973860,N,12214.6518740,W,25.2710,307.5334,190721,,,,A*53
$GPGGA,205145.44,3726.2018560,N,12214.6588040,W,1,0,0.0,61.8352,M,0.0000,M,0.0000,0000*57
$GPRMC,205145.44,A,3726.2018560,N,12214.6588040,W,25.8187,309.7973,190721,,,,A*51
$GPGGA,205146.44,3726.2066320,N,12214.6656500,W,1,0,0.0,62.6721,M,0.0000,M,0.0000,0000*53
$GPRMC,205146.44,A,3726.2066320,N,12214.6656500,W,26.3262,311.8045,190721,,,,A*52
$GPGGA,205147.44,3726.2116180,N,12214.6725080,W,1,0,0.0,63.5173,M,0.0000,M,0.0000,0000*57
$GPRMC,205147.44,A,3726.2116180,N,12214.6725080,W,26.8659,312.5205,190721,,,,A*5a
$GPGGA,205148.44,3726.2167300,N,12214.6794380,W,1,0,0.0,64.3698,M,0.0000,M,0.0000,0000*5e
$GPRMC,205148.44,A,3726.2167300,N,12214.6794380,W,27.2291,312.6790,190721,,,,A*51
$GPGGA,205149.44,3726.2218960,N,12214.6865180,W,1,0,0.0,65.1476,M,0.0000,M,0.0000,0000*5a
$GPRMC,205149.44,A,3726.2218960,N,12214.6865180,W,27.8794,312.3016,190721,,,,A*52
$GPGGA,205150.44,3726.2271820,N,12214.6938260,W,1,0,0.0,65.8924,M,0.0000,M,0.0000,0000*5f
$GPRMC,205150.44,A,3726.2271820,N,12214.6938260,W,28.7061,312.2054,190721,,,,A*5e
$GPGGA,205151.44,3726.2326480,N,12214.7013380,W,1,0,0.0,66.5785,M,0.0000,M,0.0000,0000*5e
$GPRMC,205151.44,A,3726.2326480,N,12214.7013380,W,29.6207,312.4756,190721,,,,A*55
$GPGGA,205152.44,3726.2383420,N,12214.7090720,W,1,0,0.0,67.2542,M,0.0000,M,0.0000,0000*52
$GPRMC,205152.44,A,3726.2383420,N,12214.7090720,W,30.7720,312.8381,190721,,,,A*5d
$GPGGA,205153.44,3726.2442820,N,12214.7171000,W,1,0,0.0,67.9369,M,0.0000,M,0.0000,0000*5a
$GPRMC,205153.44,A,3726.2442820,N,12214.7171000,W,32.0341,312.7668,190721,,,,A*5a
$GPGGA,205154.44,3726.2504800,N,12214.7254460,W,1,0,0.0,68.6211,M,0.0000,M,0.0000,0000*54
$GPRMC,205154.44,A,3726.2504800,N,12214.7254460,W,33.3089,313.2628,190721,,,,A*5f
$GPGGA,205155.44,3726.2569600,N,12214.7339900,W,1,0,0.0,69.3319,M,0.0000,M,0.0000,0000*5c
$GPRMC,205155.44,A,3726.2569600,N,12214.7339900,W,34.0816,313.7240,190721,,,,A*5f
$GPGGA,205156.44,3726.2635600,N,12214.7425340,W,1,0,0.0,70.0511,M,0.0000,M,0.0000,0000*54
$GPRMC,205156.44,A,3726.2635600,N,12214.7425340,W,34.1177,314.2805,190721,,,,A*54
$GPGGA,205157.44,3726.2701960,N,12214.7510120,W,1,0,0.0,70.8065,M,0.0000,M,0.0000,0000*57
$GPRMC,205157.44,A,3726.2701960,N,12214.7510120,W,34.0062,314.2405,190721,,,,A*51
$GPGGA,205158.44,3726.2767000,N,12214.7596100,W,1,0,0.0,71.5882,M,0.0000,M,0.0000,0000*56
$GPRMC,205158.44,A,3726.2767000,N,12214.7596100,W,34.1320,312.7594,190721,,,,A*53
$GPGGA,205159.44,3726.2831740,N,12214.7685200,W,1,0,0.0,72.3084,M,0.0000,M,0.0000,0000*51
$GPRMC,205159.44,A,3726.2831740,N,12214.7685200,W,34.9288,312.0991,190721,,,,A*5a
$GPGGA,205200.44,3726.2898700,N,12214.7777180,W,1,0,0.0,73.0953,M,0.0000,M,0.0000,0000*5f
$GPRMC,205200.44,A,3726.2898700,N,12214.7777180,W,36.5142,312.7714,190721,,,,A*5a
$GPGGA,205201.44,3726.2969320,N,12214.7870480,W,1,0,0.0,73.8793,M,0.0000,M,0.0000,0000*50
$GPRMC,205201.44,A,3726.2969320,N,12214.7870480,W,37.2962,313.9625,190721,,,,A*5f
$GPGGA,205202.44,3726.3043240,N,12214.7964680,W,1,0,0.0,74.7173,M,0.0000,M,0.0000,0000*52
$GPRMC,205202.44,A,3726.3043240,N,12214.7964680,W,38.1000,314.9249,190721,,,,A*55
$GPGGA,205203.44,3726.3118420,N,12214.8057440,W,1,0,0.0,75.5196,M,0.0000,M,0.0000,0000*5c
$GPRMC,205203.44,A,3726.3118420,N,12214.8057440,W,37.7556,315.7258,190721,,,,A*53
$GPGGA,205204.44,3726.3193720,N,12214.8149000,W,1,0,0.0,76.2538,M,0.0000,M,0.0000,0000*51
$GPRMC,205204.44,A,3726.3193720,N,12214.8149000,W,37.6771,315.9484,190721,,,,A*55
$GPGGA,205205.44,3726.3268480,N,12214.8239840,W,1,0,0.0,77.0322,M,0.0000,M,0.0000,0000*58
$GPRMC,205205.44,A,3726.3268480,N,12214.8239840,W,37.0607,315.7372,190721,,,,A*54
$GPGGA,205206.44,3726.3341800,N,12214.8330260,W,1,0,0.0,77.7920,M,0.0000,M,0.0000,0000*5a
$GPRMC,205206.44,A,3726.3341800,N,12214.8330260,W,37.0185,315.1852,190721,,,,A*5b
$GPGGA,205207.44,3726.3414820,N,12214.8421760,W,1,0,0.0,78.5568,M,0.0000,M,0.0000,0000*51
$GPRMC,205207.44,A,3726.3414820,N,12214.8421760,W,37.3158,314.8857,190721,,,,A*53
$GPGGA,205208.44,3726.3488680,N,12214.8514940,W,1,0,0.0,79.3304,M,0.0000,M,0.0000,0000*5f
$GPRMC,205208.44,A,3726.3488680,N,12214.8514940,W,38.0819,314.7245,190721,,,,A*50
$GPGGA,205209.44,3726.3564100,N,12214.8610640,W,1,0,0.0,80.1241,M,0.0000,M,0.0000,0000*5e
$GPRMC,205209.44,A,3726.3564100,N,12214.8610640,W,39.0239,314.6300,190721,,,,A*5d
$GPGGA,205210.44,3726.3640780,N,12214.8708140,W,1,0,0.0,80.9338,M,0.0000,M,0.0000,0000*55
$GPRMC,205210.44,A,3726.3640780,N,12214.8708140,W,39.5768,314.5307,190721,,,,A*51
$GPGGA,205211.44,3726.3718540,N,12214.8807080,W,1,0,0.0,81.7517,M,0.0000,M,0.0000,0000*5f
$GPRMC,205211.44,A,3726.3718540,N,12214.8807080,W,39.9748,314.5620,190721,,,,A*51
$GPGGA,205212.44,3726.3796780,N,12214.8906380,W,1,0,0.0,82.5718,M,0.0000,M,0.0000,0000*5b
$GPRMC,205212.44,A,3726.3796780,N,12214.8906380,W,40.0249,314.6556,190721,,,,A*5b
$GPGGA,205213.44,3726.3875080,N,12214.9005800,W,1,0,0.0,83.3875,M,0.0000,M,0.0000,0000*54
$GPRMC,205213.44,A,3726.3875080,N,12214.9005800,W,40.2105,314.5519,190721,,,,A*56
$GPGGA,205214.44,3726.3953560,N,12214.9106480,W,1,0,0.0,84.2123,M,0.0000,M,0.0000,0000*57
$GPRMC,205214.44,A,3726.3953560,N,12214.9106480,W,40.4983,314.1070,190721,,,,A*57
$GPGGA,205215.44,3726.4032100,N,12214.9208180,W,1,0,0.0,85.0759,M,0.0000,M,0.0000,0000*5d
$GPRMC,205215.44,A,3726.4032100,N,12214.9208180,W,40.6431,314.0021,190721,,,,A*56
$GPGGA,205216.44,3726.4110640,N,12214.9310360,W,1,0,0.0,85.9352,M,0.0000,M,0.0000,0000*5e
$GPRMC,205216.44,A,3726.4110640,N,12214.9310360,W,40.8241,313.8347,190721,,,,A*50
$GPGGA,205217.44,3726.4189420,N,12214.9413680,W,1,0,0.0,86.8111,M,0.0000,M,0.0000,0000*53
$GPRMC,205217.44,A,3726.4189420,N,12214.9413680,W,41.1299,313.5864,190721,,,,A*50
$GPGGA,205218.44,3726.4268380,N,12214.9517660,W,1,0,0.0,87.6507,M,0.0000,M,0.0000,0000*5a
$GPRMC,205218.44,A,3726.4268380,N,12214.9517660,W,41.1399,313.6086,190721,,,,A*53
$GPGGA,205219.44,3726.4347400,N,12214.9621280,W,1,0,0.0,88.5155,M,0.0000,M,0.0000,0000*5b
$GPRMC,205219.44,A,3726.4347400,N,12214.9621280,W,41.0610,313.7746,190721,,,,A*52
$GPGGA,205220.44,3726.4426480,N,12214.9724540,W,1,0,0.0,89.3489,M,0.0000,M,0.0000,0000*55
$GPRMC,205220.44,A,3726.4426480,N,12214.9724540,W,41.0639,313.8483,190721,,,,A*51
$GPGGA,205221.44,3726.4505800,N,12214.9827920,W,1,0,0.0,90.1730,M,0.0000,M,0.0000,0000*5d
$GPRMC,205221.44,A,3726.4505800,N,12214.9827920,W,41.2988,313.9285,190721,,,,A*54
$GPGGA,205222.44,3726.4586200,N,12214.9932020,W,1,0,0.0,91.0215,M,0.0000,M,0.0000,0000*51
$GPRMC,205222.44,A,3726.4586200,N,12214.9932020,W,41.7198,314.1121,190721,,,,A*54
$GPGGA,205223.44,3726.4667320,N,12215.0037080,W,1,0,0.0,91.8727,M,0.0000,M,0.0000,0000*5d
$GPRMC,205223.44,A,3726.4667320,N,12215.0037080,W,42.1697,313.9844,190721,,,,A*5c
$GPGGA,205224.44,3726.4749280,N,12215.0143460,W,1,0,0.0,92.7256,M,0.0000,M,0.0000,0000*5b
$GPRMC,205224.44,A,3726.4749280,N,12215.0143460,W,42.6522,314.0110,190721,,,,A*59
$GPGGA,205225.44,3726.4832140,N,12215.0250980,W,1,0,0.0,93.6260,M,0.0000,M,0.0000,0000*51
$GPRMC,205225.44,A,3726.4832140,N,12215.0250980,W,43.1005,313.9388,190721,,,,A*5d
$GPGGA,205226.44,3726.4915660,N,12215.0359760,W,1,0,0.0,94.6179,M,0.0000,M,0.0000,0000*57
$GPRMC,205226.44,A,3726.4915660,N,12215.0359760,W,43.4754,313.8451,190721,,,,A*53
$GPGGA,205227.44,3726.4999720,N,12215.0469680,W,1,0,0.0,95.6373,M,0.0000,M,0.0000,0000*55
$GPRMC,205227.44,A,3726.4999720,N,12215.0469680,W,43.8299,313.7931,190721,,,,A*54
$GPGGA,205228.44,3726.5084440,N,12215.0580560,W,1,0,0.0,96.6653,M,0.0000,M,0.0000,0000*54
$GPRMC,205228.44,A,3726.5084440,N,12215.0580560,W,44.1934,313.8188,190721,,,,A*56
$GPGGA,205229.44,3726.5169760,N,12215.0692100,W,1,0,0.0,97.7246,M,0.0000,M,0.0000,0000*54
$GPRMC,205229.44,A,3726.5169760,N,12215.0692100,W,44.3525,313.8029,190721,,,,A*52
$GPGGA,205230.44,3726.5254480,N,12215.0804000,W,1,0,0.0,98.7331,M,0.0000,M,0.0000,0000*52
$GPRMC,205230.44,A,3726.5254480,N,12215.0804000,W,44.1729,313.2793,190721,,,,A*5a
$GPGGA,205231.44,3726.5337460,N,12215.0917280,W,1,0,0.0,99.7110,M,0.0000,M,0.0000,0000*50
$GPRMC,205231.44,A,3726.5337460,N,12215.0917280,W,44.0289,311.9407,190721,,,,A*51
$GPGGA,205232.44,3726.5417800,N,12215.1032900,W,1,0,0.0,100.6053,M,0.0000,M,0.0000,0000*66
$GPRMC,205232.44,A,3726.5417800,N,12215.1032900,W,43.9583,310.3703,190721,,,,A*5e
$GPGGA,205233.44,3726.5495620,N,12215.1150980,W,1,0,0.0,101.5187,M,0.0000,M,0.0000,0000*66
$GPRMC,205233.44,A,3726.5495620,N,12215.1150980,W,43.8839,309.0521,190721,,,,A*50
$GPGGA,205234.44,3726.5571040,N,12215.1270980,W,1,0,0.0,102.4101,M,0.0000,M,0.0000,0000*67
$GPRMC,205234.44,A,3726.5571040,N,12215.1270980,W,43.7274,307.4650,190721,,,,A*5e
$GPGGA,205235.44,3726.5643460,N,12215.1393260,W,1,0,0.0,103.2953,M,0.0000,M,0.0000,0000*63
$GPRMC,205235.44,A,3726.5643460,N,12215.1393260,W,43.6332,305.9075,190721,,,,A*5e
$GPGGA,205236.44,3726.5713060,N,12215.1517700,W,1,0,0.0,104.1773,M,0.0000,M,0.0000,0000*61
$GPRMC,205236.44,A,3726.5713060,N,12215.1517700,W,43.5257,304.3704,190721,,,,A*5f
$GPGGA,205237.44,3726.5779840,N,12215.1644060,W,1,0,0.0,105.0486,M,0.0000,M,0.0000,0000*6b
$GPRMC,205237.44,A,3726.5779840,N,12215.1644060,W,43.4428,302.9351,190721,,,,A*5b
$GPGGA,205238.44,3726.5844040,N,12215.1772220,W,1,0,0.0,105.9179,M,0.0000,M,0.0000,0000*63
$GPRMC,205238.44,A,3726.5844040,N,12215.1772220,W,43.3469,301.5329,190721,,,,A*5d
$GPGGA,205239.44,3726.5905660,N,12215.1901940,W,1,0,0.0,106.7973,M,0.0000,M,0.0000,0000*6a
$GPRMC,205239.44,A,3726.5905660,N,12215.1901940,W,43.2637,300.1980,190721,,,,A*5f
$GPGGA,205240.44,3726.5965000,N,12215.2033160,W,1,0,0.0,107.6623,M,0.0000,M,0.0000,0000*69
$GPRMC,205240.44,A,3726.5965000,N,12215.2033160,W,43.2685,299.1181,190721,,,,A*57
$GPGGA,205241.44,3726.6022300,N,12215.2165940,W,1,0,0.0,108.5305,M,0.0000,M,0.0000,0000*67
$GPRMC,205241.44,A,3726.6022300,N,12215.2165940,W,43.2852,297.8235,190721,,,,A*5b
$GPGGA,205242.44,3726.6077020,N,12215.2300400,W,1,0,0.0,109.4159,M,0.0000,M,0.0000,0000*66
$GPRMC,205242.44,A,3726.6077020,N,12215.2300400,W,43.2977,296.4034,190721,,,,A*59
$GPGGA,205243.44,3726.6128980,N,12215.2436480,W,1,0,0.0,110.3117,M,0.0000,M,0.0000,0000*60
$GPRMC,205243.44,A,3726.6128980,N,12215.2436480,W,43.2213,294.9775,190721,,,,A*5e
$GPGGA,205244.44,3726.6178180,N,12215.2573640,W,1,0,0.0,111.1921,M,0.0000,M,0.0000,0000*6a
$GPRMC,205244.44,A,3726.6178180,N,12215.2573640,W,43.0008,293.6138,190721,,,,A*57
$GPGGA,205245.44,3726.6224320,N,12215.2711520,W,1,0,0.0,112.0551,M,0.0000,M,0.0000,0000*63
$GPRMC,205245.44,A,3726.6224320,N,12215.2711520,W,42.7959,292.1514,190721,,,,A*50
$GPGGA,205246.44,3726.6267580,N,12215.2850480,W,1,0,0.0,112.9155,M,0.0000,M,0.0000,0000*63
$GPRMC,205246.44,A,3726.6267580,N,12215.2850480,W,42.8482,290.7027,190721,,,,A*5c
$GPGGA,205247.44,3726.6307960,N,12215.2990520,W,1,0,0.0,113.7731,M,0.0000,M,0.0000,0000*6a
$GPRMC,205247.44,A,3726.6307960,N,12215.2990520,W,42.3120,289.3718,190721,,,,A*5f
$GPGGA,205248.44,3726.6345460,N,12215.3129120,W,1,0,0.0,114.6223,M,0.0000,M,0.0000,0000*61
$GPRMC,205248.44,A,3726.6345460,N,12215.3129120,W,41.8546,288.2603,190721,,,,A*53
$GPGGA,205249.44,3726.6380680,N,12215.3268440,W,1,0,0.0,115.4999,M,0.0000,M,0.0000,0000*69
$GPRMC,205249.44,A,3726.6380680,N,12215.3268440,W,41.8821,287.0914,190721,,,,A*5a
$GPGGA,205250.44,3726.6413380,N,12215.3408360,W,1,0,0.0,116.3267,M,0.0000,M,0.0000,0000*62
$GPRMC,205250.44,A,3726.6413380,N,12215.3408360,W,41.7289,285.7659,190721,,,,A*5b
$GPGGA,205251.44,3726.6443260,N,12215.3548640,W,1,0,0.0,117.1704,M,0.0000,M,0.0000,0000*68
$GPRMC,205251.44,A,3726.6443260,N,12215.3548640,W,41.5466,284.3564,190721,,,,A*5f
$GPGGA,205252.44,3726.6470320,N,12215.3689220,W,1,0,0.0,118.0030,M,0.0000,M,0.0000,0000*6c
$GPRMC,205252.44,A,3726.6470320,N,12215.3689220,W,41.3813,282.9689,190721,,,,A*51
$GPGGA,205253.44,3726.6494500,N,12215.3830040,W,1,0,0.0,118.8106,M,0.0000,M,0.0000,0000*67
$GPRMC,205253.44,A,3726.6494500,N,12215.3830040,W,41.2196,281.5754,190721,,,,A*5d
$GPGGA,205254.44,3726.6515980,N,12215.3970920,W,1,0,0.0,119.5641,M,0.0000,M,0.0000,0000*6e
$GPRMC,205254.44,A,3726.6515980,N,12215.3970920,W,41.0747,280.3489,190721,,,,A*50
$GPGGA,205255.44,3726.6535120,N,12215.4111980,W,1,0,0.0,120.2763,M,0.0000,M,0.0000,0000*61
$GPRMC,205255.44,A,3726.6535120,N,12215.4111980,W,40.9674,279.2162,190721,,,,A*5d
$GPGGA,205256.44,3726.6552100,N,12215.4253220,W,1,0,0.0,120.9514,M,0.0000,M,0.0000,0000*6c
$GPRMC,205256.44,A,3726.6552100,N,12215.4253220,W,40.9727,278.0753,190721,,,,A*59
$GPGGA,205257.44,3726.6566560,N,12215.4395000,W,1,0,0.0,121.5997,M,0.0000,M,0.0000,0000*69
$GPRMC,205257.44,A,3726.6566560,N,12215.4395000,W,40.9757,276.6586,190721,,,,A*53
$GPGGA,205258.44,3726.6578140,N,12215.4537140,W,1,0,0.0,122.2295,M,0.0000,M,0.0000,0000*69
$GPRMC,205258.44,A,3726.6578140,N,12215.4537140,W,40.9631,275.2679,190721,,,,A*5b
$GPGGA,205259.44,3726.6586840,N,12215.4679580,W,1,0,0.0,122.8287,M,0.0000,M,0.0000,0000*68
$GPRMC,205259.44,A,3726.6586840,N,12215.4679580,W,41.0043,273.8139,190721,,,,A*57
$GPGGA,205300.44,3726.6592840,N,12215.4822560,W,1,0,0.0,123.3571,M,0.0000,M,0.0000,0000*6a
$GPRMC,205300.44,A,3726.6592840,N,12215.4822560,W,41.1174,272.4500,190721,,,,A*56
$GPGGA,205301.44,3726.6596260,N,12215.4966140,W,1,0,0.0,123.8705,M,0.0000,M,0.0000,0000*6a
$GPRMC,205301.44,A,3726.6596260,N,12215.4966140,W,41.2454,271.1987,190721,,,,A*5d
$GPGGA,205302.44,3726.6597160,N,12215.5110260,W,1,0,0.0,124.3560,M,0.0000,M,0.0000,0000*6f
$GPRMC,205302.44,A,3726.6597160,N,12215.5110260,W,41.4043,269.8460,190721,,,,A*55
$GPGGA,205303.44,3726.6595180,N,12215.5255160,W,1,0,0.0,124.8020,M,0.0000,M,0.0000,0000*69
$GPRMC,205303.44,A,3726.6595180,N,12215.5255160,W,41.7090,268.3751,190721,,,,A*5f
$GPGGA,205304.44,3726.6590380,N,12215.5401080,W,1,0,0.0,125.1749,M,0.0000,M,0.0000,0000*61
$GPRMC,205304.44,A,3726.6590380,N,12215.5401080,W,42.0588,267.1615,190721,,,,A*53
$GPGGA,205305.44,3726.6583240,N,12215.5548260,W,1,0,0.0,125.4866,M,0.0000,M,0.0000,0000*68
$GPRMC,205305.44,A,3726.6583240,N,12215.5548260,W,42.5119,266.0483,190721,,,,A*59
$GPGGA,205306.44,3726.6573940,N,12215.5696940,W,1,0,0.0,125.7384,M,0.0000,M,0.0000,0000*62
$GPRMC,205306.44,A,3726.6573940,N,12215.5696940,W,43.0192,265.0291,190721,,,,A*56
$GPGGA,205307.44,3726.6562480,N,12215.5847780,W,1,0,0.0,125.9597,M,0.0000,M,0.0000,0000*68
$GPRMC,205307.44,A,3726.6562480,N,12215.5847780,W,43.9037,264.2706,190721,,,,A*59
$GPGGA,205308.44,3726.6550300,N,12215.6001140,W,1,0,0.0,126.1376,M,0.0000,M,0.0000,0000*68
$GPRMC,205308.44,A,3726.6550300,N,12215.6001140,W,44.4339,264.3856,190721,,,,A*57
$GPGGA,205309.44,3726.6538240,N,12215.6156120,W,1,0,0.0,126.2769,M,0.0000,M,0.0000,0000*6e
$GPRMC,205309.44,A,3726.6538240,N,12215.6156120,W,44.8781,264.3949,190721,,,,A*5c
$GPGGA,205310.44,3726.6525940,N,12215.6312900,W,1,0,0.0,126.3681,M,0.0000,M,0.0000,0000*6f
$GPRMC,205310.44,A,3726.6525940,N,12215.6312900,W,45.5097,264.3367,190721,,,,A*51
$GPGGA,205311.44,3726.6513160,N,12215.6472320,W,1,0,0.0,126.4670,M,0.0000,M,0.0000,0000*61
$GPRMC,205311.44,A,3726.6513160,N,12215.6472320,W,46.2232,264.1413,190721,,,,A*59
$GPGGA,205312.44,3726.6500200,N,12215.6631980,W,1,0,0.0,126.5982,M,0.0000,M,0.0000,0000*63
$GPRMC,205312.44,A,3726.6500200,N,12215.6631980,W,45.7288,264.1284,190721,,,,A*57
$GPGGA,205313.44,3726.6487180,N,12215.6789480,W,1,0,0.0,126.7695,M,0.0000,M,0.0000,0000*63
$GPRMC,205313.44,A,3726.6487180,N,12215.6789480,W,45.0268,264.0011,190721,,,,A*5a
$GPGGA,205314.44,3726.6474160,N,12215.6944460,W,1,0,0.0,126.9436,M,0.0000,M,0.0000,0000*62
$GPRMC,205314.44,A,3726.6474160,N,12215.6944460,W,44.3014,263.9249,190721,,,,A*54
$GPGGA,205315.44,3726.6461440,N,12215.7096800,W,1,0,0.0,127.0855,M,0.0000,M,0.0000,0000*6c
$GPRMC,205315.44,A,3726.6461440,N,12215.7096800,W,43.5920,264.1000,190721,,,,A*54
$GPGGA,205316.44,3726.6449440,N,12215.7246920,W,1,0,0.0,127.2146,M,0.0000,M,0.0000,0000*60
$GPRMC,205316.44,A,3726.6449440,N,12215.7246920,W,42.8925,264.3510,190721,,,,A*5e
$GPGGA,205317.44,3726.6437860,N,12215.7394640,W,1,0,0.0,127.3414,M,0.0000,M,0.0000,0000*62
$GPRMC,205317.44,A,3726.6437860,N,12215.7394640,W,42.2012,264.3238,190721,,,,A*55
$GPGGA,205318.44,3726.6426460,N,12215.7539960,W,1,0,0.0,127.4609,M,0.0000,M,0.0000,0000*64
$GPRMC,205318.44,A,3726.6426460,N,12215.7539960,W,41.5345,264.4362,190721,,,,A*56
$GPGGA,205319.44,3726.6415720,N,12215.7683060,W,1,0,0.0,127.5220,M,0.0000,M,0.0000,0000*67
$GPRMC,205319.44,A,3726.6415720,N,12215.7683060,W,40.8989,264.6547,190721,,,,A*5e
$GPGGA,205320.44,3726.6405400,N,12215.7824060,W,1,0,0.0,127.5893,M,0.0000,M,0.0000,0000*6c
$GPRMC,205320.44,A,3726.6405400,N,12215.7824060,W,40.2721,264.7779,190721,,,,A*5f
$GPGGA,205321.44,3726.6395320,N,12215.7962840,W,1,0,0.0,127.7046,M,0.0000,M,0.0000,0000*6d
$GPRMC,205321.44,A,3726.6395320,N,12215.7962840,W,39.6301,264.7282,190721,,,,A*51
$GPGGA,205322.44,3726.6385060,N,12215.8099460,W,1,0,0.0,127.7778,M,0.0000,M,0.0000,0000*6e
$GPRMC,205322.44,A,3726.6385060,N,12215.8099460,W,39.0852,264.4618,190721,,,,A*57
$GPGGA,205323.44,3726.6374560,N,12215.8234160,W,1,0,0.0,127.8471,M,0.0000,M,0.0000,0000*61
$GPRMC,205323.44,A,3726.6374560,N,12215.8234160,W,38.4567,264.3999,190721,,,,A*52
$GPGGA,205324.44,3726.6364720,N,12215.8367540,W,1,0,0.0,127.8863,M,0.0000,M,0.0000,0000*6f
$GPRMC,205324.44,A,3726.6364720,N,12215.8367540,W,38.5456,264.8641,190721,,,,A*50
$GPGGA,205325.44,3726.6356080,N,12215.8503140,W,1,0,0.0,127.9202,M,0.0000,M,0.0000,0000*6e
$GPRMC,205325.44,A,3726.6356080,N,12215.8503140,W,39.4060,265.9218,190721,,,,A*54
$GPGGA,205326.44,3726.6349960,N,12215.8641860,W,1,0,0.0,127.9078,M,0.0000,M,0.0000,0000*65
$GPRMC,205326.44,A,3726.6349960,N,12215.8641860,W,40.2737,267.5566,190721,,,,A*5d
$GPGGA,205327.44,3726.6347080,N,12215.8783640,W,1,0,0.0,127.8766,M,0.0000,M,0.0000,0000*67
$GPRMC,205327.44,A,3726.6347080,N,12215.8783640,W,41.0021,268.9825,190721,,,,A*5c
$GPGGA,205328.44,3726.6346300,N,12215.8926800,W,1,0,0.0,127.8262,M,0.0000,M,0.0000,0000*68
$GPRMC,205328.44,A,3726.6346300,N,12215.8926800,W,41.1243,270.1440,190721,,,,A*5b
$GPGGA,205329.44,3726.6347980,N,12215.9071580,W,1,0,0.0,127.7590,M,0.0000,M,0.0000,0000*60
$GPRMC,205329.44,A,3726.6347980,N,12215.9071580,W,41.8910,271.2485,190721,,,,A*59
$GPGGA,205330.44,3726.6351940,N,12215.9219060,W,1,0,0.0,127.6597,M,0.0000,M,0.0000,0000*62
$GPRMC,205330.44,A,3726.6351940,N,12215.9219060,W,42.7465,272.3612,190721,,,,A*50
$GPGGA,205331.44,3726.6358420,N,12215.9369420,W,1,0,0.0,127.5323,M,0.0000,M,0.0000,0000*6d
$GPRMC,205331.44,A,3726.6358420,N,12215.9369420,W,43.5636,273.6306,190721,,,,A*56
$GPGGA,205332.44,3726.6367960,N,12215.9522360,W,1,0,0.0,127.3705,M,0.0000,M,0.0000,0000*67
$GPRMC,205332.44,A,3726.6367960,N,12215.9522360,W,44.3721,275.1078,190721,,,,A*57
$GPGGA,205333.44,3726.6380800,N,12215.9677760,W,1,0,0.0,127.1534,M,0.0000,M,0.0000,0000*6d
$GPRMC,205333.44,A,3726.6380800,N,12215.9677760,W,45.2218,276.4657,190721,,,,A*5d
$GPGGA,205334.44,3726.6396820,N,12215.9835800,W,1,0,0.0,126.9054,M,0.0000,M,0.0000,0000*64
$GPRMC,205334.44,A,3726.6396820,N,12215.9835800,W,46.1175,277.8535,190721,,,,A*5c
$GPGGA,205335.44,3726.6416080,N,12215.9996840,W,1,0,0.0,126.6079,M,0.0000,M,0.0000,0000*64
$GPRMC,205335.44,A,3726.6416080,N,12215.9996840,W,47.3343,278.9547,190721,,,,A*53
$GPGGA,205336.44,3726.6438280,N,12216.0161540,W,1,0,0.0,126.2759,M,0.0000,M,0.0000,0000*6f
$GPRMC,205336.44,A,3726.6438280,N,12216.0161540,W,48.3938,280.1169,190721,,,,A*57
$GPGGA,205337.44,3726.6463840,N,12216.0328880,W,1,0,0.0,125.9416,M,0.0000,M,0.0000,0000*68
$GPRMC,205337.44,A,3726.6463840,N,12216.0328880,W,49.2812,281.4801,190721,,,,A*5a
$GPGGA,205338.44,3726.6493480,N,12216.0498080,W,1,0,0.0,125.5700,M,0.0000,M,0.0000,0000*64
$GPRMC,205338.44,A,3726.6493480,N,12216.0498080,W,50.0063,283.1299,190721,,,,A*56
$GPGGA,205339.44,3726.6527560,N,12216.0667700,W,1,0,0.0,125.2120,M,0.0000,M,0.0000,0000*6a
$GPRMC,205339.44,A,3726.6527560,N,12216.0667700,W,50.1142,284.9849,190721,,,,A*50
$GPGGA,205340.44,3726.6565420,N,12216.0835460,W,1,0,0.0,124.8537,M,0.0000,M,0.0000,0000*62
$GPRMC,205340.44,A,3726.6565420,N,12216.0835460,W,49.7819,286.5286,190721,,,,A*5f
$GPGGA,205341.44,3726.6606580,N,12216.1000580,W,1,0,0.0,124.4658,M,0.0000,M,0.0000,0000*68
$GPRMC,205341.44,A,3726.6606580,N,12216.1000580,W,49.4254,288.0293,190721,,,,A*5c
$GPGGA,205342.44,3726.6650920,N,12216.1163120,W,1,0,0.0,124.1040,M,0.0000,M,0.0000,0000*6e
$GPRMC,205342.44,A,3726.6650920,N,12216.1163120,W,49.0590,289.5605,190721,,,,A*54
$GPGGA,205343.44,3726.6698140,N,12216.1322960,W,1,0,0.0,123.7424,M,0.0000,M,0.0000,0000*69
$GPRMC,205343.44,A,3726.6698140,N,12216.1322960,W,48.6869,290.9920,190721,,,,A*54
$GPGGA,205344.44,3726.6748420,N,12216.1480340,W,1,0,0.0,123.3674,M,0.0000,M,0.0000,0000*65
$GPRMC,205344.44,A,3726.6748420,N,12216.1480340,W,48.6357,292.4882,190721,,,,A*5b
$GPGGA,205345.44,3726.6802000,N,12216.1637120,W,1,0,0.0,122.9297,M,0.0000,M,0.0000,0000*6b
$GPRMC,205345.44,A,3726.6802000,N,12216.1637120,W,49.2174,293.7780,190721,,,,A*5e
$GPGGA,205346.44,3726.6858700,N,12216.1794380,W,1,0,0.0,122.5583,M,0.0000,M,0.0000,0000*6e
$GPRMC,205346.44,A,3726.6858700,N,12216.1794380,W,49.6467,294.7861,190721,,,,A*51
$GPGGA,205347.44,3726.6918340,N,12216.1951100,W,1,0,0.0,122.2031,M,0.0000,M,0.0000,0000*6c
$GPRMC,205347.44,A,3726.6918340,N,12216.1951100,W,49.9206,296.0208,190721,,,,A*56
$GPGGA,205348.44,3726.6981280,N,12216.2107100,W,1,0,0.0,121.8937,M,0.0000,M,0.0000,0000*60
$GPRMC,205348.44,A,3726.6981280,N,12216.2107100,W,50.3004,297.4120,190721,,,,A*52
$GPGGA,205349.44,3726.7047640,N,12216.2262380,W,1,0,0.0,121.5654,M,0.0000,M,0.0000,0000*66
$GPRMC,205349.44,A,3726.7047640,N,12216.2262380,W,50.7064,298.8250,190721,,,,A*56
$GPGGA,205350.44,3726.7117960,N,12216.2416400,W,1,0,0.0,121.2772,M,0.0000,M,0.0000,0000*6f
$GPRMC,205350.44,A,3726.7117960,N,12216.2416400,W,51.0086,300.7000,190721,,,,A*5f
$GPGGA,205351.44,3726.7192300,N,12216.2568440,W,1,0,0.0,121.0625,M,0.0000,M,0.0000,0000*62
$GPRMC,205351.44,A,3726.7192300,N,12216.2568440,W,51.2856,302.1380,190721,,,,A*5b
$GPGGA,205352.44,3726.7270300,N,12216.2718920,W,1,0,0.0,120.9287,M,0.0000,M,0.0000,0000*64
$GPRMC,205352.44,A,3726.7270300,N,12216.2718920,W,51.5796,303.8208,190721,,,,A*54
$GPGGA,205353.44,3726.7352200,N,12216.2867180,W,1,0,0.0,120.8075,M,0.0000,M,0.0000,0000*6e
$GPRMC,205353.44,A,3726.7352200,N,12216.2867180,W,51.8396,305.4569,190721,,,,A*53
$GPGGA,205354.44,3726.7437880,N,12216.3013100,W,1,0,0.0,120.7922,M,0.0000,M,0.0000,0000*69
$GPRMC,205354.44,A,3726.7437880,N,12216.3013100,W,52.0296,307.1205,190721,,,,A*50
$GPGGA,205355.44,3726.7526740,N,12216.3156620,W,1,0,0.0,120.8504,M,0.0000,M,0.0000,0000*68
$GPRMC,205355.44,A,3726.7526740,N,12216.3156620,W,52.1643,308.3529,190721,,,,A*5f
$GPGGA,205356.44,3726.7618180,N,12216.3297980,W,1,0,0.0,121.0461,M,0.0000,M,0.0000,0000*6f
$GPRMC,205356.44,A,3726.7618180,N,12216.3297980,W,52.1916,309.6477,190721,,,,A*52
$GPGGA,205357.44,3726.7711960,N,12216.3436880,W,1,0,0.0,121.2878,M,0.0000,M,0.0000,0000*6a
$GPRMC,205357.44,A,3726.7711960,N,12216.3436880,W,52.0948,310.6715,190721,,,,A*54
$GPGGA,205358.44,3726.7807120,N,12216.3573620,W,1,0,0.0,121.5913,M,0.0000,M,0.0000,0000*6e
$GPRMC,205358.44,A,3726.7807120,N,12216.3573620,W,51.9698,311.1833,190721,,,,A*5e
$GPGGA,205359.44,3726.7901980,N,12216.3710060,W,1,0,0.0,121.9615,M,0.0000,M,0.0000,0000*6a
$GPRMC,205359.44,A,3726.7901980,N,12216.3710060,W,51.8356,311.1267,190721,,,,A*52
$GPGGA,205400.44,3726.7996840,N,12216.3845900,W,1,0,0.0,122.3311,M,0.0000,M,0.0000,0000*6a
$GPRMC,205400.44,A,3726.7996840,N,12216.3845900,W,51.6925,311.1937,190721,,,,A*54
$GPGGA,205401.44,3726.8091460,N,12216.3981260,W,1,0,0.0,122.7524,M,0.0000,M,0.0000,0000*64
$GPRMC,205401.44,A,3726.8091460,N,12216.3981260,W,51.5335,311.2385,190721,,,,A*56
$GPGGA,205402.44,3726.8185960,N,12216.4116020,W,1,0,0.0,123.2439,M,0.0000,M,0.0000,0000*60
$GPRMC,205402.44,A,3726.8185960,N,12216.4116020,W,51.3182,311.3197,190721,,,,A*53
$GPGGA,205403.44,3726.8279740,N,12216.4250300,W,1,0,0.0,123.7697,M,0.0000,M,0.0000,0000*6e
$GPRMC,205403.44,A,3726.8279740,N,12216.4250300,W,51.0614,311.0775,190721,,,,A*5c
$GPGGA,205404.44,3726.8372800,N,12216.4384280,W,1,0,0.0,124.3598,M,0.0000,M,0.0000,0000*66
$GPRMC,205404.44,A,3726.8372800,N,12216.4384280,W,50.7948,311.0122,190721,,,,A*5f
$GPGGA,205405.44,3726.8465500,N,12216.4517300,W,1,0,0.0,125.0212,M,0.0000,M,0.0000,0000*69
$GPRMC,205405.44,A,3726.8465500,N,12216.4517300,W,50.5270,311.1515,190721,,,,A*54
$GPGGA,205406.44,3726.8557780,N,12216.4649600,W,1,0,0.0,125.7316,M,0.0000,M,0.0000,0000*6f
$GPRMC,205406.44,A,3726.8557780,N,12216.4649600,W,50.2492,311.1985,190721,,,,A*58
$GPGGA,205407.44,3726.8649700,N,12216.4781000,W,1,0,0.0,126.4623,M,0.0000,M,0.0000,0000*6a
$GPRMC,205407.44,A,3726.8649700,N,12216.4781000,W,49.9869,311.2245,190721,,,,A*51
$GPGGA,205408.44,3726.8741200,N,12216.4911740,W,1,0,0.0,127.1784,M,0.0000,M,0.0000,0000*65
$GPRMC,205408.44,A,3726.8741200,N,12216.4911740,W,49.7479,311.2279,190721,,,,A*5a
$GPGGA,205409.44,3726.8832160,N,12216.5041760,W,1,0,0.0,127.9214,M,0.0000,M,0.0000,0000*61
$GPRMC,205409.44,A,3726.8832160,N,12216.5041760,W,49.4360,311.3021,190721,,,,A*58
$GPGGA,205410.44,3726.8923060,N,12216.5171180,W,1,0,0.0,128.6460,M,0.0000,M,0.0000,0000*66
$GPRMC,205410.44,A,3726.8923060,N,12216.5171180,W,49.4678,311.3498,190721,,,,A*50
$GPGGA,205411.44,3726.9014260,N,12216.5300600,W,1,0,0.0,129.4017,M,0.0000,M,0.0000,0000*65
$GPRMC,205411.44,A,3726.9014260,N,12216.5300600,W,49.5958,311.5125,190721,,,,A*5d
$GPGGA,205412.44,3726.9106480,N,12216.5430200,W,1,0,0.0,130.1201,M,0.0000,M,0.0000,0000*64
$GPRMC,205412.44,A,3726.9106480,N,12216.5430200,W,50.0314,311.8219,190721,,,,A*5a
$GPGGA,205413.44,3726.9199720,N,12216.5560640,W,1,0,0.0,130.8451,M,0.0000,M,0.0000,0000*64
$GPRMC,205413.44,A,3726.9199720,N,12216.5560640,W,50.3851,311.7971,190721,,,,A*53
$GPGGA,205414.44,3726.9293260,N,12216.5691860,W,1,0,0.0,131.5803,M,0.0000,M,0.0000,0000*6d
$GPRMC,205414.44,A,3726.9293260,N,12216.5691860,W,50.4728,311.6516,190721,,,,A*57
$GPGGA,205415.44,3726.9385600,N,12216.5823980,W,1,0,0.0,132.3306,M,0.0000,M,0.0000,0000*6b
$GPRMC,205415.44,A,3726.9385600,N,12216.5823980,W,50.2551,310.7968,190721,,,,A*55
$GPGGA,205416.44,3726.9476320,N,12216.5957060,W,1,0,0.0,133.0515,M,0.0000,M,0.0000,0000*67
$GPRMC,205416.44,A,3726.9476320,N,12216.5957060,W,50.1970,310.1608,190721,,,,A*5c
$GPGGA,205417.44,3726.9566320,N,12216.6091400,W,1,0,0.0,133.7580,M,0.0000,M,0.0000,0000*6f
$GPRMC,205417.44,A,3726.9566320,N,12216.6091400,W,50.4151,309.9148,190721,,,,A*52
$GPGGA,205418.44,3726.9656620,N,12216.6226400,W,1,0,0.0,134.4131,M,0.0000,M,0.0000,0000*61
$GPRMC,205418.44,A,3726.9656620,N,12216.6226400,W,50.5424,309.9582,190721,,,,A*52
$GPGGA,205419.44,3726.9746380,N,12216.6360500,W,1,0,0.0,135.0394,M,0.0000,M,0.0000,0000*65
$GPRMC,205419.44,A,3726.9746380,N,12216.6360500,W,49.7880,309.8735,190721,,,,A*59
$GPGGA,205420.44,3726.9834100,N,12216.6493160,W,1,0,0.0,135.5499,M,0.0000,M,0.0000,0000*69
$GPRMC,205420.44,A,3726.9834100,N,12216.6493160,W,48.9991,309.4453,190721,,,,A*5b
$GPGGA,205421.44,3726.9920020,N,12216.6624080,W,1,0,0.0,135.9912,M,0.0000,M,0.0000,0000*6c
$GPRMC,205421.44,A,3726.9920020,N,12216.6624080,W,48.2721,309.3942,190721,,,,A*58
$GPGGA,205422.44,3727.0004800,N,12216.6753560,W,1,0,0.0,136.4224,M,0.0000,M,0.0000,0000*68
$GPRMC,205422.44,A,3727.0004800,N,12216.6753560,W,47.8905,309.4229,190721,,,,A*50
$GPGGA,205423.44,3727.0089520,N,12216.6882620,W,1,0,0.0,136.8084,M,0.0000,M,0.0000,0000*63
$GPRMC,205423.44,A,3727.0089520,N,12216.6882620,W,48.0105,309.3453,190721,,,,A*5c
$GPGGA,205424.44,3727.0174420,N,12216.7012160,W,1,0,0.0,137.2055,M,0.0000,M,0.0000,0000*62
$GPRMC,205424.44,A,3727.0174420,N,12216.7012160,W,48.0464,309.5399,190721,,,,A*5f
$GPGGA,205425.44,3727.0259560,N,12216.7140800,W,1,0,0.0,137.6156,M,0.0000,M,0.0000,0000*65
$GPRMC,205425.44,A,3727.0259560,N,12216.7140800,W,47.8237,309.8131,190721,,,,A*54
$GPGGA,205426.44,3727.0344580,N,12216.7268660,W,1,0,0.0,137.8990,M,0.0000,M,0.0000,0000*68
$GPRMC,205426.44,A,3727.0344580,N,12216.7268660,W,47.6636,309.7093,190721,,,,A*58
$GPGGA,205427.44,3727.0429660,N,12216.7396700,W,1,0,0.0,138.1170,M,0.0000,M,0.0000,0000*6f
$GPRMC,205427.44,A,3727.0429660,N,12216.7396700,W,47.9483,309.7880,190721,,,,A*56
$GPGGA,205428.44,3727.0515040,N,12216.7525940,W,1,0,0.0,138.2708,M,0.0000,M,0.0000,0000*64
$GPRMC,205428.44,A,3727.0515040,N,12216.7525940,W,48.2818,309.4607,190721,,,,A*5f
$GPGGA,205429.44,3727.0600780,N,12216.7656260,W,1,0,0.0,138.3654,M,0.0000,M,0.0000,0000*6e
$GPRMC,205429.44,A,3727.0600780,N,12216.7656260,W,48.6183,309.5527,190721,,,,A*53
$GPGGA,205430.44,3727.0687600,N,12216.7787060,W,1,0,0.0,138.3887,M,0.0000,M,0.0000,0000*6f
$GPRMC,205430.44,A,3727.0687600,N,12216.7787060,W,48.9203,309.7818,190721,,,,A*55
$GPGGA,205431.44,3727.0774900,N,12216.7918340,W,1,0,0.0,138.4173,M,0.0000,M,0.0000,0000*60
$GPRMC,205431.44,A,3727.0774900,N,12216.7918340,W,49.1094,309.6172,190721,,,,A*5e
$GPGGA,205432.44,3727.0862020,N,12216.8050640,W,1,0,0.0,138.4302,M,0.0000,M,0.0000,0000*6b
$GPRMC,205432.44,A,3727.0862020,N,12216.8050640,W,49.2809,309.4643,190721,,,,A*59
$GPGGA,205433.44,3727.0949320,N,12216.8183540,W,1,0,0.0,138.4046,M,0.0000,M,0.0000,0000*6e
$GPRMC,205433.44,A,3727.0949320,N,12216.8183540,W,49.4587,309.2980,190721,,,,A*54
$GPGGA,205434.44,3727.1036200,N,12216.8317700,W,1,0,0.0,138.3531,M,0.0000,M,0.0000,0000*61
$GPRMC,205434.44,A,3727.1036200,N,12216.8317700,W,49.5411,308.7715,190721,,,,A*50
$GPGGA,205435.44,3727.1122420,N,12216.8452100,W,1,0,0.0,138.2305,M,0.0000,M,0.0000,0000*60
$GPRMC,205435.44,A,3727.1122420,N,12216.8452100,W,49.4509,308.8344,190721,,,,A*57
$GPGGA,205436.44,3727.1209120,N,12216.8586140,W,1,0,0.0,138.0906,M,0.0000,M,0.0000,0000*6b
$GPRMC,205436.44,A,3727.1209120,N,12216.8586140,W,49.5256,309.2420,190721,,,,A*55
$GPGGA,205437.44,3727.1296780,N,12216.8719640,W,1,0,0.0,137.8726,M,0.0000,M,0.0000,0000*68
$GPRMC,205437.44,A,3727.1296780,N,12216.8719640,W,49.6558,309.5977,190721,,,,A*5f
$GPGGA,205438.44,3727.1385400,N,12216.8853260,W,1,0,0.0,137.6093,M,0.0000,M,0.0000,0000*6f
$GPRMC,205438.44,A,3727.1385400,N,12216.8853260,W,49.9884,309.7959,190721,,,,A*52
$GPGGA,205439.44,3727.1474560,N,12216.8987960,W,1,0,0.0,137.2833,M,0.0000,M,0.0000,0000*65
$GPRMC,205439.44,A,3727.1474560,N,12216.8987960,W,50.4614,309.5134,190721,,,,A*5d
$GPGGA,205440.44,3727.1564140,N,12216.9124580,W,1,0,0.0,136.9262,M,0.0000,M,0.0000,0000*6b
$GPRMC,205440.44,A,3727.1564140,N,12216.9124580,W,50.9994,309.2830,190721,,,,A*57
$GPGGA,205441.44,3727.1654500,N,12216.9263180,W,1,0,0.0,136.5368,M,0.0000,M,0.0000,0000*69
$GPRMC,205441.44,A,3727.1654500,N,12216.9263180,W,51.6252,309.2208,190721,,,,A*5c
$GPGGA,205442.44,3727.1746180,N,12216.9403460,W,1,0,0.0,136.0885,M,0.0000,M,0.0000,0000*62
$GPRMC,205442.44,A,3727.1746180,N,12216.9403460,W,52.3979,309.3817,190721,,,,A*5b
$GPGGA,205443.44,3727.1839660,N,12216.9545600,W,1,0,0.0,135.5880,M,0.0000,M,0.0000,0000*69
$GPRMC,205443.44,A,3727.1839660,N,12216.9545600,W,53.2369,309.5508,190721,,,,A*5d
$GPGGA,205444.44,3727.1934940,N,12216.9689720,W,1,0,0.0,135.0295,M,0.0000,M,0.0000,0000*64
$GPRMC,205444.44,A,3727.1934940,N,12216.9689720,W,54.1761,309.6281,190721,,,,A*56
$GPGGA,205445.44,3727.2032140,N,12216.9836360,W,1,0,0.0,134.3963,M,0.0000,M,0.0000,0000*6b
$GPRMC,205445.44,A,3727.2032140,N,12216.9836360,W,55.1177,309.6822,190721,,,,A*5a
$GPGGA,205446.44,3727.2130840,N,12216.9985340,W,1,0,0.0,133.7729,M,0.0000,M,0.0000,0000*6a
$GPRMC,205446.44,A,3727.2130840,N,12216.9985340,W,55.9396,309.5763,190721,,,,A*54
$GPGGA,205447.44,3727.2230380,N,12217.0137380,W,1,0,0.0,133.1271,M,0.0000,M,0.0000,0000*64
$GPRMC,205447.44,A,3727.2230380,N,12217.0137380,W,56.8147,309.2310,190721,,,,A*5f
$GPGGA,205448.44,3727.2331120,N,12217.0291700,W,1,0,0.0,132.5017,M,0.0000,M,0.0000,0000*67
$GPRMC,205448.44,A,3727.2331120,N,12217.0291700,W,57.4204,309.3505,190721,,,,A*51
$GPGGA,205449.44,3727.2432160,N,12217.0446260,W,1,0,0.0,131.8763,M,0.0000,M,0.0000,0000*63
$GPRMC,205449.44,A,3727.2432160,N,12217.0446260,W,57.1665,309.2934,190721,,,,A*56
$GPGGA,205450.44,3727.2532960,N,12217.0599920,W,1,0,0.0,131.1990,M,0.0000,M,0.0000,0000*65
$GPRMC,205450.44,A,3727.2532960,N,12217.0599920,W,56.9441,309.6061,190721,,,,A*5b
$GPGGA,205451.44,3727.2634180,N,12217.0752680,W,1,0,0.0,130.5671,M,0.0000,M,0.0000,0000*62
$GPRMC,205451.44,A,3727.2634180,N,12217.0752680,W,56.9121,309.7444,190721,,,,A*58
$GPGGA,205452.44,3727.2735460,N,12217.0905320,W,1,0,0.0,129.9182,M,0.0000,M,0.0000,0000*66
$GPRMC,205452.44,A,3727.2735460,N,12217.0905320,W,56.9520,309.7295,190721,,,,A*5c
$GPGGA,205453.44,3727.2836740,N,12217.1058080,W,1,0,0.0,129.2619,M,0.0000,M,0.0000,0000*6d
$GPRMC,205453.44,A,3727.2836740,N,12217.1058080,W,56.9687,309.6057,190721,,,,A*5a
$GPGGA,205454.44,3727.2937600,N,12217.1211440,W,1,0,0.0,128.6253,M,0.0000,M,0.0000,0000*67
$GPRMC,205454.44,A,3727.2937600,N,12217.1211440,W,57.0192,309.3314,190721,,,,A*55
$GPGGA,205455.44,3727.3038100,N,12217.1365460,W,1,0,0.0,127.9687,M,0.0000,M,0.0000,0000*6b
$GPRMC,205455.44,A,3727.3038100,N,12217.1365460,W,57.1037,309.2332,190721,,,,A*5e
$GPGGA,205456.44,3727.3138840,N,12217.1519720,W,1,0,0.0,127.2865,M,0.0000,M,0.0000,0000*67
$GPRMC,205456.44,A,3727.3138840,N,12217.1519720,W,57.2275,309.3730,190721,,,,A*5b
$GPGGA,205457.44,3727.3240300,N,12217.1673800,W,1,0,0.0,126.6231,M,0.0000,M,0.0000,0000*69
$GPRMC,205457.44,A,3727.3240300,N,12217.1673800,W,57.2963,309.4575,190721,,,,A*53
$GPGGA,205458.44,3727.3341520,N,12217.1828240,W,1,0,0.0,125.9232,M,0.0000,M,0.0000,0000*63
$GPRMC,205458.44,A,3727.3341520,N,12217.1828240,W,57.3692,309.2214,190721,,,,A*50
$GPGGA,205459.44,3727.3442920,N,12217.1983220,W,1,0,0.0,125.1625,M,0.0000,M,0.0000,0000*66
$GPRMC,205459.44,A,3727.3442920,N,12217.1983220,W,57.5966,309.4189,190721,,,,A*5c
$GPGGA,205500.44,3727.3545820,N,12217.2137840,W,1,0,0.0,124.4101,M,0.0000,M,0.0000,0000*61
$GPRMC,205500.44,A,3727.3545820,N,12217.2137840,W,57.8597,310.1857,190721,,,,A*56
$GPGGA,205501.44,3727.3651060,N,12217.2291140,W,1,0,0.0,123.7398,M,0.0000,M,0.0000,0000*6a
$GPRMC,205501.44,A,3727.3651060,N,12217.2291140,W,58.0538,311.2495,190721,,,,A*59
$GPGGA,205502.44,3727.3759420,N,12217.2441320,W,1,0,0.0,123.2823,M,0.0000,M,0.0000,0000*61
$GPRMC,205502.44,A,3727.3759420,N,12217.2441320,W,58.0897,313.0644,190721,,,,A*5a
$GPGGA,205503.44,3727.3871920,N,12217.2587120,W,1,0,0.0,122.9159,M,0.0000,M,0.0000,0000*6f
$GPRMC,205503.44,A,3727.3871920,N,12217.2587120,W,58.2664,315.2474,190721,,,,A*5f
$GPGGA,205504.44,3727.3989400,N,12217.2727760,W,1,0,0.0,122.7004,M,0.0000,M,0.0000,0000*6c
$GPRMC,205504.44,A,3727.3989400,N,12217.2727760,W,58.5084,317.3153,190721,,,,A*57
$GPGGA,205505.44,3727.4111500,N,12217.2863360,W,1,0,0.0,122.5838,M,0.0000,M,0.0000,0000*6c
$GPRMC,205505.44,A,3727.4111500,N,12217.2863360,W,58.7376,319.3143,190721,,,,A*51
$GPGGA,205506.44,3727.4237200,N,12217.2994880,W,1,0,0.0,122.5976,M,0.0000,M,0.0000,0000*68
