# 
# Header Description:
# 
# Version: v3.0.6.4 Platform: 12 Manufacturer: Xiaomi Model: Redmi Note 9 Pro
# 
# Raw,utcTimeMillis,TimeNanos,LeapSecond,TimeUncertaintyNanos,FullBiasNanos,BiasNanos,BiasUncertaintyNanos,DriftNanosPerSecond,DriftUncertaintyNanosPerSecond,HardwareClockDiscontinuityCount,Svid,TimeOffsetNanos,State,ReceivedSvTimeNanos,ReceivedSvTimeUncertaintyNanos,Cn0DbHz,PseudorangeRateMetersPerSecond,PseudorangeRateUncertaintyMetersPerSecond,AccumulatedDeltaRangeState,AccumulatedDeltaRangeMeters,AccumulatedDeltaRangeUncertaintyMeters,CarrierFrequencyHz,CarrierCycles,CarrierPhase,CarrierPhaseUncertainty,MultipathIndicator,SnrInDb,ConstellationType,AgcDb,BasebandCn0DbHz,FullInterSignalBiasNanos,FullInterSignalBiasUncertaintyNanos,SatelliteInterSignalBiasNanos,SatelliteInterSignalBiasUncertaintyNanos,CodeType,ChipsetElapsedRealtimeNanos
# 
# UncalAccel,utcTimeMillis,elapsedRealtimeNanos,UncalAccelXMps2,UncalAccelYMps2,UncalAccelZMps2,BiasXMps2,BiasYMps2,BiasZMps2
# 
# Accel,utcTimeMillis,elapsedRealtimeNanos,AccelXMps2,AccelYMps2,AccelZMps2
# 
# UncalGyro,utcTimeMillis,elapsedRealtimeNanos,UncalGyroXRadPerSec,UncalGyroYRadPerSec,UncalGyroZRadPerSec,DriftXRadPerSec,DriftYRadPerSec,DriftZRadPerSec
# 
# Gyro,utcTimeMillis,elapsedRealtimeNanos,GyroXRadPerSec,GyroYRadPerSec,GyroZRadPerSec
# 
# UncalMag,utcTimeMillis,elapsedRealtimeNanos,UncalMagXMicroT,UncalMagYMicroT,UncalMagZMicroT,BiasXMicroT,BiasYMicroT,BiasZMicroT
# 
# Mag,utcTimeMillis,elapsedRealtimeNanos,MagXMicroT,MagYMicroT,MagZMicroT
# 
# OrientationDeg,utcTimeMillis,elapsedRealtimeNanos,yawDeg,rollDeg,pitchDeg
# 
# Fix,Provider,LatitudeDegrees,LongitudeDegrees,AltitudeMeters,SpeedMps,AccuracyMeters,BearingDegrees,UnixTimeMillis,SpeedAccuracyMps,BearingAccuracyDegrees,elapsedRealtimeNanos,VerticalAccuracyMeters,MockLocation,NumberOfUsedSignals,VerticalSpeedAccuracyMps,SolutionType
# 
# Nav,Svid,Type,Status,MessageId,Sub-messageId,Data(Bytes)
# 
# Status,UnixTimeMillis,SignalCount,SignalIndex,ConstellationType,Svid,CarrierFrequencyHz,Cn0DbHz,AzimuthDegrees,ElevationDegrees,UsedInFix,HasAlmanacData,HasEphemerisData,BasebandCn0DbHz
# 
# Agc,utcTimeMillis,TimeNanos,LeapSecond,TimeUncertaintyNanos,FullBiasNanos,BiasNanos,BiasUncertaintyNanos,DriftNanosPerSecond,DriftUncertaintyNanosPerSecond,HardwareClockDiscontinuityCount,AgcDb,CarrierFrequencyHz,ConstellationType
# 
Raw,1719666410447,1623680018000000,18,,-1402077948429471180,-0.4986000061035156,71.66906289057806,1.9020312684893457,11.920489245442784,806,10,0.0,16399,565628380289897,40,25.2,28.962696075439453,0.7864999771118164,16,0.0,0.0,1575420030,,,,0,,1,0.0,21.7,0.0,0.0,,,C,5720039919584156
Raw,1719666410447,1623680018000000,18,,-1402077948429471180,-0.4986000061035156,71.66906289057806,1.9020312684893457,11.920489245442784,806,12,0.0,16399,565628367979108,40,25.2,412.6328125,0.796999990940094,16,0.0,0.0,1575420030,,,,0,,1,0.0,21.7,0.0,0.0,,,C,5720039919584156
Raw,1719666410447,1623680018000000,18,,-1402077948429471180,-0.4986000061035156,71.66906289057806,1.9020312684893457,11.920489245442784,806,21,0.0,16399,565628363696574,61,22.0,-58.696083068847656,1.0010000467300415,16,0.0,0.0,1575420030,,,,0,,1,0.0,18.5,0.0,0.0,,,C,5720039919584156
Raw,1719666410447,1623680018000000,18,,-1402077948429471180,-0.4986000061035156,71.66906289057806,1.9020312684893457,11.920489245442784,806,23,0.0,16399,565628375546547,10,38.0,482.6029052734375,0.20000000298023224,16,0.0,1902.9177342976868,1575420030,,,,0,,1,0.0,34.5,0.0,0.0,,,C,5720039919584156
Raw,1719666410447,1623680018000000,18,,-1402077948429471180,-0.4986000061035156,71.66906289057806,1.9020312684893457,11.920489245442784,806,25,0.0,16399,565628376292052,5,43.9,160.5045166015625,0.20000000298023224,16,0.0,1902.9177342976868,1575420030,,,,0,,1,0.0,40.4,0.0,0.0,,,C,5720039919584156
Raw,1719666410447,1623680018000000,18,,-1402077948429471180,-0.4986000061035156,71.66906289057806,1.9020312684893457,11.920489245442784,806,28,0.0,16399,565628378021524,40,25.4,8.496612548828125,0.8134999871253967,16,0.0,0.0,1575420030,,,,0,,1,0.0,21.9,0.0,0.0,,,C,5720039919584156
Raw,1719666410447,1623680018000000,18,,-1402077948429471180,-0.4986000061035156,71.66906289057806,1.9020312684893457,11.920489245442784,806,31,0.0,16399,565628374348593,24,28.8,-358.7110290527344,0.20000000298023224,16,0.0,1902.9177342976868,1575420030,,,,0,,1,0.0,25.3,0.0,0.0,,,C,5720039919584156
Raw,1719666410447,1623680018000000,18,,-1402077948429471180,-0.4986000061035156,71.66906289057806,1.9020312684893457,11.920489245442784,806,11,0.0,49359,58010371475919,16,33.8,733.2440795898438,0.24740000069141388,16,0.0,1871.3450173911542,1602000000,,,,0,,3,0.67,29.799999999999997,3758.408203125,29.30300521850586,,,C,5720039919584156
Raw,1719666410447,1623680018000000,18,,-1402077948429471180,-0.4986000061035156,71.66906289057806,1.9020312684893457,11.920489245442784,806,1,0.0,49359,58010378698979,11,37.1,-20.070859909057617,0.2502000033855438,16,0.0,1870.6881045945743,1602562560,,,,0,,3,0.67,33.1,3758.408203125,29.30300521850586,,,C,5720039919584156
Raw,1719666410447,1623680018000000,18,,-1402077948429471180,-0.4986000061035156,71.66906289057806,1.9020312684893457,11.920489245442784,806,17,0.0,49359,58010369074614,19,31.3,371.0722961425781,0.2556999921798706,16,0.0,1868.720428711333,1604249980,,,,0,,3,0.67,27.3,3758.408203125,29.30300521850586,,,C,5720039919584156
Raw,1719666410447,1623680018000000,18,,-1402077948429471180,-0.4986000061035156,71.66906289057806,1.9020312684893457,11.920489245442784,806,8,0.0,49359,58010367705571,46,24.3,381.18902587890625,1.0570000410079956,16,0.0,0.0,1605374980,,,,0,,3,0.67,20.3,3758.408203125,29.30300521850586,,,C,5720039919584156
Raw,1719666410447,1623680018000000,18,,-1402077948429471180,-0.4986000061035156,71.66906289057806,1.9020312684893457,11.920489245442784,806,22,0.0,16399,565614369213521,21,30.8,299.7160339355469,0.5399999618530273,16,0.0,0.0,1561097980,,,,0,,5,0.02,26.5,-1559.75244140625,34.01361083984375,,,I,5720039919584156
Raw,1719666410447,1623680018000000,18,,-1402077948429471180,-0.4986000061035156,71.66906289057806,1.9020312684893457,11.920489245442784,806,4,0.0,16399,565614316515439,14,34.6,16.870668411254883,1.5151000022888184,16,0.0,0.0,1561097980,,,,0,,5,0.02,30.3,-1559.75244140625,34.01361083984375,,,I,5720039919584156
Raw,1719666410447,1623680018000000,18,,-1402077948429471180,-0.4986000061035156,71.66906289057806,1.9020312684893457,11.920489245442784,806,1,0.0,16399,565614322398956,7,41.5,12.770626068115234,1.0159000158309937,16,0.0,0.0,1561097980,,,,0,,5,0.02,37.2,-1559.75244140625,34.01361083984375,,,I,5720039919584156
Raw,1719666411447,1623681018000000,18,,-1402077948429471180,-0.438995361328125,69.97746095294133,0.6797470377934602,11.847486630184772,806,10,0.0,16399,565629380289823,46,24.2,28.353755950927734,0.8464999794960022,16,0.0,0.0,1575420030,,,,0,,1,-0.05,20.7,0.0,0.0,,,C,5720040919584156
Raw,1719666411447,1623681018000000,18,,-1402077948429471180,-0.438995361328125,69.97746095294133,0.6797470377934602,11.847486630184772,806,12,0.0,16399,565629367977815,40,25.2,412.2427062988281,0.796999990940094,16,0.0,0.0,1575420030,,,,0,,1,-0.05,21.7,0.0,0.0,,,C,5720040919584156
Raw,1719666411447,1623681018000000,18,,-1402077948429471180,-0.438995361328125,69.97746095294133,0.6797470377934602,11.847486630184772,806,21,0.0,16399,565629363696846,61,21.9,-59.06715393066406,1.0809999704360962,16,0.0,0.0,1575420030,,,,0,,1,-0.05,18.4,0.0,0.0,,,C,5720040919584156
Raw,1719666411447,1623681018000000,18,,-1402077948429471180,-0.438995361328125,69.97746095294133,0.6797470377934602,11.847486630184772,806,23,0.0,16399,565629375544958,10,38.4,482.4506530761719,0.20000000298023224,16,0.0,1902.9177342976868,1575420030,,,,0,,1,-0.05,34.9,0.0,0.0,,,C,5720040919584156
Raw,1719666411447,1623681018000000,18,,-1402077948429471180,-0.438995361328125,69.97746095294133,0.6797470377934602,11.847486630184772,806,25,0.0,16399,565629376291522,5,43.8,160.4011993408203,0.20000000298023224,16,0.0,1902.9177342976868,1575420030,,,,0,,1,-0.05,40.3,0.0,0.0,,,C,5720040919584156
Raw,1719666411447,1623681018000000,18,,-1402077948429471180,-0.438995361328125,69.97746095294133,0.6797470377934602,11.847486630184772,806,26,0.0,16399,565629369709183,80,20.3,-687.6547241210938,1.9300000667572021,16,0.0,0.0,1575420030,,,,0,,1,-0.05,16.8,0.0,0.0,,,C,5720040919584156
Raw,1719666411447,1623681018000000,18,,-1402077948429471180,-0.438995361328125,69.97746095294133,0.6797470377934602,11.847486630184772,806,28,0.0,16399,565629378021457,35,26.1,7.316791534423828,0.7534999847412109,16,0.0,0.0,1575420030,,,,0,,1,-0.05,22.6,0.0,0.0,,,C,5720040919584156
Raw,1719666411447,1623681018000000,18,,-1402077948429471180,-0.438995361328125,69.97746095294133,0.6797470377934602,11.847486630184772,806,31,0.0,16399,565629374349790,24,28.9,-358.88330078125,0.20000000298023224,16,0.0,1902.9177342976868,1575420030,,,,0,,1,-0.05,25.4,0.0,0.0,,,C,5720040919584156
Raw,1719666411447,1623681018000000,18,,-1402077948429471180,-0.438995361328125,69.97746095294133,0.6797470377934602,11.847486630184772,806,32,0.0,16399,565629374611898,70,21.4,-110.96024322509766,1.847499966621399,16,0.0,0.0,1575420030,,,,0,,1,-0.05,17.9,0.0,0.0,,,C,5720040919584156
Raw,1719666411447,1623681018000000,18,,-1402077948429471180,-0.438995361328125,69.97746095294133,0.6797470377934602,11.847486630184772,806,11,0.0,49359,58011371473388,14,34.6,733.0843505859375,0.24250000715255737,16,0.0,1871.3450173911542,1602000000,,,,0,,3,0.52,30.6,3758.408203125,29.30300521850586,,,C,5720040919584156
Raw,1719666411447,1623681018000000,18,,-1402077948429471180,-0.438995361328125,69.97746095294133,0.6797470377934602,11.847486630184772,806,1,0.0,49359,58011378699053,10,38.2,-20.246477127075195,0.24940000474452972,16,0.0,1870.6881045945743,1602562560,,,,0,,3,0.52,34.2,3758.408203125,29.30300521850586,,,C,5720040919584156
Raw,1719666411447,1623681018000000,18,,-1402077948429471180,-0.438995361328125,69.97746095294133,0.6797470377934602,11.847486630184772,806,17,0.0,49359,58011369073402,19,31.5,370.89447021484375,0.2556999921798706,16,0.0,1868.720428711333,1604249980,,,,0,,3,0.52,27.5,3758.408203125,29.30300521850586,,,C,5720040919584156
Raw,1719666411447,1623681018000000,18,,-1402077948429471180,-0.438995361328125,69.97746095294133,0.6797470377934602,11.847486630184772,806,8,0.0,49359,58011367704198,70,21.9,381.75860595703125,1.2869999408721924,16,0.0,0.0,1605374980,,,,0,,3,0.52,17.9,3758.408203125,29.30300521850586,,,C,5720040919584156
Raw,1719666411447,1623681018000000,18,,-1402077948429471180,-0.438995361328125,69.97746095294133,0.6797470377934602,11.847486630184772,806,22,0.0,16399,565615369212746,19,31.5,299.6584167480469,0.5099999904632568,16,0.0,0.0,1561097980,,,,0,,5,0.02,27.2,-1559.753662109375,34.008304595947266,,,I,5720040919584156
Raw,1719666411447,1623681018000000,18,,-1402077948429471180,-0.438995361328125,69.97746095294133,0.6797470377934602,11.847486630184772,806,21,0.0,16399,565615372494757,367,26.6,-197.23416137695312,1.0145000219345093,16,0.0,0.0,1561097980,,,,0,,5,0.02,22.3,-1559.753662109375,34.008304595947266,,,I,5720040919584156
Raw,1719666411447,1623681018000000,18,,-1402077948429471180,-0.438995361328125,69.97746095294133,0.6797470377934602,11.847486630184772,806,4,0.0,16399,565615316515384,16,33.7,-31.100793838500977,1.6858999729156494,16,0.0,0.0,1561097980,,,,0,,5,0.02,29.400000000000002,-1559.753662109375,34.008304595947266,,,I,5720040919584156
Raw,1719666411447,1623681018000000,18,,-1402077948429471180,-0.438995361328125,69.97746095294133,0.6797470377934602,11.847486630184772,806,1,0.0,16399,565615322398930,6,43.0,4.973822593688965,0.9905999898910522,16,0.0,0.0,1561097980,,,,0,,5,0.02,38.7,-1559.753662109375,34.008304595947266,,,I,5720040919584156
Raw,1719666412447,1623682018000000,18,,-1402077948429471173,-0.763275146484375,65.87863754248247,0.17120165034185456,11.838280483071893,806,10,0.0,16399,565630380289737,46,24.0,29.543092727661133,0.8464999794960022,16,0.0,0.0,1575420030,,,,0,,1,-0.05,20.5,0.0,0.0,,,C,5720041919584149
Raw,1719666412447,1623682018000000,18,,-1402077948429471173,-0.763275146484375,65.87863754248247,0.17120165034185456,11.838280483071893,806,12,0.0,16399,565630367976369,46,23.8,412.0809326171875,0.9269999861717224,16,0.0,0.0,1575420030,,,,0,,1,-0.05,20.3,0.0,0.0,,,C,5720041919584149
Raw,1719666412447,1623682018000000,18,,-1402077948429471173,-0.763275146484375,65.87863754248247,0.17120165034185456,11.838280483071893,806,21,0.0,16399,565630363697092,70,20.6,-58.829288482666016,1.1710000038146973,16,0.0,0.0,1575420030,,,,0,,1,-0.05,17.1,0.0,0.0,,,C,5720041919584149
Raw,1719666412447,1623682018000000,18,,-1402077948429471173,-0.763275146484375,65.87863754248247,0.17120165034185456,11.838280483071893,806,23,0.0,16399,565630375543339,9,39.4,482.69781494140625,0.20000000298023224,16,0.0,1902.9177342976868,1575420030,,,,0,,1,-0.05,35.9,0.0,0.0,,,C,5720041919584149
Raw,1719666412447,1623682018000000,18,,-1402077948429471173,-0.763275146484375,65.87863754248247,0.17120165034185456,11.838280483071893,806,25,0.0,16399,565630376290980,5,44.2,160.68087768554688,0.20000000298023224,16,0.0,1902.9177342976868,1575420030,,,,0,,1,-0.05,40.7,0.0,0.0,,,C,5720041919584149
Raw,1719666412447,1623682018000000,18,,-1402077948429471173,-0.763275146484375,65.87863754248247,0.17120165034185456,11.838280483071893,806,28,0.0,16399,565630378021497,46,24.2,7.783011436462402,0.8734999895095825,16,0.0,0.0,1575420030,,,,0,,1,-0.05,20.7,0.0,0.0,,,C,5720041919584149
Raw,1719666412447,1623682018000000,18,,-1402077948429471173,-0.763275146484375,65.87863754248247,0.17120165034185456,11.838280483071893,806,31,0.0,16399,565630374351000,27,28.3,-358.3420104980469,0.6375000476837158,16,0.0,0.0,1575420030,,,,0,,1,-0.05,24.8,0.0,0.0,,,C,5720041919584149
Raw,1719666412447,1623682018000000,18,,-1402077948429471173,-0.763275146484375,65.87863754248247,0.17120165034185456,11.838280483071893,806,32,0.0,16399,565630374612258,40,25.3,-110.6748046875,0.8075000047683716,16,0.0,0.0,1575420030,,,,0,,1,-0.05,21.8,0.0,0.0,,,C,5720041919584149
Raw,1719666412447,1623682018000000,18,,-1402077948429471173,-0.763275146484375,65.87863754248247,0.17120165034185456,11.838280483071893,806,11,0.0,49359,58012371470988,13,35.7,733.2924194335938,0.24140000343322754,16,0.0,1871.3450173911542,1602000000,,,,0,,3,0.73,31.700000000000003,3750.1044921875,27.96834373474121,,,C,5720041919584149
Raw,1719666412447,1623682018000000,18,,-1402077948429471173,-0.763275146484375,65.87863754248247,0.17120165034185456,11.838280483071893,806,1,0.0,49359,58012378699107,10,38.3,-20.011220932006836,0.24940000474452972,16,0.0,1870.6881045945743,1602562560,,,,0,,3,0.73,34.3,3750.1044921875,27.96834373474121,,,C,5720041919584149
Raw,1719666412447,1623682018000000,18,,-1402077948429471173,-0.763275146484375,65.87863754248247,0.17120165034185456,11.838280483071893,806,17,0.0,49359,58012369072060,19,31.2,371.1180419921875,0.2556999921798706,16,0.0,1868.720428711333,1604249980,,,,0,,3,0.73,27.2,3750.1044921875,27.96834373474121,,,C,5720041919584149
Raw,1719666412447,1623682018000000,18,,-1402077948429471173,-0.763275146484375,65.87863754248247,0.17120165034185456,11.838280483071893,806,22,0.0,16399,565616369212003,21,30.3,298.9766845703125,0.5399999618530273,16,0.0,0.0,1561097980,,,,0,,5,-0.02,26.0,-1559.7528076171875,33.99997329711914,,,I,5720041919584149
Raw,1719666412447,1623682018000000,18,,-1402077948429471173,-0.763275146484375,65.87863754248247,0.17120165034185456,11.838280483071893,806,21,0.0,16399,565616372495414,370,26.5,-198.37680053710938,1.7644999027252197,16,0.0,0.0,1561097980,,,,0,,5,-0.02,22.2,-1559.7528076171875,33.99997329711914,,,I,5720041919584149
Raw,1719666412447,1623682018000000,18,,-1402077948429471173,-0.763275146484375,65.87863754248247,0.17120165034185456,11.838280483071893,806,13,0.0,16399,565616328629508,70,21.5,55.28816604614258,1.8084999322891235,16,0.0,0.0,1561097980,,,,0,,5,-0.02,17.2,-1559.7528076171875,33.99997329711914,,,I,5720041919584149
Raw,1719666412447,1623682018000000,18,,-1402077948429471173,-0.763275146484375,65.87863754248247,0.17120165034185456,11.838280483071893,806,8,0.0,16399,565616327275557,70,21.6,102.00177764892578,1.806999921798706,16,0.0,0.0,1561097980,,,,0,,5,-0.02,17.3,-1559.7528076171875,33.99997329711914,,,I,5720041919584149
Raw,1719666412447,1623682018000000,18,,-1402077948429471173,-0.763275146484375,65.87863754248247,0.17120165034185456,11.838280483071893,806,4,0.0,16399,565616316515483,14,35.0,16.957088470458984,1.38919997215271,16,0.0,0.0,1561097980,,,,0,,5,-0.02,30.7,-1559.7528076171875,33.99997329711914,,,I,5720041919584149
Raw,1719666412447,1623682018000000,18,,-1402077948429471173,-0.763275146484375,65.87863754248247,0.17120165034185456,11.838280483071893,806,3,0.0,16399,565616326880813,35,26.6,1.9395989179611206,5.736599922180176,16,0.0,0.0,1561097980,,,,0,,5,-0.02,22.3,-1559.7528076171875,33.99997329711914,,,I,5720041919584149
Raw,1719666412447,1623682018000000,18,,-1402077948429471173,-0.763275146484375,65.87863754248247,0.17120165034185456,11.838280483071893,806,1,0.0,16399,565616322398908,6,42.5,7.077483654022217,0.20000000298023224,16,0.0,1920.3757538518662,1561097980,,,,0,,5,-0.02,38.2,-1559.7528076171875,33.99997329711914,,,I,5720041919584149
Raw,1719666413447,1623683018000000,18,,-1402077948429471181,-0.6906929016113281,66.03061046916991,0.25107370970114323,11.858457500901961,806,10,0.0,16399,565631380289564,53,22.8,29.514549255371094,0.9965000152587891,16,0.0,0.0,1575420030,,,,0,,1,0.0,19.3,0.0,0.0,,,C,5720042919584157
Raw,1719666413447,1623683018000000,18,,-1402077948429471181,-0.6906929016113281,66.03061046916991,0.25107370970114323,11.858457500901961,806,12,0.0,16399,565631367974931,31,26.8,412.3378601074219,0.7369999885559082,16,0.0,0.0,1575420030,,,,0,,1,0.0,23.3,0.0,0.0,,,C,5720042919584157
Raw,1719666413447,1623683018000000,18,,-1402077948429471181,-0.6906929016113281,66.03061046916991,0.25107370970114323,11.858457500901961,806,23,0.0,16399,565631375541733,9,39.1,482.8298645019531,0.20000000298023224,16,0.0,1902.9177342976868,1575420030,,,,0,,1,0.0,35.6,0.0,0.0,,,C,5720042919584157
Raw,1719666413447,1623683018000000,18,,-1402077948429471181,-0.6906929016113281,66.03061046916991,0.25107370970114323,11.858457500901961,806,25,0.0,16399,565631376290452,5,44.4,160.85011291503906,0.20000000298023224,16,0.0,1902.9177342976868,1575420030,,,,0,,1,0.0,40.9,0.0,0.0,,,C,5720042919584157
Raw,1719666413447,1623683018000000,18,,-1402077948429471181,-0.6906929016113281,66.03061046916991,0.25107370970114323,11.858457500901961,806,26,0.0,16399,565631369713905,61,22.3,-688.7774658203125,1.7600001096725464,16,0.0,0.0,1575420030,,,,0,,1,0.0,18.8,0.0,0.0,,,C,5720042919584157
Raw,1719666413447,1623683018000000,18,,-1402077948429471181,-0.6906929016113281,66.03061046916991,0.25107370970114323,11.858457500901961,806,28,0.0,16399,565631378021429,40,24.5,7.954275131225586,0.8734999895095825,16,0.0,0.0,1575420030,,,,0,,1,0.0,21.0,0.0,0.0,,,C,5720042919584157
Raw,1719666413447,1623683018000000,18,,-1402077948429471181,-0.6906929016113281,66.03061046916991,0.25107370970114323,11.858457500901961,806,31,0.0,16399,565631374352193,21,30.3,-358.52471923828125,0.20000000298023224,16,0.0,1902.9177342976868,1575420030,,,,0,,1,0.0,26.8,0.0,0.0,,,C,5720042919584157
Raw,1719666413447,1623683018000000,18,,-1402077948429471181,-0.6906929016113281,66.03061046916991,0.25107370970114323,11.858457500901961,806,32,0.0,16399,565631374612632,46,24.1,-111.13150024414062,0.8675000071525574,16,0.0,0.0,1575420030,,,,0,,1,0.0,20.6,0.0,0.0,,,C,5720042919584157
Raw,1719666413447,1623683018000000,18,,-1402077948429471181,-0.6906929016113281,66.03061046916991,0.25107370970114323,11.858457500901961,806,11,0.0,49359,58013371468533,14,34.6,733.386962890625,0.24250000715255737,16,0.0,1871.3450173911542,1602000000,,,,0,,3,0.79,30.6,3750.1044921875,27.951086044311523,,,C,5720042919584157
Raw,1719666413447,1623683018000000,18,,-1402077948429471181,-0.6906929016113281,66.03061046916991,0.25107370970114323,11.858457500901961,806,1,0.0,49359,58013378699218,11,37.9,-19.905847549438477,0.2502000033855438,16,0.0,1870.6881045945743,1602562560,,,,0,,3,0.79,33.9,3750.1044921875,27.951086044311523,,,C,5720042919584157
Raw,1719666413447,1623683018000000,18,,-1402077948429471181,-0.6906929016113281,66.03061046916991,0.25107370970114323,11.858457500901961,806,17,0.0,49359,58013369070940,19,31.9,371.2086486816406,0.2556999921798706,16,0.0,1868.720428711333,1604249980,,,,0,,3,0.79,27.9,3750.1044921875,27.951086044311523,,,C,5720042919584157
Raw,1719666413447,1623683018000000,18,,-1402077948429471181,-0.6906929016113281,66.03061046916991,0.25107370970114323,11.858457500901961,806,8,0.0,49359,58013367701576,70,21.1,381.1797180175781,2.0369999408721924,16,0.0,0.0,1605374980,,,,0,,3,0.79,17.1,3750.1044921875,27.951086044311523,,,C,5720042919584157
Raw,1719666413447,1623683018000000,18,,-1402077948429471181,-0.6906929016113281,66.03061046916991,0.25107370970114323,11.858457500901961,806,22,0.0,16399,565617369211236,21,31.0,301.4870300292969,0.20000000298023224,16,0.0,1920.3757538518662,1561097980,,,,0,,5,0.02,26.7,-1559.8609619140625,33.9823112487793,,,I,5720042919584157
Raw,1719666413447,1623683018000000,18,,-1402077948429471181,-0.6906929016113281,66.03061046916991,0.25107370970114323,11.858457500901961,806,21,0.0,16399,565617372496075,35,26.5,-198.3863983154297,2.889500141143799,16,0.0,0.0,1561097980,,,,0,,5,0.02,22.2,-1559.8609619140625,33.9823112487793,,,I,5720042919584157
Raw,1719666413447,1623683018000000,18,,-1402077948429471181,-0.6906929016113281,66.03061046916991,0.25107370970114323,11.858457500901961,806,13,0.0,16399,565617328629260,61,22.8,56.39239501953125,1.0084999799728394,16,0.0,0.0,1561097980,,,,0,,5,0.02,18.5,-1559.8609619140625,33.9823112487793,,,I,5720042919584157
Raw,1719666413447,1623683018000000,18,,-1402077948429471181,-0.6906929016113281,66.03061046916991,0.25107370970114323,11.858457500901961,806,10,0.0,16399,565617314442724,122,18.2,-111.96862030029297,3.627500057220459,16,0.0,0.0,1561097980,,,,0,,5,0.02,13.899999999999999,-1559.8609619140625,33.9823112487793,,,I,5720042919584157
Raw,1719666413447,1623683018000000,18,,-1402077948429471181,-0.6906929016113281,66.03061046916991,0.25107370970114323,11.858457500901961,806,8,0.0,16399,565617327275148,53,23.6,102.03057861328125,0.9269999861717224,16,0.0,0.0,1561097980,,,,0,,5,0.02,19.3,-1559.8609619140625,33.9823112487793,,,I,5720042919584157
Raw,1719666413447,1623683018000000,18,,-1402077948429471181,-0.6906929016113281,66.03061046916991,0.25107370970114323,11.858457500901961,806,4,0.0,16399,565617316515358,13,36.0,19.46320152282715,1.2633999586105347,16,0.0,0.0,1561097980,,,,0,,5,0.02,31.7,-1559.8609619140625,33.9823112487793,,,I,5720042919584157
Raw,1719666413447,1623683018000000,18,,-1402077948429471181,-0.6906929016113281,66.03061046916991,0.25107370970114323,11.858457500901961,806,1,0.0,16399,565617322398886,7,42.1,7.844813823699951,1.01010000705719,16,0.0,0.0,1561097980,,,,0,,5,0.02,37.800000000000004,-1559.8609619140625,33.9823112487793,,,I,5720042919584157
Raw,1719666414447,1623684018000000,18,,-1402077948429471179,-0.485321044921875,59.76865941192955,0.5463526422409211,11.705458588828344,806,10,0.0,16399,565632380289416,61,21.7,29.543092727661133,1.0764999389648438,16,0.0,0.0,1575420030,,,,0,,1,0.0,18.2,0.0,0.0,,,C,5720043919584155
Raw,1719666414447,1623684018000000,18,,-1402077948429471179,-0.485321044921875,59.76865941192955,0.5463526422409211,11.705458588828344,806,12,0.0,16399,565632367973544,31,26.8,414.42156982421875,0.7369999885559082,16,0.0,0.0,1575420030,,,,0,,1,0.0,23.3,0.0,0.0,,,C,5720043919584155
Raw,1719666414447,1623684018000000,18,,-1402077948429471179,-0.485321044921875,59.76865941192955,0.5463526422409211,11.705458588828344,806,21,0.0,16399,565632363697439,80,20.3,-58.88637924194336,1.9210000038146973,16,0.0,0.0,1575420030,,,,0,,1,0.0,16.8,0.0,0.0,,,C,5720043919584155
Raw,1719666414447,1623684018000000,18,,-1402077948429471179,-0.485321044921875,59.76865941192955,0.5463526422409211,11.705458588828344,806,23,0.0,16399,565632375540116,9,39.1,483.7301330566406,0.20000000298023224,16,0.0,1902.9177342976868,1575420030,,,,0,,1,0.0,35.6,0.0,0.0,,,C,5720043919584155
Raw,1719666414447,1623684018000000,18,,-1402077948429471179,-0.485321044921875,59.76865941192955,0.5463526422409211,11.705458588828344,806,25,0.0,16399,565632376289912,5,44.1,161.7884063720703,0.20000000298023224,16,0.0,1902.9177342976868,1575420030,,,,0,,1,0.0,40.6,0.0,0.0,,,C,5720043919584155
Raw,1719666414447,1623684018000000,18,,-1402077948429471179,-0.485321044921875,59.76865941192955,0.5463526422409211,11.705458588828344,806,26,0.0,16399,565632369716182,53,22.6,-687.7974853515625,1.0099999904632568,16,0.0,0.0,1575420030,,,,0,,1,0.0,19.1,0.0,0.0,,,C,5720043919584155
Raw,1719666414447,1623684018000000,18,,-1402077948429471179,-0.485321044921875,59.76865941192955,0.5463526422409211,11.705458588828344,806,28,0.0,16399,565632378021481,46,24.3,9.086523056030273,0.8734999895095825,16,0.0,0.0,1575420030,,,,0,,1,0.0,20.8,0.0,0.0,,,C,5720043919584155
Raw,1719666414447,1623684018000000,18,,-1402077948429471179,-0.485321044921875,59.76865941192955,0.5463526422409211,11.705458588828344,806,31,0.0,16399,565632374353354,24,29.3,-357.6170349121094,0.20000000298023224,16,0.0,1902.9177342976868,1575420030,,,,0,,1,0.0,25.8,0.0,0.0,,,C,5720043919584155
Raw,1719666414447,1623684018000000,18,,-1402077948429471179,-0.485321044921875,59.76865941192955,0.5463526422409211,11.705458588828344,806,32,0.0,16399,565632374612931,35,26.2,-109.69478607177734,0.7475000023841858,16,0.0,0.0,1575420030,,,,0,,1,0.0,22.7,0.0,0.0,,,C,5720043919584155
Raw,1719666414447,1623684018000000,18,,-1402077948429471179,-0.485321044921875,59.76865941192955,0.5463526422409211,11.705458588828344,806,13,0.0,49359,58014379519791,122,17.1,-555.8485107421875,4.704999923706055,16,0.0,0.0,1600875010,,,,0,,3,0.72,13.100000000000001,3750.06201171875,27.930011749267578,,,C,5720043919584155
Raw,1719666414447,1623684018000000,18,,-1402077948429471179,-0.485321044921875,59.76865941192955,0.5463526422409211,11.705458588828344,806,11,0.0,49359,58014371466127,14,34.5,734.257080078125,0.24250000715255737,16,0.0,1871.3450173911542,1602000000,,,,0,,3,0.72,30.5,3750.06201171875,27.930011749267578,,,C,5720043919584155
Raw,1719666414447,1623684018000000,18,,-1402077948429471179,-0.485321044921875,59.76865941192955,0.5463526422409211,11.705458588828344,806,1,0.0,49359,58014378699251,10,38.3,-19.01033592224121,0.24940000474452972,16,0.0,1870.6881045945743,1602562560,,,,0,,3,0.72,34.3,3750.06201171875,27.930011749267578,,,C,5720043919584155
Raw,1719666414447,1623684018000000,18,,-1402077948429471179,-0.485321044921875,59.76865941192955,0.5463526422409211,11.705458588828344,806,17,0.0,49359,58014369069723,21,30.8,372.1058349609375,0.27410000562667847,16,0.0,1868.720428711333,1604249980,,,,0,,3,0.72,26.8,3750.06201171875,27.930011749267578,,,C,5720043919584155
Raw,1719666414447,1623684018000000,18,,-1402077948429471179,-0.485321044921875,59.76865941192955,0.5463526422409211,11.705458588828344,806,22,0.0,16399,565618369210440,21,30.7,300.26336669921875,0.5399999618530273,16,0.0,0.0,1561097980,,,,0,,5,0.02,26.4,-1566.699951171875,30.190006256103516,,,I,5720043919584155
Raw,1719666414447,1623684018000000,18,,-1402077948429471179,-0.485321044921875,59.76865941192955,0.5463526422409211,11.705458588828344,806,21,0.0,16399,565618372496825,46,24.7,-217.62875366210938,0.8344999551773071,16,0.0,0.0,1561097980,,,,0,,5,0.02,20.4,-1566.699951171875,30.190006256103516,,,I,5720043919584155
Raw,1719666414447,1623684018000000,18,,-1402077948429471179,-0.485321044921875,59.76865941192955,0.5463526422409211,11.705458588828344,806,13,0.0,16399,565618328629071,53,23.4,74.99142456054688,0.9284999966621399,16,0.0,0.0,1561097980,,,,0,,5,0.02,19.099999999999998,-1566.699951171875,30.190006256103516,,,I,5720043919584155
Raw,1719666414447,1623684018000000,18,,-1402077948429471179,-0.485321044921875,59.76865941192955,0.5463526422409211,11.705458588828344,806,8,0.0,16399,565618327274795,53,24.0,122.16592407226562,0.8569999933242798,16,0.0,0.0,1561097980,,,,0,,5,0.02,19.7,-1566.699951171875,30.190006256103516,,,I,5720043919584155
Raw,1719666414447,1623684018000000,18,,-1402077948429471179,-0.485321044921875,59.76865941192955,0.5463526422409211,11.705458588828344,806,4,0.0,16399,565618316515341,12,36.3,18.429168701171875,0.5457000136375427,16,0.0,1920.3757538518662,1561097980,,,,0,,5,0.02,31.999999999999996,-1566.699951171875,30.190006256103516,,,I,5720043919584155
Raw,1719666414447,1623684018000000,18,,-1402077948429471179,-0.485321044921875,59.76865941192955,0.5463526422409211,11.705458588828344,806,1,0.0,16399,565618322398867,7,42.0,7.774015426635742,0.20000000298023224,16,0.0,1920.3757538518662,1561097980,,,,0,,5,0.02,37.7,-1566.699951171875,30.190006256103516,,,I,5720043919584155
Raw,1719666415447,1623685018000000,18,,-1402077948429471176,-0.9521236419677734,58.287296269554645,3.2019015048499733,12.57540211289296,806,12,0.0,16399,565633367972172,27,28.1,413.5367126464844,0.6270000338554382,16,0.0,0.0,1575420030,,,,0,,1,-0.08,24.6,0.0,0.0,,,C,5720044919584152
Raw,1719666415447,1623685018000000,18,,-1402077948429471176,-0.9521236419677734,58.287296269554645,3.2019015048499733,12.57540211289296,806,23,0.0,16399,565633375538511,9,39.0,483.9478454589844,0.04430000111460686,16,0.0,1902.9177342976868,1575420030,,,,0,,1,-0.08,35.5,0.0,0.0,,,C,5720044919584152
Raw,1719666415447,1623685018000000,18,,-1402077948429471176,-0.9521236419677734,58.287296269554645,3.2019015048499733,12.57540211289296,806,25,0.0,16399,565633376289377,5,44.2,162.0288543701172,0.04349999874830246,16,0.0,1902.9177342976868,1575420030,,,,0,,1,-0.08,40.7,0.0,0.0,,,C,5720044919584152
Raw,1719666415447,1623685018000000,18,,-1402077948429471176,-0.9521236419677734,58.287296269554645,3.2019015048499733,12.57540211289296,806,28,0.0,16399,565633378021412,46,23.8,8.430009841918945,0.9434999823570251,16,0.0,0.0,1575420030,,,,0,,1,-0.08,20.3,0.0,0.0,,,C,5720044919584152
Raw,1719666415447,1623685018000000,18,,-1402077948429471176,-0.9521236419677734,58.287296269554645,3.2019015048499733,12.57540211289296,806,31,0.0,16399,565633374354560,27,28.1,-357.1241455078125,0.6375000476837158,16,0.0,0.0,1575420030,,,,0,,1,-0.08,24.6,0.0,0.0,,,C,5720044919584152
Raw,1719666415447,1623685018000000,18,,-1402077948429471176,-0.9521236419677734,58.287296269554645,3.2019015048499733,12.57540211289296,806,32,0.0,16399,565633374613348,31,26.7,-109.6662368774414,0.7475000023841858,16,0.0,0.0,1575420030,,,,0,,1,-0.08,23.2,0.0,0.0,,,C,5720044919584152
Raw,1719666415447,1623685018000000,18,,-1402077948429471176,-0.9521236419677734,58.287296269554645,3.2019015048499733,12.57540211289296,806,11,0.0,49359,58015371463636,13,35.0,734.4319458007812,0.24140000343322754,16,0.0,1871.3450173911542,1602000000,,,,0,,3,0.62,31.0,3750.030029296875,27.912500381469727,,,C,5720044919584152
Raw,1719666415447,1623685018000000,18,,-1402077948429471176,-0.9521236419677734,58.287296269554645,3.2019015048499733,12.57540211289296,806,1,0.0,49359,58015378699319,10,38.2,-18.832901000976562,0.24940000474452972,16,0.0,1870.6881045945743,1602562560,,,,0,,3,0.62,34.2,3750.030029296875,27.912500381469727,,,C,5720044919584152
Raw,1719666415447,1623685018000000,18,,-1402077948429471176,-0.9521236419677734,58.287296269554645,3.2019015048499733,12.57540211289296,806,17,0.0,49359,58015369068410,19,31.3,372.2631530761719,0.2556999921798706,16,0.0,1868.720428711333,1604249980,,,,0,,3,0.62,27.3,3750.030029296875,27.912500381469727,,,C,5720044919584152
Raw,1719666415447,1623685018000000,18,,-1402077948429471176,-0.9521236419677734,58.287296269554645,3.2019015048499733,12.57540211289296,806,8,0.0,49359,58015367699309,61,22.6,382.3841857910156,1.9570000171661377,16,0.0,0.0,1605374980,,,,0,,3,0.62,18.6,3750.030029296875,27.912500381469727,,,C,5720044919584152
Raw,1719666415447,1623685018000000,18,,-1402077948429471176,-0.9521236419677734,58.287296269554645,3.2019015048499733,12.57540211289296,806,22,0.0,16399,565619369209690,21,30.6,300.2825622558594,0.5399999618530273,16,0.0,0.0,1561097980,,,,0,,5,-0.02,26.3,-1566.713134765625,30.179988861083984,,,I,5720044919584152
Raw,1719666415447,1623685018000000,18,,-1402077948429471176,-0.9521236419677734,58.287296269554645,3.2019015048499733,12.57540211289296,806,21,0.0,16399,565619372497518,40,25.8,-197.41659545898438,0.8044999837875366,16,0.0,0.0,1561097980,,,,0,,5,-0.02,21.5,-1566.713134765625,30.179988861083984,,,I,5720044919584152
Raw,1719666415447,1623685018000000,18,,-1402077948429471176,-0.9521236419677734,58.287296269554645,3.2019015048499733,12.57540211289296,806,13,0.0,16399,565619328628822,61,23.2,75.00102996826172,0.9284999966621399,16,0.0,0.0,1561097980,,,,0,,5,-0.02,18.9,-1566.713134765625,30.179988861083984,,,I,5720044919584152
Raw,1719666415447,1623685018000000,18,,-1402077948429471176,-0.9521236419677734,58.287296269554645,3.2019015048499733,12.57540211289296,806,8,0.0,16399,565619327274442,53,23.8,103.63411712646484,0.9269999861717224,16,0.0,0.0,1561097980,,,,0,,5,-0.02,19.5,-1566.713134765625,30.179988861083984,,,I,5720044919584152
Raw,1719666415447,1623685018000000,18,,-1402077948429471176,-0.9521236419677734,58.287296269554645,3.2019015048499733,12.57540211289296,806,4,0.0,16399,565619316515314,11,37.6,7.335908889770508,1.1791999340057373,16,0.0,0.0,1561097980,,,,0,,5,-0.02,33.300000000000004,-1566.713134765625,30.179988861083984,,,I,5720044919584152
Raw,1719666415447,1623685018000000,18,,-1402077948429471176,-0.9521236419677734,58.287296269554645,3.2019015048499733,12.57540211289296,806,3,0.0,16399,565619326880647,35,27.2,20.029720306396484,5.096099853515625,16,0.0,0.0,1561097980,,,,0,,5,-0.02,22.9,-1566.713134765625,30.179988861083984,,,I,5720044919584152
Raw,1719666415447,1623685018000000,18,,-1402077948429471176,-0.9521236419677734,58.287296269554645,3.2019015048499733,12.57540211289296,806,1,0.0,16399,565619322398832,6,42.3,8.054716110229492,0.059300001710653305,16,0.0,1920.3757538518662,1561097980,,,,0,,5,-0.02,38.0,-1566.713134765625,30.179988861083984,,,I,5720044919584152
Raw,1719666416447,1623686018000000,18,,-1402077948429471168,-0.39885711669921875,53.28407496563159,3.6247446690866907,11.279349811117003,806,12,0.0,16399,565634367970803,24,28.9,413.54864501953125,0.10300000011920929,16,0.0,1902.9177342976868,1575420030,,,,0,,1,-0.05,25.4,0.0,0.0,,,C,5720045919584144
Raw,1719666416447,1623686018000000,18,,-1402077948429471168,-0.39885711669921875,53.28407496563159,3.6247446690866907,11.279349811117003,806,21,0.0,16399,565634363697780,92,19.4,-59.01958084106445,2.011000156402588,16,0.0,0.0,1575420030,,,,0,,1,-0.05,15.899999999999999,0.0,0.0,,,C,5720045919584144
Raw,1719666416447,1623686018000000,18,,-1402077948429471168,-0.39885711669921875,53.28407496563159,3.6247446690866907,11.279349811117003,806,23,0.0,16399,565634375536884,9,39.1,483.8421325683594,0.04430000111460686,16,0.0,1902.9177342976868,1575420030,,,,0,,1,-0.05,35.6,0.0,0.0,,,C,5720045919584144
Raw,1719666416447,1623686018000000,18,,-1402077948429471168,-0.39885711669921875,53.28407496563159,3.6247446690866907,11.279349811117003,806,25,0.0,16399,565634376288830,5,44.3,161.9742431640625,0.04349999874830246,16,0.0,1902.9177342976868,1575420030,,,,0,,1,-0.05,40.8,0.0,0.0,,,C,5720045919584144
Raw,1719666416447,1623686018000000,18,,-1402077948429471168,-0.39885711669921875,53.28407496563159,3.6247446690866907,11.279349811117003,806,26,0.0,16399,565634369720715,80,20.1,-687.1409301757812,1.9300000667572021,16,0.0,0.0,1575420030,,,,0,,1,-0.05,16.6,0.0,0.0,,,C,5720045919584144
Raw,1719666416447,1623686018000000,18,,-1402077948429471168,-0.39885711669921875,53.28407496563159,3.6247446690866907,11.279349811117003,806,28,0.0,16399,565634378021420,53,23.0,8.839140892028809,0.9434999823570251,16,0.0,0.0,1575420030,,,,0,,1,-0.05,19.5,0.0,0.0,,,C,5720045919584144
Raw,1719666416447,1623686018000000,18,,-1402077948429471168,-0.39885711669921875,53.28407496563159,3.6247446690866907,11.279349811117003,806,31,0.0,16399,565634374355760,27,27.7,-357.87579345703125,0.6875,16,0.0,0.0,1575420030,,,,0,,1,-0.05,24.2,0.0,0.0,,,C,5720045919584144
Raw,1719666416447,1623686018000000,18,,-1402077948429471168,-0.39885711669921875,53.28407496563159,3.6247446690866907,11.279349811117003,806,32,0.0,16399,565634374613668,27,28.0,-110.34178924560547,0.6375000476837158,16,0.0,0.0,1575420030,,,,0,,1,-0.05,24.5,0.0,0.0,,,C,5720045919584144
Raw,1719666416447,1623686018000000,18,,-1402077948429471168,-0.39885711669921875,53.28407496563159,3.6247446690866907,11.279349811117003,806,11,0.0,49359,58016371461198,14,34.6,734.2743530273438,0.24250000715255737,16,0.0,1871.3450173911542,1602000000,,,,0,,3,0.61,30.6,3750.001708984375,27.890626907348633,,,C,5720045919584144
Raw,1719666416447,1623686018000000,18,,-1402077948429471168,-0.39885711669921875,53.28407496563159,3.6247446690866907,11.279349811117003,806,1,0.0,49359,58016378699416,10,38.2,-18.95341682434082,0.24940000474452972,16,0.0,1870.6881045945743,1602562560,,,,0,,3,0.61,34.2,3750.001708984375,27.890626907348633,,,C,5720045919584144
Raw,1719666416447,1623686018000000,18,,-1402077948429471168,-0.39885711669921875,53.28407496563159,3.6247446690866907,11.279349811117003,806,17,0.0,49359,58016369067156,19,31.1,372.1505126953125,0.2556999921798706,16,0.0,1868.720428711333,1604249980,,,,0,,3,0.61,27.1,3750.001708984375,27.890626907348633,,,C,5720045919584144
Raw,1719666416447,1623686018000000,18,,-1402077948429471168,-0.39885711669921875,53.28407496563159,3.6247446690866907,11.279349811117003,806,8,0.0,49359,58016367697784,53,23.1,381.0583190917969,1.1269999742507935,16,0.0,0.0,1605374980,,,,0,,3,0.61,19.1,3750.001708984375,27.890626907348633,,,C,5720045919584144
Raw,1719666416447,1623686018000000,18,,-1402077948429471168,-0.39885711669921875,53.28407496563159,3.6247446690866907,11.279349811117003,806,22,0.0,16399,565620369208914,21,31.1,302.4703674316406,0.07410000264644623,16,0.0,1920.3757538518662,1561097980,,,,0,,5,-0.02,26.8,-1565.316650390625,27.212404251098633,,,I,5720045919584144
Raw,1719666416447,1623686018000000,18,,-1402077948429471168,-0.39885711669921875,53.28407496563159,3.6247446690866907,11.279349811117003,806,21,0.0,16399,565620372498248,46,25.0,-197.8486785888672,0.8044999837875366,16,0.0,0.0,1561097980,,,,0,,5,-0.02,20.7,-1565.316650390625,27.212404251098633,,,I,5720045919584144
Raw,1719666416447,1623686018000000,18,,-1402077948429471168,-0.39885711669921875,53.28407496563159,3.6247446690866907,11.279349811117003,806,13,0.0,16399,565620328628571,53,23.4,75.48112487792969,0.9284999966621399,16,0.0,0.0,1561097980,,,,0,,5,-0.02,19.099999999999998,-1565.316650390625,27.212404251098633,,,I,5720045919584144
Raw,1719666416447,1623686018000000,18,,-1402077948429471168,-0.39885711669921875,53.28407496563159,3.6247446690866907,11.279349811117003,806,8,0.0,16399,565620327274021,53,24.1,122.02189636230469,0.8569999933242798,16,0.0,0.0,1561097980,,,,0,,5,-0.02,19.8,-1565.316650390625,27.212404251098633,,,I,5720045919584144
Raw,1719666416447,1623686018000000,18,,-1402077948429471168,-0.39885711669921875,53.28407496563159,3.6247446690866907,11.279349811117003,806,4,0.0,16399,565620316515297,12,36.7,-7.289561748504639,0.5457000136375427,16,0.0,1920.3757538518662,1561097980,,,,0,,5,-0.02,32.400000000000006,-1565.316650390625,27.212404251098633,,,I,5720045919584144
Raw,1719666416447,1623686018000000,18,,-1402077948429471168,-0.39885711669921875,53.28407496563159,3.6247446690866907,11.279349811117003,806,1,0.0,16399,565620322398803,7,41.9,7.880121231079102,0.06920000165700912,16,0.0,1920.3757538518662,1561097980,,,,0,,5,-0.02,37.6,-1565.316650390625,27.212404251098633,,,I,5720045919584144
Raw,1719666417447,1623687018000000,18,,-1402077948429471167,-0.5047874450683594,55.176205933094025,2.9484755842010917,13.271405444149996,806,10,0.0,16399,565635380289281,92,18.7,29.53357696533203,2.8565001487731934,16,0.0,0.0,1575420030,,,,0,,1,-0.05,15.2,0.0,0.0,,,C,5720046919584143
Raw,1719666417447,1623687018000000,18,,-1402077948429471167,-0.5047874450683594,55.176205933094025,2.9484755842010917,13.271405444149996,806,12,0.0,16399,565635367969410,21,29.7,413.66595458984375,0.07110000401735306,16,0.0,1902.9177342976868,1575420030,,,,0,,1,-0.05,26.2,0.0,0.0,,,C,5720046919584143
Raw,1719666417447,1623687018000000,18,,-1402077948429471167,-0.5047874450683594,55.176205933094025,2.9484755842010917,13.271405444149996,806,23,0.0,16399,565635375535287,9,38.7,483.95721435546875,0.04430000111460686,16,0.0,1902.9177342976868,1575420030,,,,0,,1,-0.05,35.2,0.0,0.0,,,C,5720046919584143
Raw,1719666417447,1623687018000000,18,,-1402077948429471167,-0.5047874450683594,55.176205933094025,2.9484755842010917,13.271405444149996,806,25,0.0,16399,565635376288298,5,43.9,162.12319946289062,0.04349999874830246,16,0.0,1902.9177342976868,1575420030,,,,0,,1,-0.05,40.4,0.0,0.0,,,C,5720046919584143
Raw,1719666417447,1623687018000000,18,,-1402077948429471167,-0.5047874450683594,55.176205933094025,2.9484755842010917,13.271405444149996,806,26,0.0,16399,565635369723085,61,22.1,-687.9877319335938,1.0099999904632568,16,0.0,0.0,1575420030,,,,0,,1,-0.05,18.6,0.0,0.0,,,C,5720046919584143
Raw,1719666417447,1623687018000000,18,,-1402077948429471167,-0.5047874450683594,55.176205933094025,2.9484755842010917,13.271405444149996,806,28,0.0,16399,565635378021351,46,23.6,8.6203031539917,0.9434999823570251,16,0.0,0.0,1575420030,,,,0,,1,-0.05,20.1,0.0,0.0,,,C,5720046919584143
Raw,1719666417447,1623687018000000,18,,-1402077948429471167,-0.5047874450683594,55.176205933094025,2.9484755842010917,13.271405444149996,806,31,0.0,16399,565635374356953,31,26.7,-357.4381103515625,0.7475000023841858,16,0.0,0.0,1575420030,,,,0,,1,-0.05,23.2,0.0,0.0,,,C,5720046919584143
Raw,1719666417447,1623687018000000,18,,-1402077948429471167,-0.5047874450683594,55.176205933094025,2.9484755842010917,13.271405444149996,806,32,0.0,16399,565635374614088,31,26.9,-109.62818908691406,0.7475000023841858,16,0.0,0.0,1575420030,,,,0,,1,-0.05,23.4,0.0,0.0,,,C,5720046919584143
Raw,1719666417447,1623687018000000,18,,-1402077948429471167,-0.5047874450683594,55.176205933094025,2.9484755842010917,13.271405444149996,806,12,0.0,49359,58017383237413,181,14.4,104.37452697753906,10.321001052856445,16,0.0,0.0,1601437440,,,,0,,3,0.61,10.4,3749.939453125,27.87075424194336,,,C,5720046919584143
Raw,1719666417447,1623687018000000,18,,-1402077948429471167,-0.5047874450683594,55.176205933094025,2.9484755842010917,13.271405444149996,806,11,0.0,49359,58017371458771,14,34.9,734.3662109375,0.24250000715255737,16,0.0,1871.3450173911542,1602000000,,,,0,,3,0.61,30.9,3749.939453125,27.87075424194336,,,C,5720046919584143
Raw,1719666417447,1623687018000000,18,,-1402077948429471167,-0.5047874450683594,55.176205933094025,2.9484755842010917,13.271405444149996,806,1,0.0,49359,58017378699474,10,38.1,-18.863462448120117,0.24940000474452972,16,0.0,1870.6881045945743,1602562560,,,,0,,3,0.61,34.1,3749.939453125,27.87075424194336,,,C,5720046919584143
Raw,1719666417447,1623687018000000,18,,-1402077948429471167,-0.5047874450683594,55.176205933094025,2.9484755842010917,13.271405444149996,806,17,0.0,49359,58017369065948,21,30.9,372.2395935058594,0.27410000562667847,16,0.0,1868.720428711333,1604249980,,,,0,,3,0.61,26.9,3749.939453125,27.87075424194336,,,C,5720046919584143
Raw,1719666417447,1623687018000000,18,,-1402077948429471167,-0.5047874450683594,55.176205933094025,2.9484755842010917,13.271405444149996,806,22,0.0,16399,565621369208151,19,31.5,300.87786865234375,0.5099999904632568,16,0.0,0.0,1561097980,,,,0,,5,-0.02,27.2,-1566.7772216796875,25.219501495361328,,,I,5720046919584143
Raw,1719666417447,1623687018000000,18,,-1402077948429471167,-0.5047874450683594,55.176205933094025,2.9484755842010917,13.271405444149996,806,21,0.0,16399,565621372498923,53,24.1,-197.86788940429688,0.8644999861717224,16,0.0,0.0,1561097980,,,,0,,5,-0.02,19.8,-1566.7772216796875,25.219501495361328,,,I,5720046919584143
Raw,1719666417447,1623687018000000,18,,-1402077948429471167,-0.5047874450683594,55.176205933094025,2.9484755842010917,13.271405444149996,806,13,0.0,16399,565621328628381,53,23.4,54.78887176513672,0.9284999966621399,16,0.0,0.0,1561097980,,,,0,,5,-0.02,19.099999999999998,-1566.7772216796875,25.219501495361328,,,I,5720046919584143
Raw,1719666417447,1623687018000000,18,,-1402077948429471167,-0.5047874450683594,55.176205933094025,2.9484755842010917,13.271405444149996,806,8,0.0,16399,565621327273607,53,23.6,121.8106460571289,0.9269999861717224,16,0.0,0.0,1561097980,,,,0,,5,-0.02,19.3,-1566.7772216796875,25.219501495361328,,,I,5720046919584143
Raw,1719666417447,1623687018000000,18,,-1402077948429471167,-0.5047874450683594,55.176205933094025,2.9484755842010917,13.271405444149996,806,4,0.0,16399,565621316515274,12,37.2,6.980636119842529,1.1791999340057373,16,0.0,0.0,1561097980,,,,0,,5,-0.02,32.900000000000006,-1566.7772216796875,25.219501495361328,,,I,5720046919584143
Raw,1719666417447,1623687018000000,18,,-1402077948429471167,-0.5047874450683594,55.176205933094025,2.9484755842010917,13.271405444149996,806,1,0.0,16399,565621322398785,6,42.7,6.999839782714844,1.01010000705719,16,0.0,0.0,1561097980,,,,0,,5,-0.02,38.400000000000006,-1566.7772216796875,25.219501495361328,,,I,5720046919584143
Raw,1719666418447,1623688018000000,18,,-1402077948429471170,-0.4552173614501953,57.144046877510846,2.932200204046887,15.98491094344096,806,12,0.0,16399,565636367967982,24,28.9,413.7454528808594,0.10300000011920929,16,0.0,1902.9177342976868,1575420030,,,,0,,1,-0.05,25.4,0.0,0.0,,,C,5720047919584146
Raw,1719666418447,1623688018000000,18,,-1402077948429471170,-0.4552173614501953,57.144046877510846,2.932200204046887,15.98491094344096,806,23,0.0,16399,565636375533660,9,39.0,484.01068115234375,0.04430000111460686,16,0.0,1902.9177342976868,1575420030,,,,0,,1,-0.05,35.5,0.0,0.0,,,C,5720047919584146
Raw,1719666418447,1623688018000000,18,,-1402077948429471170,-0.4552173614501953,57.144046877510846,2.932200204046887,15.98491094344096,806,25,0.0,16399,565636376287769,5,44.0,162.2157440185547,0.04349999874830246,16,0.0,1902.9177342976868,1575420030,,,,0,,1,-0.05,40.5,0.0,0.0,,,C,5720047919584146
Raw,1719666418447,1623688018000000,18,,-1402077948429471170,-0.4552173614501953,57.144046877510846,2.932200204046887,15.98491094344096,806,26,0.0,16399,565636369725448,61,21.6,-688.4158935546875,1.0899999141693115,16,0.0,0.0,1575420030,,,,0,,1,-0.05,18.1,0.0,0.0,,,C,5720047919584146
Raw,1719666418447,1623688018000000,18,,-1402077948429471170,-0.4552173614501953,57.144046877510846,2.932200204046887,15.98491094344096,806,28,0.0,16399,565636378021309,53,23.2,8.686905860900879,0.9434999823570251,16,0.0,0.0,1575420030,,,,0,,1,-0.05,19.7,0.0,0.0,,,C,5720047919584146
Raw,1719666418447,1623688018000000,18,,-1402077948429471170,-0.4552173614501953,57.144046877510846,2.932200204046887,15.98491094344096,806,31,0.0,16399,565636374358159,31,26.9,-357.2383117675781,0.7475000023841858,16,0.0,0.0,1575420030,,,,0,,1,-0.05,23.4,0.0,0.0,,,C,5720047919584146
Raw,1719666418447,1623688018000000,18,,-1402077948429471170,-0.4552173614501953,57.144046877510846,2.932200204046887,15.98491094344096,806,32,0.0,16399,565636374614468,31,27.2,-109.85653686523438,0.6875,16,0.0,0.0,1575420030,,,,0,,1,-0.05,23.7,0.0,0.0,,,C,5720047919584146
Raw,1719666418447,1623688018000000,18,,-1402077948429471170,-0.4552173614501953,57.144046877510846,2.932200204046887,15.98491094344096,806,11,0.0,49359,58018371456272,13,35.0,734.3753051757812,0.24140000343322754,16,0.0,1871.3450173911542,1602000000,,,,0,,3,0.64,31.0,3742.813720703125,24.281326293945312,,,C,5720047919584146
Raw,1719666418447,1623688018000000,18,,-1402077948429471170,-0.4552173614501953,57.144046877510846,2.932200204046887,15.98491094344096,806,1,0.0,49359,58018378699548,10,38.2,-18.83891487121582,0.24940000474452972,16,0.0,1870.6881045945743,1602562560,,,,0,,3,0.64,34.2,3742.813720703125,24.281326293945312,,,C,5720047919584146
Raw,1719666418447,1623688018000000,18,,-1402077948429471170,-0.4552173614501953,57.144046877510846,2.932200204046887,15.98491094344096,806,17,0.0,49359,58018369064641,21,30.1,372.2548828125,0.27410000562667847,16,0.0,1868.720428711333,1604249980,,,,0,,3,0.64,26.1,3742.813720703125,24.281326293945312,,,C,5720047919584146
Raw,1719666418447,1623688018000000,18,,-1402077948429471170,-0.4552173614501953,57.144046877510846,2.932200204046887,15.98491094344096,806,8,0.0,49359,58018367695451,70,21.1,383.0751647949219,2.0369999408721924,16,0.0,0.0,1605374980,,,,0,,3,0.64,17.1,3742.813720703125,24.281326293945312,,,C,5720047919584146
Raw,1719666418447,1623688018000000,18,,-1402077948429471170,-0.4552173614501953,57.144046877510846,2.932200204046887,15.98491094344096,806,22,0.0,16399,565622369207389,21,30.7,302.97918701171875,0.07410000264644623,16,0.0,1920.3757538518662,1561097980,,,,0,,5,0.0,26.4,-1566.7730712890625,25.218759536743164,,,I,5720047919584146
Raw,1719666418447,1623688018000000,18,,-1402077948429471170,-0.4552173614501953,57.144046877510846,2.932200204046887,15.98491094344096,806,21,0.0,16399,565622372499635,53,24.0,-197.2629852294922,0.8644999861717224,16,0.0,0.0,1561097980,,,,0,,5,0.0,19.7,-1566.7730712890625,25.218759536743164,,,I,5720047919584146
Raw,1719666418447,1623688018000000,18,,-1402077948429471170,-0.4552173614501953,57.144046877510846,2.932200204046887,15.98491094344096,806,13,0.0,16399,565622328628174,61,22.3,54.39518737792969,1.0084999799728394,16,0.0,0.0,1561097980,,,,0,,5,0.0,18.0,-1566.7730712890625,25.218759536743164,,,I,5720047919584146
Raw,1719666418447,1623688018000000,18,,-1402077948429471170,-0.4552173614501953,57.144046877510846,2.932200204046887,15.98491094344096,806,8,0.0,16399,565622327273264,53,23.9,121.39776611328125,0.9269999861717224,16,0.0,0.0,1561097980,,,,0,,5,0.0,19.599999999999998,-1566.7730712890625,25.218759536743164,,,I,5720047919584146
Raw,1719666418447,1623688018000000,18,,-1402077948429471170,-0.4552173614501953,57.144046877510846,2.932200204046887,15.98491094344096,806,4,0.0,16399,565622316515239,12,36.8,10.93825912475586,0.5457000136375427,16,0.0,1920.3757538518662,1561097980,,,,0,,5,0.0,32.5,-1566.7730712890625,25.218759536743164,,,I,5720047919584146
Raw,1719666418447,1623688018000000,18,,-1402077948429471170,-0.4552173614501953,57.144046877510846,2.932200204046887,15.98491094344096,806,3,0.0,16399,565622326880610,31,27.3,6.068448066711426,5.096099853515625,16,0.0,0.0,1561097980,,,,0,,5,0.0,23.0,-1566.7730712890625,25.218759536743164,,,I,5720047919584146
Raw,1719666418447,1623688018000000,18,,-1402077948429471170,-0.4552173614501953,57.144046877510846,2.932200204046887,15.98491094344096,806,1,0.0,16399,565622322398756,6,42.6,5.011161804199219,0.059300001710653305,16,0.0,1920.3757538518662,1561097980,,,,0,,5,0.0,38.300000000000004,-1566.7730712890625,25.218759536743164,,,I,5720047919584146
Raw,1719666419447,1623689018000000,18,,-1402077948429471165,-0.7166481018066406,57.96735058538616,1.7997965912558573,17.395393522482884,806,12,0.0,16399,565637367966620,21,30.0,413.7514343261719,0.07110000401735306,16,0.0,1902.9177342976868,1575420030,,,,0,,1,-0.05,26.5,0.0,0.0,,,C,5720048919584141
Raw,1719666419447,1623689018000000,18,,-1402077948429471165,-0.7166481018066406,57.96735058538616,1.7997965912558573,17.395393522482884,806,21,0.0,16399,565637363698275,92,19.3,-56.698001861572266,2.761000156402588,16,0.0,0.0,1575420030,,,,0,,1,-0.05,15.8,0.0,0.0,,,C,5720048919584141
Raw,1719666419447,1623689018000000,18,,-1402077948429471165,-0.7166481018066406,57.96735058538616,1.7997965912558573,17.395393522482884,806,23,0.0,16399,565637375532065,9,38.9,484.01910400390625,0.04430000111460686,16,0.0,1902.9177342976868,1575420030,,,,0,,1,-0.05,35.4,0.0,0.0,,,C,5720048919584141
Raw,1719666419447,1623689018000000,18,,-1402077948429471165,-0.7166481018066406,57.96735058538616,1.7997965912558573,17.395393522482884,806,25,0.0,16399,565637376287221,5,43.8,162.2644805908203,0.04349999874830246,16,0.0,1902.9177342976868,1575420030,,,,0,,1,-0.05,40.3,0.0,0.0,,,C,5720048919584141
Raw,1719666419447,1623689018000000,18,,-1402077948429471165,-0.7166481018066406,57.96735058538616,1.7997965912558573,17.395393522482884,806,28,0.0,16399,565637378021263,40,25.4,8.905743598937988,0.8134999871253967,16,0.0,0.0,1575420030,,,,0,,1,-0.05,21.9,0.0,0.0,,,C,5720048919584141
Raw,1719666419447,1623689018000000,18,,-1402077948429471165,-0.7166481018066406,57.96735058538616,1.7997965912558573,17.395393522482884,806,31,0.0,16399,565637374359278,35,25.9,-357.6664733886719,0.8075000047683716,16,0.0,0.0,1575420030,,,,0,,1,-0.05,22.4,0.0,0.0,,,C,5720048919584141
Raw,1719666419447,1623689018000000,18,,-1402077948429471165,-0.7166481018066406,57.96735058538616,1.7997965912558573,17.395393522482884,806,32,0.0,16399,565637374614849,27,28.1,-110.5225601196289,0.6375000476837158,16,0.0,0.0,1575420030,,,,0,,1,-0.05,24.6,0.0,0.0,,,C,5720048919584141
Raw,1719666419447,1623689018000000,18,,-1402077948429471165,-0.7166481018066406,57.96735058538616,1.7997965912558573,17.395393522482884,806,11,0.0,49359,58019371453855,13,35.0,734.359130859375,0.24140000343322754,16,0.0,1871.3450173911542,1602000000,,,,0,,3,0.71,31.0,3737.677978515625,21.463516235351562,,,C,5720048919584141
Raw,1719666419447,1623689018000000,18,,-1402077948429471165,-0.7166481018066406,57.96735058538616,1.7997965912558573,17.395393522482884,806,1,0.0,49359,58019378699573,10,38.3,-18.83951759338379,0.24940000474452972,16,0.0,1870.6881045945743,1602562560,,,,0,,3,0.71,34.3,3737.677978515625,21.463516235351562,,,C,5720048919584141
Raw,1719666419447,1623689018000000,18,,-1402077948429471165,-0.7166481018066406,57.96735058538616,1.7997965912558573,17.395393522482884,806,17,0.0,49359,58019369063394,19,31.2,372.2477722167969,0.2556999921798706,16,0.0,1868.720428711333,1604249980,,,,0,,3,0.71,27.2,3737.677978515625,21.463516235351562,,,C,5720048919584141
Raw,1719666419447,1623689018000000,18,,-1402077948429471165,-0.7166481018066406,57.96735058538616,1.7997965912558573,17.395393522482884,806,22,0.0,16399,565623369206612,21,31.2,300.6954345703125,0.5099999904632568,16,0.0,0.0,1561097980,,,,0,,5,-0.02,26.9,-1566.04541015625,23.057348251342773,,,I,5720048919584141
Raw,1719666419447,1623689018000000,18,,-1402077948429471165,-0.7166481018066406,57.96735058538616,1.7997965912558573,17.395393522482884,806,21,0.0,16399,565623372500285,53,24.0,-217.51353454589844,0.8644999861717224,16,0.0,0.0,1561097980,,,,0,,5,-0.02,19.7,-1566.04541015625,23.057348251342773,,,I,5720048919584141
Raw,1719666419447,1623689018000000,18,,-1402077948429471165,-0.7166481018066406,57.96735058538616,1.7997965912558573,17.395393522482884,806,13,0.0,16399,565623328627914,61,23.0,54.433597564697266,0.9284999966621399,16,0.0,0.0,1561097980,,,,0,,5,-0.02,18.7,-1566.04541015625,23.057348251342773,,,I,5720048919584141
Raw,1719666419447,1623689018000000,18,,-1402077948429471165,-0.7166481018066406,57.96735058538616,1.7997965912558573,17.395393522482884,806,4,0.0,16399,565623316515212,12,36.5,6.543071746826172,0.5457000136375427,16,0.0,1920.3757538518662,1561097980,,,,0,,5,-0.02,32.2,-1566.04541015625,23.057348251342773,,,I,5720048919584141
Raw,1719666419447,1623689018000000,18,,-1402077948429471165,-0.7166481018066406,57.96735058538616,1.7997965912558573,17.395393522482884,806,1,0.0,16399,565623322398726,7,42.2,5.838000297546387,1.01010000705719,16,0.0,0.0,1561097980,,,,0,,5,-0.02,37.900000000000006,-1566.04541015625,23.057348251342773,,,I,5720048919584141
Raw,1719666420447,1623690018000000,18,,-1402077948429471163,-0.74969482421875,57.47997056460008,3.092456233772696,16.717551972637114,806,10,0.0,16399,565638380289011,92,19.0,30.35184097290039,2.756500005722046,16,0.0,0.0,1575420030,,,,0,,1,-0.02,15.5,0.0,0.0,,,C,5720049919584139
Raw,1719666420447,1623690018000000,18,,-1402077948429471163,-0.74969482421875,57.47997056460008,3.092456233772696,16.717551972637114,806,12,0.0,16399,565638367965200,21,30.0,413.6966247558594,0.07110000401735306,16,0.0,1902.9177342976868,1575420030,,,,0,,1,-0.02,26.5,0.0,0.0,,,C,5720049919584139
Raw,1719666420447,1623690018000000,18,,-1402077948429471163,-0.74969482421875,57.47997056460008,3.092456233772696,16.717551972637114,806,23,0.0,16399,565638375530436,9,39.2,483.94854736328125,0.04430000111460686,16,0.0,1902.9177342976868,1575420030,,,,0,,1,-0.02,35.7,0.0,0.0,,,C,5720049919584139
Raw,1719666420447,1623690018000000,18,,-1402077948429471163,-0.74969482421875,57.47997056460008,3.092456233772696,16.717551972637114,806,25,0.0,16399,565638376286681,5,43.8,162.22865295410156,0.04349999874830246,16,0.0,1902.9177342976868,1575420030,,,,0,,1,-0.02,40.3,0.0,0.0,,,C,5720049919584139
Raw,1719666420447,1623690018000000,18,,-1402077948429471163,-0.74969482421875,57.47997056460008,3.092456233772696,16.717551972637114,806,26,0.0,16399,565638369729929,70,21.0,-687.7403564453125,1.840000033378601,16,0.0,0.0,1575420030,,,,0,,1,-0.02,17.5,0.0,0.0,,,C,5720049919584139
Raw,1719666420447,1623690018000000,18,,-1402077948429471163,-0.74969482421875,57.47997056460008,3.092456233772696,16.717551972637114,806,28,0.0,16399,565638378021246,46,24.0,8.515642166137695,0.8734999895095825,16,0.0,0.0,1575420030,,,,0,,1,-0.02,20.5,0.0,0.0,,,C,5720049919584139
Raw,1719666420447,1623690018000000,18,,-1402077948429471163,-0.74969482421875,57.47997056460008,3.092456233772696,16.717551972637114,806,31,0.0,16399,565638374360530,40,24.8,-357.285888671875,0.8675000071525574,16,0.0,0.0,1575420030,,,,0,,1,-0.02,21.3,0.0,0.0,,,C,5720049919584139
Raw,1719666420447,1623690018000000,18,,-1402077948429471163,-0.74969482421875,57.47997056460008,3.092456233772696,16.717551972637114,806,32,0.0,16399,565638374615165,27,28.3,-110.22760772705078,0.6375000476837158,16,0.0,0.0,1575420030,,,,0,,1,-0.02,24.8,0.0,0.0,,,C,5720049919584139
Raw,1719666420447,1623690018000000,18,,-1402077948429471163,-0.74969482421875,57.47997056460008,3.092456233772696,16.717551972637114,806,11,0.0,49359,58020371451417,13,35.0,734.2383422851562,0.24140000343322754,16,0.0,1871.3450173911542,1602000000,,,,0,,3,0.69,31.0,3736.670654296875,19.890853881835938,,,C,5720049919584139
Raw,1719666420447,1623690018000000,18,,-1402077948429471163,-0.74969482421875,57.47997056460008,3.092456233772696,16.717551972637114,806,1,0.0,49359,58020378699628,10,38.5,-18.9334659576416,0.24940000474452972,16,0.0,1870.6881045945743,1602562560,,,,0,,3,0.69,34.5,3736.670654296875,19.890853881835938,,,C,5720049919584139
Raw,1719666420447,1623690018000000,18,,-1402077948429471163,-0.74969482421875,57.47997056460008,3.092456233772696,16.717551972637114,806,17,0.0,49359,58020369062209,21,30.5,372.1263427734375,0.27410000562667847,16,0.0,1868.720428711333,1604249980,,,,0,,3,0.69,26.5,3736.670654296875,19.890853881835938,,,C,5720049919584139
Raw,1719666420447,1623690018000000,18,,-1402077948429471163,-0.74969482421875,57.47997056460008,3.092456233772696,16.717551972637114,806,8,0.0,49359,58020367692792,70,21.7,381.8893127441406,2.0369999408721924,16,0.0,0.0,1605374980,,,,0,,3,0.69,17.7,3736.670654296875,19.890853881835938,,,C,5720049919584139
Raw,1719666420447,1623690018000000,18,,-1402077948429471163,-0.74969482421875,57.47997056460008,3.092456233772696,16.717551972637114,806,22,0.0,16399,565624369205835,19,31.5,300.4745788574219,0.5099999904632568,16,0.0,0.0,1561097980,,,,0,,5,0.0,27.2,-1566.025146484375,23.061574935913086,,,I,5720049919584139
Raw,1719666420447,1623690018000000,18,,-1402077948429471163,-0.74969482421875,57.47997056460008,3.092456233772696,16.717551972637114,806,21,0.0,16399,565624372501024,61,22.6,-197.4838104248047,1.0145000219345093,16,0.0,0.0,1561097980,,,,0,,5,0.0,18.3,-1566.025146484375,23.061574935913086,,,I,5720049919584139
Raw,1719666420447,1623690018000000,18,,-1402077948429471163,-0.74969482421875,57.47997056460008,3.092456233772696,16.717551972637114,806,13,0.0,16399,565624328627712,53,23.4,39.022422790527344,0.9284999966621399,16,0.0,0.0,1561097980,,,,0,,5,0.0,19.099999999999998,-1566.025146484375,23.061574935913086,,,I,5720049919584139
