MessageType,Provider,LatitudeDegrees,LongitudeDegrees,AltitudeMeters,SpeedMps,AccuracyMeters,BearingDegrees,UnixTimeMillis,SpeedAccuracyMps,BearingAccuracyDegrees,elapsedRealtimeNanos,VerticalAccuracyMeters
Fix,GT,37.5240121000,-122.3499208000,147.7240556560737,0.0012683338,0.1,83.631744,1626295846435,,,,
Fix,GT,37.5240121000,-122.3499208000,147.7240556560737,0.0017036584,0.1,83.63182,1626295847435,,,,
Fix,GT,37.5240121000,-122.3499208000,147.72406005859375,0.0017036584,0.1,83.63161,1626295848435,,,,
Fix,GT,37.5240121000,-122.3499208000,147.7240556560737,0.0009999999,0.1,83.63183,1626295849435,,,,
Fix,GT,37.5240121000,-122.3499208000,147.7240556560737,0.0014353249,0.1,83.63173,1626295850435,,,,
Fix,GT,37.5240121000,-122.3499208000,147.72406005859375,0.00049806514,0.1,83.63155,1626295851435,,,,
Fix,GT,37.5240121000,-122.3499208000,147.7240556560737,0.003605551,0.1,83.631454,1626295852435,,,,
Fix,GT,37.5240121000,-122.3499208000,147.7240556560737,0.001,0.1,83.63248,1626295853435,,,,
Fix,GT,37.5240121000,-122.3499208000,147.72406005859375,0.0009161481,0.1,83.63179,1626295854435,,,,
Fix,GT,37.5240121000,-122.3499208000,147.7240556560737,0.0,0.099,83.631256,1626295855435,,,,
Fix,GT,37.5240121000,-122.3499208000,147.72406005859375,0.001,0.1,83.63089,1626295856435,,,,
Fix,GT,37.5240121000,-122.3499208000,147.72406005859375,0.0,0.1,83.631004,1626295857435,,,,
Fix,GT,37.5240121000,-122.3499208000,147.72406005859375,0.0,0.1,83.63092,1626295858435,,,,
Fix,GT,37.5240121000,-122.3499208000,147.72406005859375,0.0,0.1,83.630844,1626295859435,,,,
Fix,GT,37.5240121000,-122.3499208000,147.7240556560737,0.0,0.1,83.630806,1626295860435,,,,
Fix,GT,37.5240121000,-122.3499208000,147.72406005859375,0.0012683335,0.1,83.63062,1626295861435,,,,
Fix,GT,37.5240121000,-122.3499208000,147.72406005859375,0.0004980659,0.1,83.63039,1626295862435,,,,
Fix,GT,37.5240121000,-122.3499208000,147.72406005859375,0.0,0.1,83.63048,1626295863435,,,,
Fix,GT,37.5240121000,-122.3499208000,147.7240556560737,0.0,0.1,83.630424,1626295864435,,,,
Fix,GT,37.5240121000,-122.3499208000,147.72305297851562,0.0,0.1,83.63041,1626295865435,,,,
Fix,GT,37.5240121000,-122.3499208000,147.72305297851562,0.0,0.1,83.6303,1626295866435,,,,
Fix,GT,37.5240121000,-122.3499208000,147.72305297851562,0.001,0.1,83.63023,1626295867435,,,,
Fix,GT,37.5240121000,-122.3499208000,147.72304857602558,0.0016205192,0.1,83.63099,1626295868435,,,,
Fix,GT,37.5240122000,-122.3499200000,147.71604919433594,0.34622288,0.1,83.63831,1626295869435,,,,
Fix,GT,37.5240128000,-122.3499104000,147.68865013237973,1.3357233,0.1,84.458275,1626295870435,,,,
Fix,GT,37.5240114000,-122.3498896000,147.64935094651537,2.2817724,0.1,91.301,1626295871435,,,,
Fix,GT,37.5240043000,-122.3498596000,147.60470208316656,3.150241,0.1,103.72642,1626295872435,,,,
Fix,GT,37.5239887000,-122.3498228000,147.55688357581948,4.133718,0.1,116.75836,1626295873435,,,,
Fix,GT,37.5239633000,-122.3497803000,147.4487015977238,5.1273108,0.1,127.56055,1626295874435,,,,
Fix,GT,37.5239278000,-122.3497370000,147.5149318532931,5.7866974,0.1,136.6582,1626295875435,,,,
Fix,GT,37.5238848000,-122.3496970000,147.60916322058392,5.90487,0.1,145.55139,1626295876435,,,,
Fix,GT,37.5238377000,-122.3496677000,147.65217262976603,5.7407875,0.1,155.1781,1626295877435,,,,
Fix,GT,37.5237891000,-122.3496471000,147.5824626577505,5.5413847,0.1,161.5861,1626295878435,,,,
Fix,GT,37.5237437000,-122.3496274000,147.69345031975263,5.1143255,0.1,159.96965,1626295879435,,,,
Fix,GT,37.5237057000,-122.3496030000,147.88863693705116,4.259454,0.1,152.0998,1626295880435,,,,
Fix,GT,37.5236782000,-122.3495793000,148.06974523599456,3.281179,0.1,146.04048,1626295881435,,,,
Fix,GT,37.5236575000,-122.3495593000,148.26986512161238,2.6326241,0.1,142.94785,1626295882435,,,,
Fix,GT,37.5236391000,-122.3495427000,148.46297671510547,2.4415479,0.1,144.66179,1626295883435,,,,
Fix,GT,37.5236172000,-122.3495351000,148.3577283517534,2.3720264,0.1,161.08504,1626295884435,,,,
Fix,GT,37.5235946000,-122.3495431000,148.28890948183516,2.5166345,0.1,186.91617,1626295885435,,,,
Fix,GT,37.5235732000,-122.3495626000,148.39417128190507,3.1162229,0.1,210.91563,1626295886435,,,,
Fix,GT,37.5235518000,-122.3495943000,148.3795882987415,4.125702,0.1,227.36314,1626295887435,,,,
Fix,GT,37.5235252000,-122.3496350000,148.26418095874305,5.146017,0.1,230.37425,1626295888435,,,,
Fix,GT,37.5234933000,-122.3496847000,148.087549290698,6.0141363,0.1,231.0231,1626295889435,,,,
Fix,GT,37.5234582000,-122.3497385000,147.8379039673673,6.2470493,0.1,230.6403,1626295890435,,,,
Fix,GT,37.5234225000,-122.3497924000,147.58590946235108,6.0668645,0.1,229.98776,1626295891435,,,,
Fix,GT,37.5233890000,-122.3498418000,147.35266173077525,5.2763033,0.1,229.69868,1626295892435,,,,
Fix,GT,37.5233625000,-122.3498807000,147.17347621154113,3.672082,0.1,229.49739,1626295893435,,,,
Fix,GT,37.5233463000,-122.3499044000,147.0829449142243,1.9055822,0.1,229.44765,1626295894435,,,,
Fix,GT,37.5233389000,-122.3499153000,147.03635423813466,1.1045028,0.1,229.44363,1626295895435,,,,
Fix,GT,37.5233297000,-122.3499287000,146.98495296722967,2.200535,0.1,229.45064,1626295896435,,,,
Fix,GT,37.5233127000,-122.3499541000,146.93058867247873,3.649666,0.1,229.83937,1626295897435,,,,
Fix,GT,37.5232888000,-122.3499903000,146.89093480914835,4.3385696,0.1,230.26823,1626295898435,,,,
Fix,GT,37.5232646000,-122.3500274000,146.895111521113,4.108449,0.1,230.6318,1626295899435,,,,
Fix,GT,37.5232421000,-122.3500621000,146.9671737145777,3.7747862,0.1,230.97484,1626295900435,,,,
Fix,GT,37.5232218000,-122.3500938000,147.05022873515736,3.3858976,0.1,231.33134,1626295901435,,,,
Fix,GT,37.5232040000,-122.3501221000,147.15558352967355,2.994392,0.1,231.56181,1626295902435,,,,
Fix,GT,37.5231882000,-122.3501472000,147.2428682056575,2.7046578,0.1,231.6136,1626295903435,,,,
Fix,GT,37.5231736000,-122.3501702000,147.3399385805228,2.495895,0.1,231.5479,1626295904435,,,,
Fix,GT,37.5231600000,-122.3501915000,147.449575725459,2.332501,0.099,231.4883,1626295905435,,,,
Fix,GT,37.5231472000,-122.3502118000,147.55023313535366,2.2316031,0.1,231.46062,1626295906435,,,,
Fix,GT,37.5231335000,-122.3502331000,147.63962975138975,2.7686396,0.1,231.08792,1626295907435,,,,
Fix,GT,37.5231154000,-122.3502607000,147.7954027979281,3.6406374,0.1,230.56868,1626295908435,,,,
Fix,GT,37.5230909000,-122.3502976000,147.99786639768035,4.8722324,0.1,230.21083,1626295909435,,,,
Fix,GT,37.5230588000,-122.3503447000,148.2437467047289,6.0521965,0.1,229.48976,1626295910435,,,,
Fix,GT,37.5230202000,-122.3504011000,148.5576748979056,7.074106,0.1,229.29065,1626295911435,,,,
Fix,GT,37.5229783000,-122.3504622000,148.92938108583803,6.9893036,0.1,229.33441,1626295912435,,,,
Fix,GT,37.5229391000,-122.3505199000,149.25527649986952,6.218315,0.1,229.64714,1626295913435,,,,
Fix,GT,37.5229088000,-122.3505651000,149.50809811978525,4.1769676,0.1,229.99466,1626295914435,,,,
Fix,GT,37.5228906000,-122.3505925000,149.6341669020385,2.3016653,0.1,230.20895,1626295915435,,,,
Fix,GT,37.5228778000,-122.3506132000,149.70322862220928,2.491123,0.1,231.94492,1626295916435,,,,
Fix,GT,37.5228646000,-122.3506405000,149.79357426836123,3.1248045,0.1,238.17253,1626295917435,,,,
Fix,GT,37.5228581000,-122.3506773000,149.84570923509546,3.2856107,0.1,256.43924,1626295918435,,,,
Fix,GT,37.5228641000,-122.3507158000,149.78687357627496,3.5517735,0.1,279.17654,1626295919435,,,,
Fix,GT,37.5228843000,-122.3507550000,149.80340949150013,4.5925064,0.1,302.13055,1626295920435,,,,
Fix,GT,37.5229175000,-122.3507995000,149.77999833753347,6.167989,0.1,313.36063,1626295921435,,,,
Fix,GT,37.5229635000,-122.3508539000,149.72700365112405,7.921772,0.1,317.31085,1626295922435,,,,
Fix,GT,37.5230227000,-122.3509199000,149.58289902411343,9.578466,0.1,318.83755,1626295923435,,,,
Fix,GT,37.5230946000,-122.3509969000,149.2184429507215,11.394034,0.1,319.79727,1626295924435,,,,
Fix,GT,37.5231757000,-122.3510843000,148.59110482882534,12.157838,0.1,319.54233,1626295925435,,,,
Fix,GT,37.5232608000,-122.3511749000,147.84028775728075,12.634161,0.1,319.7723,1626295926435,,,,
Fix,GT,37.5233497000,-122.3512689000,147.02053191856976,13.186848,0.1,319.72778,1626295927435,,,,
Fix,GT,37.5234424000,-122.3513674000,146.15555074228587,13.763105,0.1,320.12482,1626295928435,,,,
Fix,GT,37.5235390000,-122.3514697000,145.30522813488187,14.212131,0.1,319.64786,1626295929435,,,,
Fix,GT,37.5236373000,-122.3515745000,144.578099984461,14.3881645,0.1,319.77432,1626295930435,,,,
Fix,GT,37.5237367000,-122.3516795000,144.03909273922181,14.426235,0.1,320.2021,1626295931435,,,,
Fix,GT,37.5238364000,-122.3517840000,143.5578579707976,14.419519,0.1,320.11603,1626295932435,,,,
Fix,GT,37.5239361000,-122.3518887000,143.07815993641816,14.42001,0.1,320.15186,1626295933435,,,,
Fix,GT,37.5240357000,-122.3519935000,142.57339238343047,14.437195,0.1,319.99738,1626295934435,,,,
Fix,GT,37.5241352000,-122.3520989000,142.06998434701654,14.4553,0.1,319.83923,1626295935435,,,,
Fix,GT,37.5242345000,-122.3522047000,141.5729145332407,14.41997,0.1,319.7463,1626295936435,,,,
Fix,GT,37.5243310000,-122.3523066000,141.10643913333433,13.285064,0.1,320.04712,1626295937435,,,,
Fix,GT,37.5244161000,-122.3523959000,140.68608579278225,11.296819,0.1,319.9732,1626295938435,,,,
Fix,GT,37.5244863000,-122.3524707000,140.32721002092148,9.098715,0.1,319.56085,1626295939435,,,,
Fix,GT,37.5245405000,-122.3525288000,140.02835879204395,6.719059,0.1,319.6587,1626295940435,,,,
Fix,GT,37.5245793000,-122.3525699000,139.81676517682763,4.6256375,0.1,319.8105,1626295941435,,,,
Fix,GT,37.5246044000,-122.3525968000,139.67817378233212,2.7353814,0.1,319.71274,1626295942435,,,,
Fix,GT,37.5246179000,-122.3526115000,139.6422955488233,1.4026155,0.1,319.60324,1626295943435,,,,
Fix,GT,37.5246294000,-122.3526238000,139.5939379255642,2.0766635,0.099,319.28906,1626295944435,,,,
Fix,GT,37.5246457000,-122.3526453000,139.52124174625988,3.1781454,0.1,314.7695,1626295945435,,,,
Fix,GT,37.5246619000,-122.3526808000,139.44594293271302,3.952121,0.1,300.26404,1626295946435,,,,
Fix,GT,37.5246674000,-122.3527256000,139.3647218743099,4.020178,0.1,278.3889,1626295947435,,,,
Fix,GT,37.5246558000,-122.3527716000,139.2094674666114,4.5347867,0.1,252.28973,1626295948435,,,,
Fix,GT,37.5246304000,-122.3528162000,139.0410714274094,5.2155013,0.1,234.95042,1626295949435,,,,
Fix,GT,37.5245977000,-122.3528654000,138.84531263243844,6.1873884,0.1,230.00504,1626295950435,,,,
Fix,GT,37.5245576000,-122.3529233000,138.5714254023187,7.390717,0.1,229.10297,1626295951435,,,,
Fix,GT,37.5245115000,-122.3529897000,138.18425740648445,8.268103,0.1,228.90205,1626295952435,,,,
Fix,GT,37.5244581000,-122.3530640000,137.73398549235662,9.405122,0.1,227.5329,1626295953435,,,,
Fix,GT,37.5243954000,-122.3531428000,137.2089159766292,10.204815,0.1,224.21286,1626295954435,,,,
Fix,GT,37.5243268000,-122.3532247000,136.70473819275503,10.826234,0.1,223.70145,1626295955435,,,,
Fix,GT,37.5242541000,-122.3533115000,136.12151942164746,11.390979,0.1,223.6751,1626295956435,,,,
Fix,GT,37.5241784000,-122.3534013000,135.42399781570793,11.719788,0.1,223.33867,1626295957435,,,,
Fix,GT,37.5240998000,-122.3534912000,134.63447827195432,11.800676,0.1,221.86363,1626295958435,,,,
Fix,GT,37.5240179000,-122.3535751000,133.73553778561836,11.674316,0.1,217.88379,1626295959435,,,,
Fix,GT,37.5239320000,-122.3536510000,132.7560799102448,11.759121,0.1,213.71255,1626295960435,,,,
Fix,GT,37.5238398000,-122.3537185000,131.706129871538,11.938729,0.1,208.40105,1626295961435,,,,
Fix,GT,37.5237419000,-122.3537752000,130.60284593008828,12.019453,0.1,202.80042,1626295962435,,,,
Fix,GT,37.5236400000,-122.3538250000,129.49160976855228,12.361692,0.1,200.71602,1626295963435,,,,
Fix,GT,37.5235344000,-122.3538757000,128.3913158019509,12.614527,0.1,201.33615,1626295964435,,,,
Fix,GT,37.5234327000,-122.3539352000,127.25754436499915,12.272848,0.099,208.10529,1626295965435,,,,
Fix,GT,37.5233429000,-122.3540149000,126.10814126310243,12.131901,0.1,219.79932,1626295966435,,,,
Fix,GT,37.5232690000,-122.3541151000,124.96830403953709,11.965342,0.1,231.4493,1626295967435,,,,
Fix,GT,37.5232146000,-122.3542297000,123.85788860921275,11.618974,0.1,243.70026,1626295968435,,,,
Fix,GT,37.5231809000,-122.3543538000,122.86077749268907,11.551386,0.1,255.1259,1626295969435,,,,
Fix,GT,37.5231675000,-122.3544860000,121.76530115285414,11.997039,0.1,267.08374,1626295970435,,,,
Fix,GT,37.5231760000,-122.3546236000,120.73612579965175,12.361258,0.1,278.89032,1626295971435,,,,
Fix,GT,37.5232054000,-122.3547614000,119.71431983850562,12.946358,0.1,287.7305,1626295972435,,,,
Fix,GT,37.5232502000,-122.3549041000,118.64395815559328,14.125921,0.1,294.0146,1626295973435,,,,
Fix,GT,37.5233104000,-122.3550493000,117.33957356976862,14.922556,0.1,299.82993,1626295974435,,,,
Fix,GT,37.5233872000,-122.3551969000,115.80927437880428,16.260742,0.1,305.37106,1626295975435,,,,
Fix,GT,37.5234806000,-122.3553488000,114.33456791616436,17.64374,0.1,309.4476,1626295976435,,,,
Fix,GT,37.5235900000,-122.3555041000,112.83709189526144,18.96003,0.1,312.74933,1626295977435,,,,
Fix,GT,37.5237106000,-122.3556662000,111.40361545521546,20.234543,0.1,313.26733,1626295978435,,,,
Fix,GT,37.5238390000,-122.3558379000,110.16231773398613,21.395493,0.1,313.1853,1626295979435,,,,
Fix,GT,37.5239755000,-122.3560184000,108.81161847552426,22.59993,0.1,314.1271,1626295980435,,,,
Fix,GT,37.5241227000,-122.3562041000,107.42498424470045,23.715164,0.1,315.6176,1626295981435,,,,
Fix,GT,37.5242804000,-122.3563942000,106.06131974105392,24.780212,0.1,316.9644,1626295982435,,,,
Fix,GT,37.5244482000,-122.3565864000,104.87688243506386,25.5562,0.099,318.4308,1626295983435,,,,
Fix,GT,37.5246232000,-122.3567789000,104.03411527689104,26.050558,0.1,319.84262,1626295984435,,,,
Fix,GT,37.5248064000,-122.3569668000,103.32657403556595,26.441742,0.1,322.06757,1626295985435,,,,
Fix,GT,37.5249971000,-122.3571506000,102.47846745013817,26.999111,0.1,322.85632,1626295986435,,,,
Fix,GT,37.5251950000,-122.3573374000,101.57629122225808,28.075165,0.1,323.20804,1626295987435,,,,
Fix,GT,37.5254011000,-122.3575330000,100.53801162515447,29.085049,0.1,322.66656,1626295988435,,,,
Fix,GT,37.5256090000,-122.3577336000,99.41572711377421,29.139883,0.1,322.5033,1626295989435,,,,
Fix,GT,37.5258171000,-122.3579347000,98.22842058708397,29.102356,0.1,322.57108,1626295990435,,,,
Fix,GT,37.5260264000,-122.3581318000,97.0467881688553,28.992744,0.1,323.8573,1626295991435,,,,
Fix,GT,37.5262394000,-122.3583212000,95.78643110695339,28.982092,0.1,325.62448,1626295992435,,,,
Fix,GT,37.5264584000,-122.3585029000,94.55237335432275,29.282156,0.1,327.56876,1626295993435,,,,
Fix,GT,37.5266851000,-122.3586759000,93.41642389693311,29.630249,0.1,330.04913,1626295994435,,,,
Fix,GT,37.5269204000,-122.3588382000,92.48305291053475,29.934944,0.1,332.4456,1626295995435,,,,
Fix,GT,37.5271635000,-122.3589887000,91.76186278990394,30.199894,0.1,335.15063,1626295996435,,,,
Fix,GT,37.5274134000,-122.3591271000,91.26096163557213,30.399546,0.1,337.34665,1626295997435,,,,
Fix,GT,37.5276683000,-122.3592543000,91.00564423972901,30.46944,0.1,339.4882,1626295998435,,,,
Fix,GT,37.5279271000,-122.3593691000,91.24502383453728,30.429947,0.1,341.43988,1626295999435,,,,
Fix,GT,37.5281869000,-122.3594781000,91.50839114879182,30.381773,0.1,341.7884,1626296000435,,,,
Fix,GT,37.5284469000,-122.3595843000,91.92626250942453,30.28504,0.1,342.08536,1626296001435,,,,
Fix,GT,37.5287056000,-122.3596908000,92.43882975614724,30.15015,0.1,341.80753,1626296002435,,,,
Fix,GT,37.5289622000,-122.3597992000,93.17903854241672,29.948132,0.1,341.0619,1626296003435,,,,
Fix,GT,37.5292164000,-122.3599090000,94.06521533616251,29.738409,0.1,341.1871,1626296004435,,,,
Fix,GT,37.5294695000,-122.3600167000,95.00074719861868,29.547176,0.1,341.4935,1626296005435,,,,
Fix,GT,37.5297208000,-122.3601223000,95.87803868859487,29.300291,0.1,341.4911,1626296006435,,,,
Fix,GT,37.5299702000,-122.3602272000,96.70263197717304,29.091612,0.1,341.4656,1626296007435,,,,
Fix,GT,37.5302178000,-122.3603330000,97.5632526812376,28.967052,0.1,341.07227,1626296008435,,,,
Fix,GT,37.5304644000,-122.3604393000,98.50615308922715,28.896305,0.1,340.9761,1626296009435,,,,
Fix,GT,37.5307102000,-122.3605459000,99.35522618411142,28.84727,0.1,340.9137,1626296010435,,,,
Fix,GT,37.5309558000,-122.3606524000,100.1752676824126,28.814064,0.1,341.04184,1626296011435,,,,
Fix,GT,37.5312010000,-122.3607586000,101.08250615841803,28.767506,0.1,341.1903,1626296012435,,,,
Fix,GT,37.5314465000,-122.3608624000,101.94392463525287,28.708752,0.1,341.60275,1626296013435,,,,
Fix,GT,37.5316916000,-122.3609655000,102.7893374972482,28.674707,0.1,341.4746,1626296014435,,,,
Fix,GT,37.5319365000,-122.3610689000,103.65397353206527,28.684132,0.1,341.3709,1626296015435,,,,
Fix,GT,37.5321811000,-122.3611733000,104.51468489663512,28.651184,0.1,341.1776,1626296016435,,,,
Fix,GT,37.5324252000,-122.3612784000,105.37850686598722,28.62098,0.1,341.0741,1626296017435,,,,
Fix,GT,37.5326691000,-122.3613837000,106.1960786907307,28.638943,0.1,341.14944,1626296018435,,,,
Fix,GT,37.5329130000,-122.3614887000,107.12715862662208,28.610538,0.1,341.1331,1626296019435,,,,
Fix,GT,37.5331567000,-122.3615935000,108.08385753668631,28.567345,0.1,341.26675,1626296020435,,,,
Fix,GT,37.5334001000,-122.3616974000,109.14226146353121,28.482449,0.1,341.3629,1626296021435,,,,
Fix,GT,37.5336423000,-122.3618017000,110.2633153653237,28.38718,0.1,340.8476,1626296022435,,,,
Fix,GT,37.5338834000,-122.3619078000,111.35973280498456,28.294407,0.1,340.98294,1626296023435,,,,
Fix,GT,37.5341238000,-122.3620126000,112.48184602402443,28.195251,0.1,341.01346,1626296024435,,,,
Fix,GT,37.5343634000,-122.3621158000,113.60179559130165,28.03611,0.1,341.07687,1626296025435,,,,
Fix,GT,37.5346006000,-122.3622209000,114.73284552185487,27.804916,0.1,340.272,1626296026435,,,,
Fix,GT,37.5348338000,-122.3623284000,115.83473468285592,27.263584,0.1,339.58594,1626296027435,,,,
Fix,GT,37.5350608000,-122.3624367000,116.90903379707379,26.691105,0.1,339.20944,1626296028435,,,,
Fix,GT,37.5352832000,-122.3625441000,117.98603464608368,26.208204,0.1,338.89792,1626296029435,,,,
Fix,GT,37.5355006000,-122.3626538000,119.02468415318458,25.820251,0.1,337.3729,1626296030435,,,,
Fix,GT,37.5357137000,-122.3627683000,120.03462123156169,25.663155,0.1,336.62122,1626296031435,,,,
Fix,GT,37.5359252000,-122.3628856000,121.05262393960584,25.68956,0.1,335.89783,1626296032435,,,,
Fix,GT,37.5361360000,-122.3630059000,122.06592351355857,25.701174,0.1,335.71948,1626296033435,,,,
Fix,GT,37.5363467000,-122.3631266000,123.0922642760031,25.710136,0.1,335.3287,1626296034435,,,,
Fix,GT,37.5365566000,-122.3632500000,124.05444943225734,25.6857,0.099,334.93112,1626296035435,,,,
Fix,GT,37.5367640000,-122.3633717000,124.94233776474721,25.101494,0.1,335.10703,1626296036435,,,,
Fix,GT,37.5369663000,-122.3634912000,125.7986360127943,24.581314,0.1,334.63968,1626296037435,,,,
Fix,GT,37.5371650000,-122.3636099000,126.64874770464121,24.271004,0.1,334.63745,1626296038435,,,,
Fix,GT,37.5373620000,-122.3637274000,127.56786232562581,24.225815,0.1,334.67447,1626296039435,,,,
Fix,GT,37.5375604000,-122.3638452000,128.5375191824587,24.5083,0.1,334.68088,1626296040435,,,,
Fix,GT,37.5377613000,-122.3639651000,129.5219289855595,24.877281,0.1,334.62933,1626296041435,,,,
Fix,GT,37.5379652000,-122.3640870000,130.5306286540299,25.23439,0.1,334.54126,1626296042435,,,,
Fix,GT,37.5381718000,-122.3642109000,131.55098228040515,25.592804,0.1,334.6273,1626296043435,,,,
Fix,GT,37.5383813000,-122.3643365000,132.58368544703444,25.934237,0.1,334.45715,1626296044435,,,,
Fix,GT,37.5385935000,-122.3644638000,133.62739671221834,26.256556,0.1,334.68243,1626296045435,,,,
Fix,GT,37.5388085000,-122.3645919000,134.67838763240343,26.555052,0.1,334.64813,1626296046435,,,,
Fix,GT,37.5390258000,-122.3647216000,135.74844260193004,26.842075,0.1,334.65942,1626296047435,,,,
Fix,GT,37.5392454000,-122.3648521000,136.8614995552707,27.109936,0.1,334.68494,1626296048435,,,,
Fix,GT,37.5394672000,-122.3649845000,137.9291533056803,27.379454,0.1,334.5792,1626296049435,,,,
Fix,GT,37.5396907000,-122.3651189000,139.02844551991438,27.657269,0.1,334.3837,1626296050435,,,,
Fix,GT,37.5399165000,-122.3652551000,140.1332708828727,27.886963,0.1,334.53253,1626296051435,,,,
Fix,GT,37.5401440000,-122.3653910000,141.31408087596446,28.066929,0.1,334.5061,1626296052435,,,,
Fix,GT,37.5403728000,-122.3655289000,142.62725500707256,28.264923,0.1,334.40216,1626296053435,,,,
Fix,GT,37.5406030000,-122.3656682000,143.9756643300534,28.4571,0.1,334.4501,1626296054435,,,,
Fix,GT,37.5408346000,-122.3658089000,145.26161782703502,28.672235,0.099,333.95334,1626296055435,,,,
Fix,GT,37.5410663000,-122.3659551000,146.40955562830277,28.86446,0.1,332.90622,1626296056435,,,,
Fix,GT,37.5412968000,-122.3661068000,147.55755614919417,28.899624,0.1,331.93158,1626296057435,,,,
Fix,GT,37.5415254000,-122.3662640000,148.70226275164214,28.981133,0.1,330.81763,1626296058435,,,,
Fix,GT,37.5417523000,-122.3664271000,149.84990750685938,29.060785,0.1,329.7356,1626296059435,,,,
Fix,GT,37.5419774000,-122.3665966000,150.94267890130004,29.21716,0.1,328.4845,1626296060435,,,,
Fix,GT,37.5422009000,-122.3667720000,151.9284547620896,29.220482,0.1,327.63623,1626296061435,,,,
Fix,GT,37.5424214000,-122.3669512000,152.80764692354114,29.157742,0.1,326.62354,1626296062435,,,,
Fix,GT,37.5426399000,-122.3671361000,153.57871423202596,29.330101,0.1,325.60452,1626296063435,,,,
Fix,GT,37.5428574000,-122.3673265000,154.25924146672332,29.52961,0.1,324.73553,1626296064435,,,,
Fix,GT,37.5430738000,-122.3675228000,154.83972548357542,29.696465,0.1,323.68948,1626296065435,,,,
Fix,GT,37.5432874000,-122.3677237000,155.28843257867084,29.52037,0.1,322.7698,1626296066435,,,,
Fix,GT,37.5434970000,-122.3679278000,155.51092914607898,29.394508,0.1,321.75797,1626296067435,,,,
Fix,GT,37.5437035000,-122.3681352000,155.5475873455489,29.221842,0.1,321.16663,1626296068435,,,,
Fix,GT,37.5439063000,-122.3683427000,155.53211039643156,28.875916,0.1,320.53595,1626296069435,,,,
Fix,GT,37.5441056000,-122.3685491000,155.64669001717448,28.47061,0.1,320.60352,1626296070435,,,,
Fix,GT,37.5443027000,-122.3687533000,155.8086409022435,28.272758,0.1,320.46912,1626296071435,,,,
Fix,GT,37.5444989000,-122.3689565000,155.95657898003037,28.153696,0.1,320.56064,1626296072435,,,,
Fix,GT,37.5446936000,-122.3691577000,156.14357574732412,27.819313,0.1,320.73077,1626296073435,,,,
Fix,GT,37.5448866000,-122.3693555000,156.31698585386766,27.450914,0.1,320.6911,1626296074435,,,,
Fix,GT,37.5450766000,-122.3695511000,156.46044930959306,27.093863,0.1,320.90494,1626296075435,,,,
Fix,GT,37.5452665000,-122.3697404000,156.62933236561685,26.735092,0.1,322.39532,1626296076435,,,,
Fix,GT,37.5454582000,-122.3699204000,156.7479193775639,26.385857,0.099,324.06998,1626296077435,,,,
Fix,GT,37.5456506000,-122.3700923000,156.92406168353727,26.013256,0.1,325.26978,1626296078435,,,,
Fix,GT,37.5458425000,-122.3702577000,157.07692449990827,25.64851,0.1,325.83698,1626296079435,,,,
Fix,GT,37.5460318000,-122.3704201000,157.4007398675767,25.196724,0.1,325.61026,1626296080435,,,,
Fix,GT,37.5462174000,-122.3705794000,157.80579504321213,24.73774,0.1,325.8568,1626296081435,,,,
Fix,GT,37.5464000000,-122.3707353000,158.25663426189794,24.294687,0.1,326.0015,1626296082435,,,,
Fix,GT,37.5465800000,-122.3708883000,158.44122025034812,23.963745,0.1,325.72958,1626296083435,,,,
Fix,GT,37.5467566000,-122.3710417000,158.42254045766913,23.716349,0.1,325.24197,1626296084435,,,,
Fix,GT,37.5469309000,-122.3711937000,158.23271757391922,23.228516,0.1,325.35654,1626296085435,,,,
Fix,GT,37.5470971000,-122.3713381000,158.05748798808418,21.489061,0.1,325.52808,1626296086435,,,,
Fix,GT,37.5472480000,-122.3714689000,157.86306190788127,19.232916,0.1,325.5476,1626296087435,,,,
Fix,GT,37.5473806000,-122.3715829000,157.70847471741263,16.372543,0.099,325.86575,1626296088435,,,,
Fix,GT,37.5474918000,-122.3716772000,157.59094580946294,13.348066,0.1,326.05518,1626296089435,,,,
Fix,GT,37.5475793000,-122.3717515000,157.4535878004508,9.952133,0.1,325.7044,1626296090435,,,,
Fix,GT,37.5476380000,-122.3718026000,157.51363271233413,5.9681787,0.1,325.28168,1626296091435,,,,
Fix,GT,37.5476692000,-122.3718299000,157.59816625055737,2.5948827,0.1,325.29532,1626296092435,,,,
Fix,GT,37.5476792000,-122.3718386000,157.60899817396603,0.50625753,0.099,325.297,1626296093435,,,,
Fix,GT,37.5476843000,-122.3718433000,157.60706036111878,1.1752298,0.1,324.77667,1626296094435,,,,
Fix,GT,37.5476996000,-122.3718607000,157.6529327462631,3.5637298,0.1,319.658,1626296095435,,,,
Fix,GT,37.5477209000,-122.3719044000,157.7690534153635,5.232431,0.1,299.3881,1626296096435,,,,
Fix,GT,37.5477216000,-122.3719671000,157.87517431220203,6.1137705,0.1,265.543,1626296097435,,,,
Fix,GT,37.5476926000,-122.3720333000,157.903056207208,7.4189835,0.1,236.45627,1626296098435,,,,
Fix,GT,37.5476441000,-122.3721046000,157.89375991316683,9.299909,0.1,229.40929,1626296099435,,,,
Fix,GT,37.5475837000,-122.3721929000,157.93494051698644,11.215446,0.1,229.4814,1626296100435,,,,
Fix,GT,37.5475147000,-122.3722951000,158.01581618363707,12.256942,0.1,229.88176,1626296101435,,,,
Fix,GT,37.5474439000,-122.3724006000,158.0738764247435,12.069164,0.1,230.05438,1626296102435,,,,
Fix,GT,37.5473744000,-122.3725035000,158.15163274916677,11.784617,0.1,229.57162,1626296103435,,,,
Fix,GT,37.5473066000,-122.3726023000,158.2463462144883,11.141974,0.1,229.4061,1626296104435,,,,
Fix,GT,37.5472460000,-122.3726915000,158.37033442069423,9.485495,0.1,229.6485,1626296105435,,,,
Fix,GT,37.5471957000,-122.3727649000,158.55481288741703,7.6558285,0.1,229.20078,1626296106435,,,,
Fix,GT,37.5471488000,-122.3728190000,158.73609568163556,6.799878,0.1,218.41696,1626296107435,,,,
Fix,GT,37.5470927000,-122.3728468000,158.93628709985842,6.940409,0.1,197.34595,1626296108435,,,,
Fix,GT,37.5470257000,-122.3728468000,159.0184299712255,8.265773,0.1,174.44365,1626296109435,,,,
Fix,GT,37.5469516000,-122.3728085000,158.92582458846618,9.576671,0.1,152.36528,1626296110435,,,,
Fix,GT,37.5468756000,-122.3727397000,159.04134915913437,11.3643265,0.1,140.6352,1626296111435,,,,
Fix,GT,37.5467930000,-122.3726473000,159.10893180129824,13.238741,0.1,138.14,1626296112435,,,,
Fix,GT,37.5466975000,-122.3725393000,159.22092657027406,15.269157,0.1,138.06418,1626296113435,,,,
Fix,GT,37.5465889000,-122.3724157000,159.2874693949566,17.252945,0.1,137.76796,1626296114435,,,,
Fix,GT,37.5464672000,-122.3722777000,159.3636384237684,19.109951,0.1,138.03304,1626296115435,,,,
Fix,GT,37.5463335000,-122.3721262000,159.4578743750776,20.79292,0.1,137.90814,1626296116435,,,,
Fix,GT,37.5461889000,-122.3719624000,159.48948008638718,22.401663,0.1,137.98132,1626296117435,,,,
Fix,GT,37.5460333000,-122.3717859000,159.32930666533866,24.155487,0.1,137.89929,1626296118435,,,,
Fix,GT,37.5458662000,-122.3715963000,158.93956737007375,25.74514,0.1,138.17072,1626296119435,,,,
Fix,GT,37.5456875000,-122.3713995000,158.31004940736602,27.053526,0.1,139.56813,1626296120435,,,,
Fix,GT,37.5454951000,-122.3712001000,157.5041676527162,28.313734,0.1,141.43765,1626296121435,,,,
Fix,GT,37.5452908000,-122.3709976000,156.66757833226438,29.476393,0.1,142.1055,1626296122435,,,,
Fix,GT,37.5450779000,-122.3707882000,155.78600028657092,30.377691,0.1,141.9593,1626296123435,,,,
Fix,GT,37.5448618000,-122.3705738000,154.94306029853715,30.68533,0.1,141.5501,1626296124435,,,,
Fix,GT,37.5446453000,-122.3703587000,154.06175115911628,30.56262,0.1,141.8199,1626296125435,,,,
Fix,GT,37.5444297000,-122.3701448000,153.1799362816173,30.475006,0.1,141.99564,1626296126435,,,,
Fix,GT,37.5442122000,-122.3699328000,152.35682490788167,30.689728,0.1,142.42421,1626296127435,,,,
Fix,GT,37.5439922000,-122.3697196000,151.5545914167933,31.002949,0.1,142.50183,1626296128435,,,,
Fix,GT,37.5437691000,-122.3695062000,150.84345035898605,31.217884,0.1,143.0787,1626296129435,,,,
Fix,GT,37.5435435000,-122.3692938000,150.21028030042817,31.338974,0.1,143.17207,1626296130435,,,,
Fix,GT,37.5433171000,-122.3690816000,149.60691885276538,31.3806,0.1,143.51848,1626296131435,,,,
Fix,GT,37.5430896000,-122.3688699000,149.01156826888746,31.488129,0.1,143.53854,1626296132435,,,,
Fix,GT,37.5428610000,-122.3686579000,148.40121292028653,31.564339,0.1,143.70526,1626296133435,,,,
Fix,GT,37.5426313000,-122.3684469000,147.8131637479455,31.63954,0.1,144.24384,1626296134435,,,,
Fix,GT,37.5423990000,-122.3682381000,147.19928303243205,31.759647,0.1,144.91106,1626296135435,,,,
Fix,GT,37.5421635000,-122.3680327000,146.58922078717978,31.878265,0.1,145.70488,1626296136435,,,,
Fix,GT,37.5419248000,-122.3678306000,145.96792646452013,32.015427,0.1,146.48471,1626296137435,,,,
Fix,GT,37.5416834000,-122.3676314000,145.35192809538785,32.111233,0.1,147.13293,1626296138435,,,,
Fix,GT,37.5414396000,-122.3674354000,144.7422778650307,32.14141,0.1,147.804,1626296139435,,,,
Fix,GT,37.5411936000,-122.3672429000,144.1272249383951,32.206757,0.1,148.74495,1626296140435,,,,
Fix,GT,37.5409439000,-122.3670556000,143.5109214098079,32.3843,0.1,149.671,1626296141435,,,,
Fix,GT,37.5406906000,-122.3668707000,142.90957302820243,32.649395,0.1,150.23051,1626296142435,,,,
Fix,GT,37.5404337000,-122.3666878000,142.2792145407334,32.87857,0.1,150.94464,1626296143435,,,,
Fix,GT,37.5401735000,-122.3665087000,141.60964514275884,32.961327,0.1,151.61768,1626296144435,,,,
Fix,GT,37.5399119000,-122.3663312000,140.84558279285147,33.03187,0.1,151.71432,1626296145435,,,,
Fix,GT,37.5396505000,-122.3661544000,139.98094973885281,32.85158,0.1,151.79251,1626296146435,,,,
Fix,GT,37.5393909000,-122.3659784000,139.00612911172357,32.642876,0.1,151.68771,1626296147435,,,,
Fix,GT,37.5391333000,-122.3658029000,137.9278465109237,32.412865,0.1,151.65218,1626296148435,,,,
Fix,GT,37.5388767000,-122.3656298000,136.73281727610447,32.258305,0.1,151.93575,1626296149435,,,,
Fix,GT,37.5386209000,-122.3654576000,135.53072583625544,32.141186,0.1,151.77951,1626296150435,,,,
Fix,GT,37.5383667000,-122.3652850000,134.24550535262097,32.02218,0.1,151.75188,1626296151435,,,,
Fix,GT,37.5381132000,-122.3651132000,132.92796638023447,31.91731,0.1,151.71185,1626296152435,,,,
Fix,GT,37.5378607000,-122.3649414000,131.64478722759895,31.806503,0.1,151.60475,1626296153435,,,,
Fix,GT,37.5376089000,-122.3647707000,130.36450466939414,31.796888,0.1,151.81055,1626296154435,,,,
Fix,GT,37.5373557000,-122.3645999000,129.09126226395165,32.011536,0.1,151.7291,1626296155435,,,,
Fix,GT,37.5371011000,-122.3644266000,127.81844163206188,32.2713,0.1,151.56723,1626296156435,,,,
Fix,GT,37.5368444000,-122.3642518000,126.51215025103852,32.50327,0.1,151.63426,1626296157435,,,,
Fix,GT,37.5365863000,-122.3640777000,125.21614389730485,32.519066,0.1,152.01305,1626296158435,,,,
Fix,GT,37.5363282000,-122.3639043000,123.91102191299342,32.440643,0.1,151.70004,1626296159435,,,,
Fix,GT,37.5360714000,-122.3637302000,122.61725451496113,32.35006,0.1,151.71082,1626296160435,,,,
Fix,GT,37.5358153000,-122.3635563000,121.31926255598046,32.292595,0.1,151.58054,1626296161435,,,,
Fix,GT,37.5355595000,-122.3633825000,120.04172218053054,32.268612,0.1,151.77188,1626296162435,,,,
Fix,GT,37.5353035000,-122.3632097000,118.75836676065751,32.2444,0.1,151.85612,1626296163435,,,,
Fix,GT,37.5350477000,-122.3630369000,117.46255817389306,32.232292,0.1,151.78168,1626296164435,,,,
Fix,GT,37.5347909000,-122.3628665000,116.10431772014135,32.226242,0.1,152.64748,1626296165435,,,,
Fix,GT,37.5345320000,-122.3627019000,114.80190355856757,32.178055,0.1,153.9241,1626296166435,,,,
Fix,GT,37.5342706000,-122.3625454000,113.50596598161201,32.118504,0.1,155.3401,1626296167435,,,,
Fix,GT,37.5340065000,-122.3623975000,112.21390608300408,32.045258,0.1,156.6816,1626296168435,,,,
Fix,GT,37.5337409000,-122.3622562000,110.94837262068904,31.992002,0.1,157.54462,1626296169435,,,,
Fix,GT,37.5334735000,-122.3621220000,109.77959893292473,31.912151,0.1,158.92593,1626296170435,,,,
Fix,GT,37.5332045000,-122.3619957000,108.68671755678974,31.823776,0.1,160.34856,1626296171435,,,,
Fix,GT,37.5329342000,-122.3618778000,107.73434950918545,31.689648,0.1,161.44272,1626296172435,,,,
Fix,GT,37.5326639000,-122.3617644000,106.79793613552829,31.57505,0.1,161.53984,1626296173435,,,,
Fix,GT,37.5323947000,-122.3616512000,105.83782368405309,31.459639,0.1,161.46512,1626296174435,,,,
Fix,GT,37.5321266000,-122.3615376000,104.86670349727683,31.355848,0.1,161.35123,1626296175435,,,,
Fix,GT,37.5318600000,-122.3614231000,103.94370425080524,31.18491,0.1,161.11923,1626296176435,,,,
Fix,GT,37.5315950000,-122.3613089000,102.9844778512138,30.982124,0.1,161.23538,1626296177435,,,,
Fix,GT,37.5313318000,-122.3611963000,102.0988129229188,30.746666,0.1,161.23589,1626296178435,,,,
Fix,GT,37.5310706000,-122.3610842000,101.18846025777748,30.544525,0.1,161.19485,1626296179435,,,,
Fix,GT,37.5308107000,-122.3609733000,100.2168811118388,30.387333,0.1,161.43816,1626296180435,,,,
Fix,GT,37.5305522000,-122.3608630000,99.34664431855072,30.187565,0.1,161.2077,1626296181435,,,,
Fix,GT,37.5302961000,-122.3607525000,98.44540759449615,29.940948,0.1,161.14955,1626296182435,,,,
Fix,GT,37.5300427000,-122.3606441000,97.47502377313526,29.374388,0.1,161.52583,1626296183435,,,,
Fix,GT,37.5297947000,-122.3605407000,96.64263266611852,28.627972,0.1,161.55794,1626296184435,,,,
Fix,GT,37.5295539000,-122.3604378000,95.83663291025914,27.857592,0.1,161.14804,1626296185435,,,,
Fix,GT,37.5293188000,-122.3603372000,95.01315898440339,27.297771,0.1,161.31744,1626296186435,,,,
Fix,GT,37.5290880000,-122.3602377000,94.18051355802527,26.915287,0.1,161.16238,1626296187435,,,,
Fix,GT,37.5288597000,-122.3601391000,93.39823258011711,26.670662,0.1,161.15446,1626296188435,,,,
Fix,GT,37.5286327000,-122.3600424000,92.69297355240542,26.555073,0.1,161.56538,1626296189435,,,,
Fix,GT,37.5284062000,-122.3599484000,92.16549082608253,26.400646,0.1,161.99509,1626296190435,,,,
Fix,GT,37.5281799000,-122.3598589000,91.76837649435197,26.276958,0.1,163.16864,1626296191435,,,,
Fix,GT,37.5279530000,-122.3597753000,91.536705554342,26.170816,0.1,164.21092,1626296192435,,,,
Fix,GT,37.5277264000,-122.3596970000,91.67743026398443,25.98619,0.1,164.97536,1626296193435,,,,
Fix,GT,37.5275013000,-122.3596209000,92.10983167198629,25.756989,0.1,165.11096,1626296194435,,,,
Fix,GT,37.5272783000,-122.3595436000,92.58160513465509,25.600079,0.1,164.22388,1626296195435,,,,
Fix,GT,37.5270578000,-122.3594617000,92.94625365206707,25.406862,0.1,163.26614,1626296196435,,,,
Fix,GT,37.5268411000,-122.3593769000,93.37995579141602,24.946669,0.1,162.49925,1626296197435,,,,
Fix,GT,37.5266297000,-122.3592905000,93.83278382543358,24.373505,0.1,161.59274,1626296198435,,,,
Fix,GT,37.5264265000,-122.3591988000,94.25773019381086,23.507328,0.1,158.98282,1626296199435,,,,
Fix,GT,37.5262361000,-122.3591012000,94.50108983665245,22.105452,0.1,156.76169,1626296200435,,,,
Fix,GT,37.5260594000,-122.3590039000,94.6493339558292,20.721725,0.1,156.20456,1626296201435,,,,
Fix,GT,37.5258948000,-122.3589121000,94.79799324337728,19.213585,0.1,156.07228,1626296202435,,,,
Fix,GT,37.5257460000,-122.3588306000,94.78469739378852,16.754456,0.1,156.71877,1626296203435,,,,
Fix,GT,37.5256180000,-122.3587593000,94.76569751404168,14.385652,0.1,156.03847,1626296204435,,,,
Fix,GT,37.5255087000,-122.3586990000,94.67947224536329,12.090904,0.1,156.47523,1626296205435,,,,
Fix,GT,37.5254181000,-122.3586494000,94.56741336289997,9.841872,0.1,156.19168,1626296206435,,,,
Fix,GT,37.5253462000,-122.3586095000,94.49100329387511,7.588644,0.1,156.23868,1626296207435,,,,
Fix,GT,37.5252930000,-122.3585807000,94.3769362530038,5.2329025,0.1,156.62045,1626296208435,,,,
Fix,GT,37.5252560000,-122.3585601000,94.34829178078007,4.005307,0.1,156.05794,1626296209435,,,,
Fix,GT,37.5252243000,-122.3585412000,94.3070421723412,3.7902255,0.1,154.5821,1626296210435,,,,
Fix,GT,37.5251938000,-122.3585232000,94.25517047285939,3.6925766,0.1,154.65036,1626296211435,,,,
Fix,GT,37.5251633000,-122.3585052000,94.21658323273641,3.867435,0.1,154.64977,1626296212435,,,,
Fix,GT,37.5251315000,-122.3584867000,94.21064333262643,3.6704655,0.1,155.12758,1626296213435,,,,
Fix,GT,37.5251085000,-122.3584738000,94.14646103391715,1.9913785,0.1,155.75806,1626296214435,,,,
Fix,GT,37.5250947000,-122.3584661000,94.10880545454211,1.7971528,0.1,155.7897,1626296215435,,,,
Fix,GT,37.5250754000,-122.3584547000,94.07669440676,3.1298933,0.1,153.97289,1626296216435,,,,
Fix,GT,37.5250455000,-122.3584296000,94.02476333456525,4.923874,0.1,145.89482,1626296217435,,,,
Fix,GT,37.5250075000,-122.3583853000,93.93193655674804,6.5782037,0.1,135.23871,1626296218435,,,,
Fix,GT,37.5249670000,-122.3583209000,93.89162608537299,7.963007,0.1,126.731476,1626296219435,,,,
Fix,GT,37.5249248000,-122.3582411000,94.00497709270167,9.074713,0.1,122.65489,1626296220435,,,,
Fix,GT,37.5248788000,-122.3581484000,94.41330776299947,10.181317,0.1,121.917435,1626296221435,,,,
Fix,GT,37.5248269000,-122.3580467000,95.05535617248825,11.263652,0.1,123.40759,1626296222435,,,,
Fix,GT,37.5247650000,-122.3579380000,95.71946320938378,12.279958,0.1,126.70819,1626296223435,,,,
Fix,GT,37.5246923000,-122.3578266000,96.41170339563723,13.102234,0.1,130.33153,1626296224435,,,,
Fix,GT,37.5246122000,-122.3577143000,97.10247296898069,13.377716,0.1,132.98404,1626296225435,,,,
Fix,GT,37.5245278000,-122.3576094000,97.63383085742703,12.852667,0.1,136.7631,1626296226435,,,,
Fix,GT,37.5244411000,-122.3575189000,98.35659264713127,12.326604,0.1,142.39949,1626296227435,,,,
Fix,GT,37.5243478000,-122.3574408000,99.10974590745309,12.679178,0.1,148.53317,1626296228435,,,,
Fix,GT,37.5242443000,-122.3573724000,100.00604496499363,13.245556,0.1,154.43507,1626296229435,,,,
Fix,GT,37.5241335000,-122.3573172000,100.84681999860345,13.145611,0.1,160.70433,1626296230435,,,,
Fix,GT,37.5240223000,-122.3572753000,101.73692672427183,12.51837,0.1,164.40877,1626296231435,,,,
Fix,GT,37.5239172000,-122.3572394000,102.51792987300632,11.648727,0.1,164.78421,1626296232435,,,,
Fix,GT,37.5238200000,-122.3572003000,103.281354080842,11.2279,0.1,161.33841,1626296233435,,,,
Fix,GT,37.5237228000,-122.3571593000,103.98535646121309,11.585016,0.1,162.1616,1626296234435,,,,
Fix,GT,37.5236208000,-122.3571214000,104.63317842978199,11.895033,0.099,164.27647,1626296235435,,,,
Fix,GT,37.5235190000,-122.3570879000,105.13119367242712,11.422956,0.099,165.84123,1626296236435,,,,
Fix,GT,37.5234218000,-122.3570576000,105.5677309851012,10.78916,0.1,166.1965,1626296237435,,,,
Fix,GT,37.5233331000,-122.3570303000,105.82449901864425,9.259669,0.099,166.21617,1626296238435,,,,
Fix,GT,37.5232625000,-122.3570080000,105.94315948079657,6.7371435,0.099,165.90938,1626296239435,,,,
Fix,GT,37.5232161000,-122.3569930000,105.98639788441369,3.89678,0.1,165.62605,1626296240435,,,,
Fix,GT,37.5231927000,-122.3569853000,105.98134394064527,1.7423922,0.1,165.43329,1626296241435,,,,
Fix,GT,37.5231840000,-122.3569825000,105.9730453491211,0.3549179,0.1,165.36157,1626296242435,,,,
Fix,GT,37.5231835000,-122.3569824000,105.96704864501953,0.004644648,0.1,165.35948,1626296243435,,,,
Fix,GT,37.5231835000,-122.3569824000,105.96704548695539,0.0019465776,0.099,165.35818,1626296244435,,,,
Fix,GT,37.5231835000,-122.3569824000,105.96805125379706,0.010402524,0.1,165.35732,1626296245435,,,,
Fix,GT,37.5231806000,-122.3569814000,105.9610550988034,0.7186406,0.1,165.33401,1626296246435,,,,
Fix,GT,37.5231713000,-122.3569783000,105.95704966655512,1.3726192,0.1,165.24062,1626296247435,,,,
Fix,GT,37.5231565000,-122.3569727000,105.94404917788643,2.1926236,0.1,163.88109,1626296248435,,,,
Fix,GT,37.5231341000,-122.3569581000,105.93234528134462,3.4814098,0.1,154.22923,1626296249435,,,,
Fix,GT,37.5231088000,-122.3569230000,105.90598910128597,4.9145813,0.1,131.84172,1626296250435,,,,
Fix,GT,37.5230910000,-122.3568625000,105.81182356799945,6.511293,0.1,107.01063,1626296251435,,,,
Fix,GT,37.5230865000,-122.3567820000,105.87556137072215,7.719485,0.1,92.39232,1626296252435,,,,
Fix,GT,37.5230869000,-122.3566911000,106.32288864520388,8.377994,0.1,89.40269,1626296253435,,,,
Fix,GT,37.5230887000,-122.3565922000,107.10298840466476,9.05098,0.099,88.8481,1626296254435,,,,
Fix,GT,37.5230908000,-122.3564860000,108.0521024728464,9.80221,0.1,88.87985,1626296255435,,,,
Fix,GT,37.5230922000,-122.3563707000,108.9647949753371,10.500679,0.1,89.318565,1626296256435,,,,
Fix,GT,37.5230945000,-122.3562480000,109.99344553036804,11.197226,0.1,88.768906,1626296257435,,,,
Fix,GT,37.5230970000,-122.3561180000,111.10561184161543,11.770754,0.1,88.793205,1626296258435,,,,
Fix,GT,37.5230992000,-122.3559875000,112.23909214278319,11.134459,0.1,88.98601,1626296259435,,,,
Fix,GT,37.5231013000,-122.3558670000,113.25750943290086,10.14341,0.1,88.82978,1626296260435,,,,
Fix,GT,37.5231030000,-122.3557584000,114.13951750410752,9.042346,0.1,88.98262,1626296261435,,,,
Fix,GT,37.5231048000,-122.3556635000,114.81877805237514,7.7181997,0.1,88.68736,1626296262435,,,,
Fix,GT,37.5231070000,-122.3555832000,115.31519824929364,6.558875,0.1,87.91819,1626296263435,,,,
Fix,GT,37.5231127000,-122.3555145000,115.69662057901542,5.677773,0.1,82.41356,1626296264435,,,,
Fix,GT,37.5231295000,-122.3554570000,115.97039324125194,5.5682464,0.1,66.71342,1626296265435,,,,
Fix,GT,37.5231647000,-122.3554071000,116.13944518635981,6.342332,0.1,45.17522,1626296266435,,,,
Fix,GT,37.5232195000,-122.3553732000,116.21168246047819,7.3259497,0.1,21.113352,1626296267435,,,,
Fix,GT,37.5232865000,-122.3553709000,116.00619542075583,7.7405734,0.1,354.8908,1626296268435,,,,
Fix,GT,37.5233568000,-122.3554058000,115.43115181519534,9.341733,0.1,333.9955,1626296269435,,,,
Fix,GT,37.5234344000,-122.3554720000,114.57006453087524,11.636553,0.1,322.793,1626296270435,,,,
Fix,GT,37.5235223000,-122.3555659000,113.42195936090684,14.010887,0.1,318.8675,1626296271435,,,,
Fix,GT,37.5236250000,-122.3556800000,112.1052534187204,16.438864,0.1,318.28754,1626296272435,,,,
Fix,GT,37.5237424000,-122.3558124000,110.8428344333854,18.513643,0.1,318.22348,1626296273435,,,,
Fix,GT,37.5238738000,-122.3559593000,109.63231060298858,20.477137,0.1,318.6988,1626296274435,,,,
Fix,GT,37.5240195000,-122.3561189000,108.33736915595819,22.36625,0.1,318.99115,1626296275435,,,,
Fix,GT,37.5241765000,-122.3562914000,106.90425448743258,23.94688,0.1,318.86655,1626296276435,,,,
Fix,GT,37.5243428000,-122.3564749000,105.61842729563068,25.143925,0.1,318.93686,1626296277435,,,,
Fix,GT,37.5245161000,-122.3566650000,104.55386638252162,25.885086,0.1,319.4691,1626296278435,,,,
Fix,GT,37.5246976000,-122.3568547000,103.81385968875111,26.582003,0.1,320.78595,1626296279435,,,,
Fix,GT,37.5248880000,-122.3570456000,103.0124041002307,27.530132,0.1,322.30887,1626296280435,,,,
Fix,GT,37.5250880000,-122.3572378000,102.14921702277593,28.17276,0.1,322.9367,1626296281435,,,,
Fix,GT,37.5252891000,-122.3574323000,101.15929082788261,28.196358,0.1,321.35312,1626296282435,,,,
Fix,GT,37.5254867000,-122.3576327000,100.14388300497171,28.192808,0.1,320.79095,1626296283435,,,,
Fix,GT,37.5256824000,-122.3578358000,99.0038381320337,28.155094,0.1,320.13416,1626296284435,,,,
Fix,GT,37.5258770000,-122.3580396000,97.92059433016402,28.127003,0.1,320.72946,1626296285435,,,,
Fix,GT,37.5260781000,-122.3582367000,96.79724591992749,28.571815,0.1,323.4462,1626296286435,,,,
Fix,GT,37.5262913000,-122.3584251000,95.59848233764933,29.328604,0.1,326.34985,1626296287435,,,,
Fix,GT,37.5265177000,-122.3586050000,94.38548207643089,30.167465,0.1,328.92398,1626296288435,,,,
Fix,GT,37.5267565000,-122.3587775000,93.29347554991068,30.936974,0.1,331.35934,1626296289435,,,,
Fix,GT,37.5270066000,-122.3589401000,92.39692850935717,31.570011,0.1,333.85312,1626296290435,,,,
Fix,GT,37.5272665000,-122.3590927000,91.7407313452859,32.09218,0.1,336.3383,1626296291435,,,,
Fix,GT,37.5275358000,-122.3592322000,91.32083235976825,32.573116,0.1,338.91574,1626296292435,,,,
Fix,GT,37.5278130000,-122.3593603000,91.28420314577602,32.96738,0.1,340.73376,1626296293435,,,,
Fix,GT,37.5280955000,-122.3594815000,91.565376848077,33.28062,0.1,341.3304,1626296294435,,,,
Fix,GT,37.5283809000,-122.3596023000,91.9291104501317,33.58762,0.1,341.6003,1626296295435,,,,
Fix,GT,37.5286686000,-122.3597232000,92.5044104442627,33.736794,0.1,341.56442,1626296296435,,,,
Fix,GT,37.5289571000,-122.3598451000,93.31127019421228,33.814217,0.1,341.38202,1626296297435,,,,
Fix,GT,37.5292455000,-122.3599675000,94.33014480034672,33.70843,0.1,341.44745,1626296298435,,,,
Fix,GT,37.5295326000,-122.3600889000,95.37257023770462,33.52605,0.1,341.3839,1626296299435,,,,
Fix,GT,37.5298180000,-122.3602097000,96.3440342852,33.29998,0.1,341.51868,1626296300435,,,,
Fix,GT,37.5300997000,-122.3603286000,97.23551886524615,32.651226,0.1,341.2081,1626296301435,,,,
Fix,GT,37.5303746000,-122.3604468000,98.33568404192647,31.883446,0.1,341.1858,1626296302435,,,,
Fix,GT,37.5306437000,-122.3605612000,99.27974996061084,31.177618,0.1,341.3701,1626296303435,,,,
Fix,GT,37.5309076000,-122.3606730000,100.11784860555304,30.668995,0.1,341.36182,1626296304435,,,,
Fix,GT,37.5311679000,-122.3607842000,101.10004504261587,30.400393,0.1,341.11243,1626296305435,,,,
Fix,GT,37.5314260000,-122.3608960000,102.01728274915513,30.175585,0.1,341.04303,1626296306435,,,,
Fix,GT,37.5316822000,-122.3610060000,102.9006928409367,29.91215,0.1,341.3646,1626296307435,,,,
Fix,GT,37.5319351000,-122.3611126000,103.79721686467019,29.282948,0.1,341.6362,1626296308435,,,,
Fix,GT,37.5321829000,-122.3612156000,104.66069501346556,28.678444,0.1,341.5692,1626296309435,,,,
Fix,GT,37.5324257000,-122.3613195000,105.521808481481,28.303928,0.1,341.18326,1626296310435,,,,
Fix,GT,37.5326658000,-122.3614235000,106.3168925305688,28.070442,0.1,340.8952,1626296311435,,,,
Fix,GT,37.5329035000,-122.3615269000,107.2157520674591,27.792498,0.1,341.04144,1626296312435,,,,
Fix,GT,37.5331390000,-122.3616291000,108.12721570452413,27.515846,0.1,340.75275,1626296313435,,,,
Fix,GT,37.5333725000,-122.3617313000,109.1056239832892,27.398495,0.1,341.31436,1626296314435,,,,
Fix,GT,37.5336058000,-122.3618312000,110.139330180451,27.29699,0.1,341.18018,1626296315435,,,,
Fix,GT,37.5338377000,-122.3619326000,111.1853839023745,27.232094,0.1,340.97125,1626296316435,,,,
Fix,GT,37.5340701000,-122.3620329000,112.26479502671668,27.31464,0.1,341.34927,1626296317435,,,,
Fix,GT,37.5343039000,-122.3621328000,113.36938537645983,27.535158,0.1,341.087,1626296318435,,,,
Fix,GT,37.5345389000,-122.3622365000,114.47649765013989,27.742306,0.099,340.41815,1626296319435,,,,
Fix,GT,37.5347745000,-122.3623445000,115.5948459104361,27.931328,0.099,339.53378,1626296320435,,,,
Fix,GT,37.5350101000,-122.3624581000,116.71878974985862,28.082901,0.1,338.75024,1626296321435,,,,
Fix,GT,37.5352457000,-122.3625753000,117.85490473724735,28.14716,0.1,338.171,1626296322435,,,,
Fix,GT,37.5354805000,-122.3626957000,118.97585377193172,28.231422,0.1,337.6504,1626296323435,,,,
Fix,GT,37.5357163000,-122.3628203000,120.09891160304687,28.586336,0.1,336.86652,1626296324435,,,,
Fix,GT,37.5359541000,-122.3629499000,121.2415006205083,28.951548,0.1,336.41232,1626296325435,,,,
Fix,GT,37.5361935000,-122.3630847000,122.40225653656603,29.237831,0.1,335.5433,1626296326435,,,,
Fix,GT,37.5364324000,-122.3632236000,123.55914573664518,29.169937,0.1,335.06808,1626296327435,,,,
Fix,GT,37.5366700000,-122.3633635000,124.62568634842569,29.104465,0.1,334.8386,1626296328435,,,,
Fix,GT,37.5369068000,-122.3635046000,125.67262197010268,29.065056,0.1,334.5492,1626296329435,,,,
Fix,GT,37.5371431000,-122.3636453000,126.70714451549657,29.002987,0.1,334.784,1626296330435,,,,
Fix,GT,37.5373792000,-122.3637853000,127.8292067199518,28.945255,0.1,334.79868,1626296331435,,,,
Fix,GT,37.5376149000,-122.3639250000,128.9756246601337,28.909695,0.1,334.6274,1626296332435,,,,
Fix,GT,37.5378500000,-122.3640656000,130.14086384685652,28.884384,0.1,334.6238,1626296333435,,,,
Fix,GT,37.5380848000,-122.3642055000,131.28962614371994,28.825737,0.1,334.7074,1626296334435,,,,
Fix,GT,37.5383199000,-122.3643456000,132.44827734939145,28.921665,0.1,334.61243,1626296335435,,,,
Fix,GT,37.5385555000,-122.3644864000,133.5999114962251,28.99723,0.1,334.64783,1626296336435,,,,
Fix,GT,37.5387918000,-122.3646272000,134.75920706899024,29.034754,0.1,334.6973,1626296337435,,,,
Fix,GT,37.5390280000,-122.3647676000,135.91962131144828,28.94677,0.1,334.7485,1626296338435,,,,
Fix,GT,37.5392629000,-122.3649071000,137.09845161457815,28.735924,0.1,334.63812,1626296339435,,,,
Fix,GT,37.5394955000,-122.3650475000,138.2268587841936,28.539616,0.1,334.17688,1626296340435,,,,
Fix,GT,37.5397265000,-122.3651873000,139.36279875380114,28.379011,0.1,334.47955,1626296341435,,,,
Fix,GT,37.5399563000,-122.3653260000,140.501683892453,28.233568,0.1,334.42978,1626296342435,,,,
Fix,GT,37.5401857000,-122.3654635000,141.68943629562273,28.203665,0.1,334.63498,1626296343435,,,,
Fix,GT,37.5404151000,-122.3656003000,142.97949129465633,28.176102,0.1,334.65152,1626296344435,,,,
Fix,GT,37.5406439000,-122.3657382000,144.26961334773205,28.136143,0.1,334.13004,1626296345435,,,,
Fix,GT,37.5408705000,-122.3658795000,145.46380121914126,28.02486,0.1,333.31793,1626296346435,,,,
Fix,GT,37.5410948000,-122.3660242000,146.56610925637733,27.948227,0.1,332.53854,1626296347435,,,,
Fix,GT,37.5413170000,-122.3661719000,147.67351157053145,27.865253,0.1,331.79074,1626296348435,,,,
Fix,GT,37.5415370000,-122.3663233000,148.77886112120268,27.890812,0.1,330.797,1626296349435,,,,
Fix,GT,37.5417561000,-122.3664810000,149.88750978078588,28.15604,0.1,329.76077,1626296350435,,,,
Fix,GT,37.5419748000,-122.3666453000,150.93998899419103,28.427689,0.1,328.70694,1626296351435,,,,
Fix,GT,37.5421932000,-122.3668165000,151.9014084636865,28.741898,0.1,327.49536,1626296352435,,,,
Fix,GT,37.5424114000,-122.3669950000,152.76359212137322,29.067066,0.1,326.58762,1626296353435,,,,
Fix,GT,37.5426315000,-122.3671805000,153.53377064497909,29.73883,0.1,325.76807,1626296354435,,,,
Fix,GT,37.5428509000,-122.3673710000,154.22389094559867,29.405935,0.1,325.218,1626296355435,,,,
Fix,GT,37.5430655000,-122.3675611000,154.7970167906883,28.872498,0.099,324.50287,1626296356435,,,,
Fix,GT,37.5432752000,-122.3677501000,155.23408850067153,28.464722,0.1,324.50253,1626296357435,,,,
Fix,GT,37.5434827000,-122.3679389000,155.4776324994382,28.496334,0.1,323.663,1626296358435,,,,
Fix,GT,37.5436888000,-122.3681335000,155.5379989833932,28.766914,0.1,322.5682,1626296359435,,,,
Fix,GT,37.5438927000,-122.3683334000,155.52606201171875,28.556362,0.1,321.58206,1626296360435,,,,
Fix,GT,37.5440920000,-122.3685348000,155.6253351828659,28.228382,0.1,320.91592,1626296361435,,,,
Fix,GT,37.5442876000,-122.3687363000,155.78898653889246,27.948977,0.1,320.5181,1626296362435,,,,
Fix,GT,37.5444804000,-122.3689367000,155.93334313836021,27.569653,0.1,320.45108,1626296363435,,,,
Fix,GT,37.5446705000,-122.3691334000,156.10768922398893,27.126247,0.1,320.58566,1626296364435,,,,
Fix,GT,37.5448577000,-122.3693270000,156.2773997126169,26.702564,0.1,320.4785,1626296365435,,,,
Fix,GT,37.5450416000,-122.3695181000,156.42092865273935,26.294739,0.1,320.57162,1626296366435,,,,
Fix,GT,37.5452248000,-122.3697031000,156.5773974032436,25.879612,0.1,322.21362,1626296367435,,,,
Fix,GT,37.5454104000,-122.3698768000,156.70158443508035,25.493893,0.1,324.24042,1626296368435,,,,
Fix,GT,37.5455960000,-122.3700426000,156.81962362201193,25.053097,0.1,325.16748,1626296369435,,,,
Fix,GT,37.5457801000,-122.3702034000,156.97875783434847,24.710663,0.1,325.3884,1626296370435,,,,
Fix,GT,37.5459622000,-122.3703607000,157.22144766070505,24.337105,0.1,325.51266,1626296371435,,,,
Fix,GT,37.5461416000,-122.3705152000,157.61342775575895,23.928043,0.1,325.7335,1626296372435,,,,
Fix,GT,37.5463180000,-122.3706663000,158.06972368751576,23.481895,0.1,325.705,1626296373435,,,,
Fix,GT,37.5464915000,-122.3708148000,158.34769477725877,23.111649,0.1,325.67062,1626296374435,,,,
Fix,GT,37.5466619000,-122.3709617000,158.43670273677344,22.8031,0.1,325.5525,1626296375435,,,,
Fix,GT,37.5468302000,-122.3711074000,158.29906109667445,22.602123,0.1,325.38968,1626296376435,,,,
Fix,GT,37.5469968000,-122.3712519000,158.11296223975387,22.164864,0.1,325.45786,1626296377435,,,,
Fix,GT,37.5471548000,-122.3713885000,157.92982194642354,20.12608,0.1,325.65756,1626296378435,,,,
Fix,GT,37.5472935000,-122.3715076000,157.7466626376554,17.161,0.1,325.84964,1626296379435,,,,
Fix,GT,37.5474102000,-122.3716060000,157.61583598147718,14.038923,0.1,326.4908,1626296380435,,,,
Fix,GT,37.5475035000,-122.3716834000,157.51006901667733,10.801834,0.1,326.3212,1626296381435,,,,
Fix,GT,37.5475730000,-122.3717432000,157.3815348115495,8.0517645,0.1,325.05255,1626296382435,,,,
Fix,GT,37.5476233000,-122.3717891000,157.40282438220993,5.740146,0.1,323.85898,1626296383435,,,,
Fix,GT,37.5476571000,-122.3718207000,157.48252866007533,3.6372724,0.1,323.3943,1626296384435,,,,
Fix,GT,37.5476745000,-122.3718370000,157.52904803964338,1.2450751,0.1,323.39093,1626296385435,,,,
Fix,GT,37.5476774000,-122.3718396000,157.5194076145399,0.030834232,0.1,323.36517,1626296386435,,,,
Fix,GT,37.5476774000,-122.3718396000,157.52106182339958,0.002409434,0.1,323.36465,1626296387435,,,,
Fix,GT,37.5476774000,-122.3718396000,157.52106182339958,0.0014142136,0.1,323.3629,1626296388435,,,,
Fix,GT,37.5476774000,-122.3718396000,157.52105712890625,0.0013522694,0.1,323.36273,1626296389435,,,,
Fix,GT,37.5476774000,-122.3718396000,157.51835407465933,0.025439132,0.1,323.36243,1626296390435,,,,
Fix,GT,37.5476808000,-122.3718430000,157.5117620817673,1.261578,0.1,323.06586,1626296391435,,,,
Fix,GT,37.5476957000,-122.3718602000,157.55994102647264,3.2405348,0.1,318.9577,1626296392435,,,,
Fix,GT,37.5477157000,-122.3718984000,157.65005093861828,4.712853,0.1,301.9361,1626296393435,,,,
Fix,GT,37.5477209000,-122.3719568000,157.77423322439154,5.755107,0.1,272.5535,1626296394435,,,,
Fix,GT,37.5476982000,-122.3720210000,157.8151718683248,6.9024477,0.1,240.78662,1626296395435,,,,
Fix,GT,37.5476533000,-122.3720874000,157.8090562167481,8.644629,0.1,229.55779,1626296396435,,,,
Fix,GT,37.5475977000,-122.3721703000,157.83487840626185,10.384378,0.1,230.03049,1626296397435,,,,
Fix,GT,37.5475332000,-122.3722665000,157.9132208489209,11.7099285,0.1,229.81395,1626296398435,,,,
Fix,GT,37.5474647000,-122.3723684000,157.96257676898676,11.743662,0.1,229.94827,1626296399435,,,,
Fix,GT,37.5473968000,-122.3724686000,158.04481802082228,11.505565,0.1,229.60165,1626296400435,,,,
Fix,GT,37.5473304000,-122.3725667000,158.10764232074416,11.202127,0.1,229.82709,1626296401435,,,,
Fix,GT,37.5472682000,-122.3726595000,158.22739692916002,10.03996,0.1,230.05869,1626296402435,,,,
Fix,GT,37.5472146000,-122.3727398000,158.3590412309477,8.458707,0.099,230.07759,1626296403435,,,,
Fix,GT,37.5471639000,-122.3728048000,158.5657437747941,7.782597,0.1,221.62247,1626296404435,,,,
Fix,GT,37.5471020000,-122.3728398000,158.7979277272234,7.6899223,0.1,197.90735,1626296405435,,,,
Fix,GT,37.5470298000,-122.3728400000,158.8634109997065,8.56563,0.1,174.34596,1626296406435,,,,
Fix,GT,37.5469531000,-122.3728064000,158.76788182865448,9.600765,0.1,156.36478,1626296407435,,,,
Fix,GT,37.5468754000,-122.3727444000,158.89163807426985,11.007435,0.1,143.04579,1626296408435,,,,
Fix,GT,37.5467966000,-122.3726561000,158.94022894687987,12.563333,0.1,137.16016,1626296409435,,,,
Fix,GT,37.5467067000,-122.3725532000,159.04486990566147,14.41809,0.1,137.98949,1626296410435,,,,
Fix,GT,37.5466039000,-122.3724371000,159.10046840176437,16.267746,0.1,137.6721,1626296411435,,,,
Fix,GT,37.5464900000,-122.3723066000,159.1591094835985,17.946712,0.1,137.73993,1626296412435,,,,
Fix,GT,37.5463651000,-122.3721653000,159.23447109112385,19.363008,0.1,138.0929,1626296413435,,,,
Fix,GT,37.5462306000,-122.3720123000,159.27317439835178,20.923632,0.1,137.84682,1626296414435,,,,
Fix,GT,37.5460850000,-122.3718475000,159.19066729900987,22.566704,0.1,137.93571,1626296415435,,,,
Fix,GT,37.5459291000,-122.3716692000,158.8977854220857,24.143257,0.1,137.80902,1626296416435,,,,
Fix,GT,37.5457614000,-122.3714818000,158.36797431313607,25.624916,0.1,139.06061,1626296417435,,,,
Fix,GT,37.5455798000,-122.3712891000,157.62681479954517,27.161514,0.1,140.59671,1626296418435,,,,
Fix,GT,37.5453839000,-122.3710906000,156.78547649442908,28.668861,0.1,141.72154,1626296419435,,,,
Fix,GT,37.5451755000,-122.3708859000,155.92775771044035,30.046131,0.1,141.97878,1626296420435,,,,
Fix,GT,37.5449606000,-122.3706722000,155.06770517428595,30.558235,0.1,141.32498,1626296421435,,,,
Fix,GT,37.5447464000,-122.3704561000,154.21199533322306,30.452402,0.1,141.30348,1626296422435,,,,
Fix,GT,37.5445336000,-122.3702403000,153.33357875216007,30.26923,0.1,141.14014,1626296423435,,,,
Fix,GT,37.5443220000,-122.3700262000,152.50793867578523,30.078115,0.1,141.42525,1626296424435,,,,
Fix,GT,37.5441112000,-122.3698142000,151.70411775638468,29.913857,0.1,141.25743,1626296425435,,,,
Fix,GT,37.5439008000,-122.3696009000,150.9934556284952,30.202625,0.1,141.13535,1626296426435,,,,
Fix,GT,37.5436852000,-122.3693871000,150.31738908856414,30.814116,0.1,142.51418,1626296427435,,,,
Fix,GT,37.5434624000,-122.3691732000,149.75332798451018,31.395554,0.1,142.88895,1626296428435,,,,
Fix,GT,37.5432348000,-122.3689591000,149.1449249416437,31.717583,0.1,143.43701,1626296429435,,,,
Fix,GT,37.5430045000,-122.3687442000,148.53921415738387,31.990858,0.1,143.41934,1626296430435,,,,
Fix,GT,37.5427713000,-122.3685288000,147.93757376494568,32.28926,0.1,144.05258,1626296431435,,,,
Fix,GT,37.5425343000,-122.3683140000,147.31556980822825,32.556923,0.1,144.41466,1626296432435,,,,
Fix,GT,37.5422940000,-122.3681001000,146.68921877248704,32.810795,0.1,145.27353,1626296433435,,,,
Fix,GT,37.5420491000,-122.3678898000,146.06256924451918,33.03924,0.1,146.16576,1626296434435,,,,
Fix,GT,37.5418006000,-122.3676826000,145.43115159366016,33.18035,0.099,146.76761,1626296435435,,,,
Fix,GT,37.5415490000,-122.3674779000,144.79585849968316,33.366257,0.1,147.48578,1626296436435,,,,
Fix,GT,37.5412932000,-122.3672765000,144.15416304737664,33.68508,0.1,148.66127,1626296437435,,,,
Fix,GT,37.5410322000,-122.3670779000,143.52185744138524,34.062332,0.099,149.29703,1626296438435,,,,
Fix,GT,37.5407660000,-122.3668825000,142.87597391349118,34.31932,0.1,150.2949,1626296439435,,,,
Fix,GT,37.5404966000,-122.3666907000,142.22310560402866,34.408222,0.1,150.7736,1626296440435,,,,
Fix,GT,37.5402250000,-122.3665018000,141.53733238381392,34.517323,0.1,151.40816,1626296441435,,,,
Fix,GT,37.5399515000,-122.3663153000,140.75275352073004,34.522575,0.1,151.77946,1626296442435,,,,
Fix,GT,37.5396786000,-122.3661304000,139.8555846479503,34.31499,0.1,151.6527,1626296443435,,,,
Fix,GT,37.5394078000,-122.3659448000,138.8932394309959,34.142445,0.1,151.54037,1626296444435,,,,
Fix,GT,37.5391379000,-122.3657611000,137.79077943207812,33.992607,0.1,151.68329,1626296445435,,,,
Fix,GT,37.5388685000,-122.3655789000,136.556014418602,33.93092,0.1,151.87735,1626296446435,,,,
Fix,GT,37.5385994000,-122.3653974000,135.26349179554018,33.86613,0.1,151.70752,1626296447435,,,,
Fix,GT,37.5383313000,-122.3652152000,133.8963874310466,33.807823,0.1,151.63277,1626296448435,,,,
Fix,GT,37.5380641000,-122.3650326000,132.5204993334214,33.725895,0.1,151.59628,1626296449435,,,,
Fix,GT,37.5377968000,-122.3648518000,131.16503101284616,33.656796,0.1,151.81424,1626296450435,,,,
Fix,GT,37.5375302000,-122.3646711000,129.80537543826586,33.58617,0.1,151.75723,1626296451435,,,,
Fix,GT,37.5372639000,-122.3644913000,128.4857927447979,33.542435,0.1,151.73155,1626296452435,,,,
Fix,GT,37.5369984000,-122.3643107000,127.14072956160453,33.4759,0.1,151.56844,1626296453435,,,,
Fix,GT,37.5367334000,-122.3641308000,125.799191368209,33.394928,0.1,151.84673,1626296454435,,,,
Fix,GT,37.5364680000,-122.3639523000,124.46142577194473,33.461708,0.1,151.87701,1626296455435,,,,
Fix,GT,37.5362019000,-122.3637727000,123.12159877696286,33.587166,0.1,151.66347,1626296456435,,,,
Fix,GT,37.5359360000,-122.3635908000,121.77418955695248,33.60454,0.1,151.50743,1626296457435,,,,
Fix,GT,37.5356700000,-122.3634097000,120.44049358545521,33.544086,0.1,151.68588,1626296458435,,,,
Fix,GT,37.5354043000,-122.3632294000,119.10884483226482,33.50135,0.1,151.76538,1626296459435,,,,
Fix,GT,37.5351384000,-122.3630504000,117.7738371633277,33.4605,0.1,151.98886,1626296460435,,,,
Fix,GT,37.5348725000,-122.3628729000,116.38177572276936,33.371468,0.1,152.36528,1626296461435,,,,
