MessageType,Provider,LatitudeDegrees,LongitudeDegrees,AltitudeMeters,SpeedMps,AccuracyMeters,BearingDegrees,UnixTimeMillis,SpeedAccuracyMps,BearingAccuracyDegrees,elapsedRealtimeNanos,VerticalAccuracyMeters
Fix,GT,37.4441058000,-122.2327661000,11.178950309753418,0.002236068,0.1,30.312366,1626727760999,,,,
Fix,GT,37.4441058000,-122.2327661000,11.178950309753418,0.002236068,0.1,30.31236,1626727761999,,,,
Fix,GT,37.4441058000,-122.2327661000,11.177950859069824,0.002236068,0.1,30.312555,1626727762999,,,,
Fix,GT,37.4441058000,-122.2327661000,11.179950714111328,0.0049874433,0.1,30.312191,1626727763999,,,,
Fix,GT,37.4441058000,-122.2327661000,11.183945878337227,0.006984576,0.1,30.401577,1626727764999,,,,
Fix,GT,37.4441046000,-122.2327674000,11.188950538635254,0.38325498,0.1,29.346262,1626727765999,,,,
Fix,GT,37.4441010000,-122.2327731000,11.180954712798666,0.785012,0.1,21.868525,1626727766999,,,,
Fix,GT,37.4440943000,-122.2327807000,11.164959464486913,1.0468403,0.1,9.948005,1626727767999,,,,
Fix,GT,37.4440857000,-122.2327868000,11.142959158284157,0.871084,0.1,356.99442,1626727768999,,,,
Fix,GT,37.4440806000,-122.2327890000,11.134950637817383,0.21930692,0.1,350.2222,1626727769999,,,,
Fix,GT,37.4440803000,-122.2327891000,11.136950492858887,0.016732506,0.1,349.62677,1626727770999,,,,
Fix,GT,37.4440839000,-122.2327913000,11.13895034790039,0.9543413,0.1,346.4956,1626727771999,,,,
Fix,GT,37.4440942000,-122.2328049000,11.174936940323505,1.940491,0.1,327.65585,1626727772999,,,,
Fix,GT,37.4441016000,-122.2328329000,11.160968874803189,2.7616487,0.1,297.5178,1626727773999,,,,
Fix,GT,37.4440977000,-122.2328721000,11.11097779719637,3.6764958,0.1,266.28317,1626727774999,,,,
Fix,GT,37.4440778000,-122.2329102000,11.017995619028511,3.9947152,0.1,237.13481,1626727775999,,,,
Fix,GT,37.4440493000,-122.2329349000,10.91098256049554,3.1596005,0.1,215.77008,1626727776999,,,,
Fix,GT,37.4440304000,-122.2329464000,10.833945487082474,2.0088499,0.1,209.08101,1626727777999,,,,
Fix,GT,37.4440124000,-122.2329580000,10.790964449816556,2.4611883,0.1,207.95422,1626727778999,,,,
Fix,GT,37.4439896000,-122.2329727000,10.709023012709963,3.4006767,0.1,207.23798,1626727779999,,,,
Fix,GT,37.4439570000,-122.2329935000,10.636991546486058,4.5404825,0.1,207.0068,1626727780999,,,,
Fix,GT,37.4439210000,-122.2330173000,10.562986637867539,4.3681555,0.1,207.98817,1626727781999,,,,
Fix,GT,37.4438899000,-122.2330422000,10.500005175735112,3.7388146,0.1,213.083,1626727782999,,,,
Fix,GT,37.4438685000,-122.2330645000,10.43198708603336,2.3996649,0.1,218.79402,1626727783999,,,,
Fix,GT,37.4438566000,-122.2330822000,10.30800024953544,2.0788298,0.1,226.40538,1626727784999,,,,
Fix,GT,37.4438497000,-122.2331064000,10.159051282578275,2.5739098,0.1,244.40196,1626727785999,,,,
Fix,GT,37.4438519000,-122.2331417000,10.11790018853901,3.7423131,0.1,269.36368,1626727786999,,,,
Fix,GT,37.4438661000,-122.2331904000,10.03301437445407,5.573501,0.1,290.67267,1626727787999,,,,
Fix,GT,37.4438931000,-122.2332567000,9.843046804426876,7.609839,0.1,297.31253,1626727788999,,,,
Fix,GT,37.4439307000,-122.2333391000,9.604069365725252,8.9830885,0.1,300.73718,1626727789999,,,,
Fix,GT,37.4439756000,-122.2334306000,9.383037669783675,10.03831,0.1,301.61572,1626727790999,,,,
Fix,GT,37.4440246000,-122.2335299000,9.100083435087072,10.485091,0.1,301.89655,1626727791999,,,,
Fix,GT,37.4440760000,-122.2336319000,8.795041986819172,10.884768,0.1,302.43347,1626727792999,,,,
Fix,GT,37.4441292000,-122.2337360000,8.582087480587916,11.000386,0.1,302.82828,1626727793999,,,,
Fix,GT,37.4441838000,-122.2338399000,8.35605105667014,10.999447,0.1,303.60165,1626727794999,,,,
Fix,GT,37.4442376000,-122.2339417000,8.130074144516072,10.466315,0.1,303.3951,1626727795999,,,,
Fix,GT,37.4442865000,-122.2340347000,7.940027844345764,9.21237,0.1,303.3416,1626727796999,,,,
Fix,GT,37.4443290000,-122.2341153000,7.756004944708934,7.8801823,0.1,303.4716,1626727797999,,,,
Fix,GT,37.4443607000,-122.2341813000,7.616986691479809,5.6063585,0.1,299.78308,1626727798999,,,,
Fix,GT,37.4443794000,-122.2342247000,7.516986795430199,3.3387177,0.1,298.544,1626727799999,,,,
Fix,GT,37.4443906000,-122.2342507000,7.4659637645051475,1.9380925,0.1,298.46735,1626727800999,,,,
Fix,GT,37.4443957000,-122.2342627000,7.449954328722242,0.45137888,0.1,298.47473,1626727801999,,,,
Fix,GT,37.4443960000,-122.2342634000,7.439949989318848,0.0014571267,0.1,298.47586,1626727802999,,,,
Fix,GT,37.4443960000,-122.2342634000,7.437954721714334,0.002236068,0.1,298.47656,1626727803999,,,,
Fix,GT,37.4443960000,-122.2342634000,7.436954320676989,0.0022303958,0.1,298.47626,1626727804999,,,,
Fix,GT,37.4443960000,-122.2342634000,7.436949729919434,0.0009954099,0.1,298.4736,1626727805999,,,,
Fix,GT,37.4443960000,-122.2342634000,7.436949729919434,0.001,0.1,298.47357,1626727806999,,,,
Fix,GT,37.4443960000,-122.2342634000,7.437950134277344,0.0010019022,0.1,298.47366,1626727807999,,,,
Fix,GT,37.4443960000,-122.2342635000,7.437950134277344,0.0000064962624,0.1,298.47324,1626727808999,,,,
Fix,GT,37.4443960000,-122.2342635000,7.437950134277344,0.0,0.1,298.4735,1626727809999,,,,
Fix,GT,37.4443960000,-122.2342635000,7.437950134277344,0.0010056808,0.1,298.4737,1626727810999,,,,
Fix,GT,37.4443960000,-122.2342635000,7.437950134277344,0.0010019043,0.1,298.47348,1626727811999,,,,
Fix,GT,37.4443960000,-122.2342635000,7.437950134277344,0.0014169071,0.1,298.47375,1626727812999,,,,
Fix,GT,37.4443960000,-122.2342635000,7.435959002352263,0.077559225,0.1,298.4748,1626727813999,,,,
Fix,GT,37.4444008000,-122.2342750000,7.397963972641094,2.6048641,0.1,297.98495,1626727814999,,,,
Fix,GT,37.4444152000,-122.2343167000,7.299014142757699,5.2100153,0.1,293.10757,1626727815999,,,,
Fix,GT,37.4444273000,-122.2343814000,7.376894553990326,6.514391,0.1,280.84177,1626727816999,,,,
Fix,GT,37.4444248000,-122.2344620000,7.492867092506685,7.5435767,0.1,262.99075,1626727817999,,,,
Fix,GT,37.4443980000,-122.2345464000,7.616973060896498,8.677865,0.1,242.62906,1626727818999,,,,
Fix,GT,37.4443431000,-122.2346260000,7.688867149846061,9.810908,0.1,223.81865,1626727819999,,,,
Fix,GT,37.4442669000,-122.2346951000,7.862820842113251,11.183082,0.1,213.48338,1626727820999,,,,
Fix,GT,37.4441747000,-122.2347669000,8.143821424569978,12.867242,0.1,211.18224,1626727821999,,,,
Fix,GT,37.4440697000,-122.2348416000,8.516770831136,13.879749,0.1,208.50655,1626727822999,,,,
Fix,GT,37.4439552000,-122.2349168000,8.984636533522234,14.871021,0.1,207.08517,1626727823999,,,,
Fix,GT,37.4438305000,-122.2349969000,9.414835071832954,16.204983,0.1,207.08003,1626727824999,,,,
Fix,GT,37.4436973000,-122.2350828000,9.712839991272062,17.10706,0.1,207.23412,1626727825999,,,,
Fix,GT,37.4435562000,-122.2351750000,9.868909311041534,18.175104,0.1,207.68265,1626727826999,,,,
Fix,GT,37.4434081000,-122.2352732000,9.977867020081021,18.933561,0.1,207.92566,1626727827999,,,,
Fix,GT,37.4432584000,-122.2353739000,10.166844044704362,18.693594,0.1,208.27414,1626727828999,,,,
Fix,GT,37.4431118000,-122.2354730000,10.351872142769821,18.268303,0.1,208.18233,1626727829999,,,,
Fix,GT,37.4429682000,-122.2355696000,10.623816058339344,18.001944,0.1,208.0668,1626727830999,,,,
Fix,GT,37.4428248000,-122.2356653000,10.976733502228399,18.032673,0.1,207.9039,1626727831999,,,,
Fix,GT,37.4426811000,-122.2357602000,11.597640359388151,18.034374,0.1,207.5483,1626727832999,,,,
Fix,GT,37.4425366000,-122.2358543000,12.325562338259317,18.014988,0.1,207.34966,1626727833999,,,,
Fix,GT,37.4423947000,-122.2359468000,13.326450732671447,17.445099,0.1,207.54633,1626727834999,,,,
Fix,GT,37.4422582000,-122.2360365000,14.380482877673103,16.726355,0.1,207.74028,1626727835999,,,,
Fix,GT,37.4421282000,-122.2361240000,15.298538489910356,16.131176,0.1,208.38322,1626727836999,,,,
Fix,GT,37.4420017000,-122.2362109000,16.087621236284576,15.995578,0.1,208.80865,1626727837999,,,,
Fix,GT,37.4418756000,-122.2362987000,16.84362628731685,15.988754,0.1,209.124,1626727838999,,,,
Fix,GT,37.4417501000,-122.2363877000,17.55563073277699,16.134205,0.1,209.53554,1626727839999,,,,
Fix,GT,37.4416207000,-122.2364789000,18.20863053256471,16.859968,0.1,209.15083,1626727840999,,,,
Fix,GT,37.4414857000,-122.2365773000,18.978550268759136,17.643227,0.1,211.2694,1626727841999,,,,
Fix,GT,37.4413520000,-122.2366907000,19.871510013646912,18.350946,0.1,216.06287,1626727842999,,,,
Fix,GT,37.4412196000,-122.2368222000,20.84853236425738,19.196947,0.1,219.57707,1626727843999,,,,
Fix,GT,37.4410881000,-122.2369705000,21.84943436731419,20.066551,0.1,223.4723,1626727844999,,,,
Fix,GT,37.4409594000,-122.2371359000,23.03943477566554,20.807516,0.1,227.5293,1626727845999,,,,
Fix,GT,37.4408395000,-122.2373170000,24.2503747947967,20.889124,0.1,232.608,1626727846999,,,,
Fix,GT,37.4407303000,-122.2375101000,25.443373541932715,21.031433,0.1,235.59303,1626727847999,,,,
Fix,GT,37.4406253000,-122.2377085000,26.71542569007238,21.088335,0.1,236.82242,1626727848999,,,,
Fix,GT,37.4405208000,-122.2379068000,27.937379271951613,20.96755,0.1,235.64459,1626727849999,,,,
Fix,GT,37.4404102000,-122.2380983000,29.280428702713834,20.905764,0.1,232.73497,1626727850999,,,,
Fix,GT,37.4402935000,-122.2382835000,30.44049068286938,20.91172,0.1,231.10088,1626727851999,,,,
Fix,GT,37.4401734000,-122.2384661000,31.523484201366045,21.00114,0.1,229.9314,1626727852999,,,,
Fix,GT,37.4400489000,-122.2386464000,32.55849321635378,21.237473,0.1,228.41983,1626727853999,,,,
Fix,GT,37.4399184000,-122.2388236000,33.67646061275536,21.376041,0.1,226.18015,1626727854999,,,,
Fix,GT,37.4397826000,-122.2389944000,34.69140410466616,21.28702,0.1,224.21336,1626727855999,,,,
Fix,GT,37.4396435000,-122.2391592000,35.5955744680773,21.145792,0.1,222.43088,1626727856999,,,,
Fix,GT,37.4395018000,-122.2393133000,36.80044217017394,20.441833,0.1,219.4731,1626727857999,,,,
Fix,GT,37.4393599000,-122.2394559000,37.98942726839232,20.04012,0.1,218.5535,1626727858999,,,,
Fix,GT,37.4392182000,-122.2395931000,39.00054971041391,19.693048,0.1,216.7803,1626727859999,,,,
Fix,GT,37.4390747000,-122.2397223000,39.95856839745102,19.53955,0.1,214.87033,1626727860999,,,,
Fix,GT,37.4389291000,-122.2398446000,40.834493270001985,19.358242,0.1,213.03851,1626727861999,,,,
Fix,GT,37.4387820000,-122.2399607000,41.67059413405127,19.270092,0.1,211.50974,1626727862999,,,,
Fix,GT,37.4386317000,-122.2400720000,42.235759503148984,19.508926,0.1,209.88435,1626727863999,,,,
Fix,GT,37.4384763000,-122.2401785000,42.72374910403778,19.768208,0.1,207.68259,1626727864999,,,,
Fix,GT,37.4383159000,-122.2402783000,43.11782461557368,19.987993,0.1,205.42662,1626727865999,,,,
Fix,GT,37.4381508000,-122.2403720000,43.430838284833044,20.243708,0.1,203.60452,1626727866999,,,,
Fix,GT,37.4379814000,-122.2404610000,43.613841592496556,20.495296,0.1,201.95325,1626727867999,,,,
Fix,GT,37.4378093000,-122.2405452000,43.74485606695316,20.473736,0.1,200.6993,1626727868999,,,,
Fix,GT,37.4376363000,-122.2406258000,43.86996332746912,20.509417,0.1,200.22961,1626727869999,,,,
Fix,GT,37.4374631000,-122.2407078000,44.01487514750852,20.596117,0.1,201.1153,1626727870999,,,,
Fix,GT,37.4372907000,-122.2407948000,44.29582669402566,20.650337,0.1,202.6013,1626727871999,,,,
Fix,GT,37.4371204000,-122.2408872000,44.7316827634063,20.428297,0.1,204.16217,1626727872999,,,,
Fix,GT,37.4369566000,-122.2409864000,45.25668888492146,19.986889,0.1,207.09604,1626727873999,,,,
Fix,GT,37.4368013000,-122.2410960000,45.84658153149303,19.617378,0.1,211.48247,1626727874999,,,,
Fix,GT,37.4366590000,-122.2412214000,46.597594913915145,19.00355,0.1,218.03578,1626727875999,,,,
Fix,GT,37.4365339000,-122.2413618000,47.3516113261021,18.339079,0.1,224.36563,1626727876999,,,,
Fix,GT,37.4364225000,-122.2415100000,47.925645272594465,17.712208,0.1,227.9868,1626727877999,,,,
Fix,GT,37.4363208000,-122.2416591000,48.56260881787398,17.004215,0.1,230.07997,1626727878999,,,,
Fix,GT,37.4362280000,-122.2418052000,49.27565763567418,16.02072,0.1,232.5801,1626727879999,,,,
Fix,GT,37.4361456000,-122.2419461000,49.90169822281223,14.858825,0.1,234.39047,1626727880999,,,,
Fix,GT,37.4360767000,-122.2420772000,50.51766273687963,12.852562,0.1,238.20433,1626727881999,,,,
Fix,GT,37.4360270000,-122.2421915000,50.99775581525478,10.073824,0.1,243.54678,1626727882999,,,,
Fix,GT,37.4359983000,-122.2422820000,51.326809633128505,7.216445,0.1,250.43787,1626727883999,,,,
Fix,GT,37.4359849000,-122.2423466000,51.547871128533416,4.6150527,0.1,256.6323,1626727884999,,,,
Fix,GT,37.4359800000,-122.2423851000,51.681912146900004,2.401281,0.1,260.38116,1626727885999,,,,
Fix,GT,37.4359779000,-122.2424076000,51.72992183847555,1.9842129,0.1,262.43356,1626727886999,,,,
Fix,GT,37.4359761000,-122.2424363000,51.7799023337343,3.6109207,0.1,264.90994,1626727887999,,,,
Fix,GT,37.4359754000,-122.2424915000,51.908894551658705,6.094933,0.1,269.4145,1626727888999,,,,
Fix,GT,37.4359804000,-122.2425698000,52.1498449734695,7.6408453,0.1,275.9911,1626727889999,,,,
Fix,GT,37.4359949000,-122.2426591000,52.5587327993685,8.526866,0.1,283.43646,1626727890999,,,,
Fix,GT,37.4360190000,-122.2427573000,52.92877299806378,9.684499,0.1,288.14453,1626727891999,,,,
Fix,GT,37.4360499000,-122.2428654000,53.395696937962384,10.654558,0.1,290.37314,1626727892999,,,,
Fix,GT,37.4360872000,-122.2429812000,53.94468258431425,11.389068,0.1,292.6538,1626727893999,,,,
Fix,GT,37.4361297000,-122.2431014000,54.55665385816292,11.850907,0.1,294.51807,1626727894999,,,,
Fix,GT,37.4361758000,-122.2432227000,55.24264991384234,11.790308,0.1,295.7596,1626727895999,,,,
Fix,GT,37.4362216000,-122.2433392000,55.91364276279319,11.156979,0.1,296.34186,1626727896999,,,,
Fix,GT,37.4362656000,-122.2434502000,56.55165726401515,10.905278,0.1,296.4323,1626727897999,,,,
Fix,GT,37.4363101000,-122.2435609000,57.15267771644062,11.091,0.1,296.87082,1626727898999,,,,
Fix,GT,37.4363574000,-122.2436745000,57.80168062362509,11.672561,0.1,297.95367,1626727899999,,,,
Fix,GT,37.4364093000,-122.2437925000,58.51062376449954,12.083336,0.1,299.36636,1626727900999,,,,
Fix,GT,37.4364653000,-122.2439107000,59.2425930206266,12.28187,0.1,301.26602,1626727901999,,,,
Fix,GT,37.4365265000,-122.2440282000,59.97262540052725,12.57322,0.1,304.25696,1626727902999,,,,
Fix,GT,37.4365937000,-122.2441445000,60.69259830056262,12.87312,0.1,306.74103,1626727903999,,,,
Fix,GT,37.4366659000,-122.2442603000,61.48556923727938,13.162367,0.1,308.79938,1626727904999,,,,
Fix,GT,37.4367433000,-122.2443749000,62.29155007614554,13.425619,0.1,311.0496,1626727905999,,,,
Fix,GT,37.4368251000,-122.2444888000,63.14555006637147,13.700539,0.1,312.25897,1626727906999,,,,
Fix,GT,37.4369095000,-122.2446038000,63.99955006166374,13.942171,0.1,312.7331,1626727907999,,,,
Fix,GT,37.4369952000,-122.2447204000,64.80758539262024,14.1755705,0.1,312.43546,1626727908999,,,,
Fix,GT,37.4370823000,-122.2448404000,65.58258864716936,14.561028,0.1,312.14017,1626727909999,,,,
Fix,GT,37.4371720000,-122.2449642000,66.26464433567708,15.03446,0.1,312.3697,1626727910999,,,,
Fix,GT,37.4372650000,-122.2450914000,66.95963452981869,15.543878,0.1,312.67484,1626727911999,,,,
Fix,GT,37.4373622000,-122.2452229000,67.62063281457176,16.194962,0.1,312.84918,1626727912999,,,,
Fix,GT,37.4374634000,-122.2453597000,68.30363138793291,16.855833,0.1,312.89172,1626727913999,,,,
Fix,GT,37.4375696000,-122.2455009000,69.0126167943572,17.462898,0.1,313.48837,1626727914999,,,,
Fix,GT,37.4376790000,-122.2456437000,69.73359379718568,17.547098,0.1,314.04474,1626727915999,,,,
Fix,GT,37.4377895000,-122.2457854000,70.47558862986898,17.526155,0.1,314.52948,1626727916999,,,,
Fix,GT,37.4378992000,-122.2459272000,71.24158265900041,17.457926,0.1,313.5234,1626727917999,,,,
Fix,GT,37.4380067000,-122.2460735000,71.98963562724566,17.814606,0.1,312.12964,1626727918999,,,,
Fix,GT,37.4381160000,-122.2462247000,72.74257248013419,18.41083,0.1,312.33136,1626727919999,,,,
Fix,GT,37.4382312000,-122.2463798000,73.53858420938559,18.986343,0.1,313.47974,1626727920999,,,,
Fix,GT,37.4383519000,-122.2465360000,74.34352768605095,19.567917,0.1,314.5609,1626727921999,,,,
Fix,GT,37.4384768000,-122.2466921000,75.17657502258908,19.48933,0.1,315.49167,1626727922999,,,,
Fix,GT,37.4386023000,-122.2468452000,75.93460179193062,19.404032,0.1,315.88574,1626727923999,,,,
Fix,GT,37.4387277000,-122.2469973000,76.69658855771377,19.2579,0.1,315.88037,1626727924999,,,,
Fix,GT,37.4388508000,-122.2471479000,77.45658300885407,19.008665,0.1,315.4551,1626727925999,,,,
Fix,GT,37.4389725000,-122.2472996000,78.21360561788606,19.105251,0.1,314.95328,1626727926999,,,,
Fix,GT,37.4390948000,-122.2474534000,78.97958540908576,19.38453,0.1,314.79584,1626727927999,,,,
Fix,GT,37.4392192000,-122.2476110000,79.76758259876078,19.876919,0.1,314.6102,1626727928999,,,,
Fix,GT,37.4393463000,-122.2477723000,80.57657114592166,20.213642,0.1,314.57794,1626727929999,,,,
Fix,GT,37.4394752000,-122.2479363000,81.38655440392768,20.517948,0.1,314.53806,1626727930999,,,,
Fix,GT,37.4396052000,-122.2481018000,82.20455983470492,20.583563,0.1,314.63046,1626727931999,,,,
Fix,GT,37.4397357000,-122.2482673000,83.02956905204474,20.624449,0.1,314.63406,1626727932999,,,,
Fix,GT,37.4398665000,-122.2484340000,83.84955442936007,20.773258,0.1,314.29398,1626727933999,,,,
Fix,GT,37.4399973000,-122.2486030000,84.68753754086856,20.887854,0.1,314.04108,1626727934999,,,,
Fix,GT,37.4401282000,-122.2487728000,85.55652836251375,20.926027,0.1,313.93433,1626727935999,,,,
Fix,GT,37.4402594000,-122.2489442000,86.42652626185418,21.120663,0.1,313.6636,1626727936999,,,,
Fix,GT,37.4403908000,-122.2491172000,87.28055377967121,21.174414,0.1,313.55954,1626727937999,,,,
Fix,GT,37.4405225000,-122.2492902000,88.13053313329874,21.138863,0.1,313.71094,1626727938999,,,,
Fix,GT,37.4406542000,-122.2494626000,88.97755691655948,21.122732,0.1,313.8349,1626727939999,,,,
Fix,GT,37.4407862000,-122.2496347000,89.81058073655004,21.151964,0.1,313.84735,1626727940999,,,,
Fix,GT,37.4409193000,-122.2498075000,90.64154864548709,21.381634,0.1,314.03586,1626727941999,,,,
Fix,GT,37.4410540000,-122.2499817000,91.49355545511253,21.579876,0.1,314.06644,1626727942999,,,,
Fix,GT,37.4411899000,-122.2501581000,92.34755162807687,21.840914,0.1,313.9436,1626727943999,,,,
Fix,GT,37.4413275000,-122.2503365000,93.21752576341078,22.074476,0.1,314.01904,1626727944999,,,,
Fix,GT,37.4414662000,-122.2505170000,94.1634819873625,22.283552,0.1,313.85846,1626727945999,,,,
Fix,GT,37.4416059000,-122.2506993000,95.17047135512348,22.471497,0.1,313.83264,1626727946999,,,,
Fix,GT,37.4417465000,-122.2508834000,96.20446309134468,22.656883,0.1,313.771,1626727947999,,,,
Fix,GT,37.4418883000,-122.2510689000,97.24545381601456,22.812504,0.1,313.88992,1626727948999,,,,
Fix,GT,37.4420303000,-122.2512552000,98.29948309529573,22.772985,0.1,313.60342,1626727949999,,,,
Fix,GT,37.4421703000,-122.2514427000,99.27847449600813,22.680716,0.1,312.5779,1626727950999,,,,
Fix,GT,37.4423062000,-122.2516336000,100.21953819305054,22.621998,0.1,311.1001,1626727951999,,,,
Fix,GT,37.4424377000,-122.2518287000,101.11449946566972,22.592749,0.1,309.61255,1626727952999,,,,
Fix,GT,37.4425654000,-122.2520273000,102.02653242129327,22.538809,0.1,308.29572,1626727953999,,,,
Fix,GT,37.4426882000,-122.2522296000,102.91052547472373,22.468351,0.1,306.5855,1626727954999,,,,
Fix,GT,37.4428063000,-122.2524355000,103.79651262298376,22.415546,0.1,305.00296,1626727955999,,,,
Fix,GT,37.4429198000,-122.2526447000,104.65353100634593,22.36803,0.1,303.58585,1626727956999,,,,
Fix,GT,37.4430287000,-122.2528571000,105.54251653808933,22.32088,0.1,302.16653,1626727957999,,,,
Fix,GT,37.4431334000,-122.2530723000,106.41254778655275,22.27328,0.1,300.75375,1626727958999,,,,
Fix,GT,37.4432339000,-122.2532899000,107.2845445640869,22.260788,0.1,299.60913,1626727959999,,,,
Fix,GT,37.4433310000,-122.2535102000,108.14652488328966,22.262281,0.1,298.4226,1626727960999,,,,
Fix,GT,37.4434241000,-122.2537330000,109.02651725789292,22.266926,0.1,297.0445,1626727961999,,,,
Fix,GT,37.4435129000,-122.2539588000,109.91451286497659,22.26357,0.1,295.60757,1626727962999,,,,
Fix,GT,37.4435969000,-122.2541867000,110.79753508141357,22.168453,0.1,294.24796,1626727963999,,,,
Fix,GT,37.4436762000,-122.2544161000,111.6725301648271,22.063227,0.1,292.7784,1626727964999,,,,
Fix,GT,37.4437504000,-122.2546469000,112.53254026195282,21.987028,0.1,291.30557,1626727965999,,,,
Fix,GT,37.4438199000,-122.2548800000,113.39453006658596,21.97868,0.1,289.89563,1626727966999,,,,
Fix,GT,37.4438843000,-122.2551121000,114.23955511941358,21.552017,0.1,288.75488,1626727967999,,,,
Fix,GT,37.4439447000,-122.2553435000,115.10652787910385,21.56051,0.1,287.6295,1626727968999,,,,
Fix,GT,37.4440012000,-122.2555765000,115.94556295785287,21.511005,0.1,286.37155,1626727969999,,,,
Fix,GT,37.4440532000,-122.2558101000,116.79955237128115,21.41906,0.1,284.97314,1626727970999,,,,
Fix,GT,37.4441003000,-122.2560442000,117.64353968737487,21.321295,0.1,283.56686,1626727971999,,,,
Fix,GT,37.4441428000,-122.2562788000,118.4505579361412,21.237198,0.1,282.17426,1626727972999,,,,
Fix,GT,37.4441805000,-122.2565137000,119.24260077386862,21.163307,0.1,280.8901,1626727973999,,,,
Fix,GT,37.4442141000,-122.2567487000,119.9686034002807,21.095957,0.1,279.69785,1626727974999,,,,
Fix,GT,37.4442439000,-122.2569839000,120.65261578770696,21.067215,0.1,278.60028,1626727975999,,,,
Fix,GT,37.4442700000,-122.2572200000,121.316645949536,21.08789,0.1,277.32172,1626727976999,,,,
Fix,GT,37.4442913000,-122.2574567000,121.95264742477048,21.070944,0.1,275.87183,1626727977999,,,,
Fix,GT,37.4443080000,-122.2576939000,122.56965373841831,21.07505,0.1,274.41388,1626727978999,,,,
Fix,GT,37.4443201000,-122.2579319000,123.12568218978868,21.128145,0.1,273.04263,1626727979999,,,,
Fix,GT,37.4443276000,-122.2581709000,123.64471091951782,21.188059,0.1,271.71753,1626727980999,,,,
Fix,GT,37.4443310000,-122.2584106000,124.14173649388977,21.259867,0.1,270.4625,1626727981999,,,,
Fix,GT,37.4443298000,-122.2586516000,124.60973116144487,21.383337,0.1,269.04153,1626727982999,,,,
Fix,GT,37.4443239000,-122.2588941000,125.01276942003733,21.552008,0.1,267.6498,1626727983999,,,,
Fix,GT,37.4443137000,-122.2591384000,125.36181160580145,21.760288,0.1,266.50247,1626727984999,,,,
Fix,GT,37.4442997000,-122.2593852000,125.6338339548538,22.013695,0.1,265.47165,1626727985999,,,,
Fix,GT,37.4442821000,-122.2596347000,125.86883933993477,22.36417,0.1,264.54346,1626727986999,,,,
Fix,GT,37.4442620000,-122.2598887000,126.06786086727016,22.7538,0.1,264.30832,1626727987999,,,,
Fix,GT,37.4442417000,-122.2601459000,126.22089436465376,22.981714,0.1,264.4182,1626727988999,,,,
Fix,GT,37.4442215000,-122.2604058000,126.3388933890028,23.228924,0.1,264.35864,1626727989999,,,,
Fix,GT,37.4442007000,-122.2606693000,126.42089410640301,23.689806,0.1,264.20135,1626727990999,,,,
Fix,GT,37.4441790000,-122.2609363000,126.53788123732375,23.661278,0.1,264.167,1626727991999,,,,
Fix,GT,37.4441575000,-122.2612005000,126.69285113519982,23.330315,0.1,264.04437,1626727992999,,,,
Fix,GT,37.4441357000,-122.2614606000,126.86986268630153,22.955406,0.1,263.95267,1626727993999,,,,
Fix,GT,37.4441141000,-122.2617164000,127.04285437255203,22.580837,0.1,263.94516,1626727994999,,,,
Fix,GT,37.4440936000,-122.2619684000,127.14689195752999,22.226814,0.1,264.27774,1626727995999,,,,
Fix,GT,37.4440741000,-122.2622163000,127.29389993206951,21.86743,0.1,264.3291,1626727996999,,,,
Fix,GT,37.4440549000,-122.2624602000,127.4148848522018,21.51695,0.1,264.34183,1626727997999,,,,
Fix,GT,37.4440365000,-122.2627003000,127.50792091969106,21.180841,0.1,264.5862,1626727998999,,,,
Fix,GT,37.4440191000,-122.2629369000,127.55792392751073,20.861393,0.1,264.75873,1626727999999,,,,
Fix,GT,37.4440022000,-122.2631698000,127.65387839573259,20.5344,0.1,264.76425,1626728000999,,,,
Fix,GT,37.4439853000,-122.2633990000,127.74789947358568,20.216784,0.1,264.59006,1626728001999,,,,
Fix,GT,37.4439679000,-122.2636250000,127.80593670373855,19.965235,0.1,264.36105,1626728002999,,,,
Fix,GT,37.4439508000,-122.2638478000,127.87292839538713,19.737299,0.1,264.61063,1626728003999,,,,
Fix,GT,37.4439353000,-122.2640715000,127.90993577930294,20.091547,0.1,265.32602,1626728004999,,,,
Fix,GT,37.4439229000,-122.2643003000,127.9099695638397,20.516172,0.1,266.7524,1626728005999,,,,
Fix,GT,37.4439158000,-122.2645344000,127.87996596142284,20.938831,0.1,268.59015,1626728006999,,,,
Fix,GT,37.4439131000,-122.2647724000,127.86195580157255,21.105694,0.1,269.5874,1626728007999,,,,
Fix,GT,37.4439142000,-122.2650119000,127.7909808117065,21.363659,0.1,270.7841,1626728008999,,,,
Fix,GT,37.4439190000,-122.2652557000,127.71299514651355,21.79256,0.1,271.87677,1626728009999,,,,
Fix,GT,37.4439279000,-122.2655041000,127.59200749732145,22.230303,0.1,273.02655,1626728010999,,,,
Fix,GT,37.4439414000,-122.2657570000,127.44901460424808,22.642366,0.1,274.45895,1626728011999,,,,
Fix,GT,37.4439603000,-122.2660141000,127.25102832344601,23.06432,0.1,275.87534,1626728012999,,,,
Fix,GT,37.4439847000,-122.2662755000,127.02807230182225,23.521988,0.1,277.2359,1626728013999,,,,
Fix,GT,37.4440145000,-122.2665414000,126.73208923050606,24.05748,0.1,278.5047,1626728014999,,,,
Fix,GT,37.4440493000,-122.2668133000,126.42711803242491,24.663872,0.1,279.56616,1626728015999,,,,
Fix,GT,37.4440893000,-122.2670904000,126.08110772382224,25.15898,0.1,280.83582,1626728016999,,,,
Fix,GT,37.4441356000,-122.2673711000,125.73412216836186,25.571793,0.1,282.38913,1626728017999,,,,
Fix,GT,37.4441890000,-122.2676540000,125.37109899896996,25.824461,0.1,284.19843,1626728018999,,,,
Fix,GT,37.4442495000,-122.2679350000,125.0161081525921,25.696268,0.1,285.8404,1626728019999,,,,
Fix,GT,37.4443157000,-122.2682122000,124.63215884670171,25.506325,0.1,287.3591,1626728020999,,,,
Fix,GT,37.4443873000,-122.2684849000,124.26813136761439,25.32003,0.1,288.88702,1626728021999,,,,
Fix,GT,37.4444640000,-122.2687532000,123.89713410162403,25.129436,0.1,290.3533,1626728022999,,,,
Fix,GT,37.4445454000,-122.2690171000,123.53213624614,24.981983,0.1,291.82422,1626728023999,,,,
Fix,GT,37.4446321000,-122.2692784000,123.10421257362214,25.171598,0.1,293.25113,1626728024999,,,,
Fix,GT,37.4447245000,-122.2695401000,122.70513775326617,25.468977,0.1,294.2815,1626728025999,,,,
Fix,GT,37.4448216000,-122.2698018000,122.38014085384202,25.610344,0.1,295.53043,1626728026999,,,,
Fix,GT,37.4449239000,-122.2700622000,122.02514725415949,25.79172,0.1,296.831,1626728027999,,,,
Fix,GT,37.4450319000,-122.2703214000,121.71215625030254,25.992682,0.1,298.16095,1626728028999,,,,
Fix,GT,37.4451459000,-122.2705793000,121.39408262317374,26.190128,0.1,299.7886,1626728029999,,,,
Fix,GT,37.4452671000,-122.2708340000,121.14905076096147,26.316568,0.1,301.5318,1626728030999,,,,
Fix,GT,37.4453942000,-122.2710860000,120.98102718743121,26.46785,0.1,303.0585,1626728031999,,,,
Fix,GT,37.4455278000,-122.2713346000,120.8640158599519,26.610569,0.1,304.7377,1626728032999,,,,
Fix,GT,37.4456679000,-122.2715795000,120.78892375046917,26.729424,0.1,306.41275,1626728033999,,,,
Fix,GT,37.4458137000,-122.2718203000,120.8079139404258,26.810236,0.1,307.8498,1626728034999,,,,
Fix,GT,37.4459642000,-122.2720576000,120.94481488073552,26.850657,0.1,309.09235,1626728035999,,,,
Fix,GT,37.4461190000,-122.2722909000,121.1688312322126,26.835106,0.1,310.28418,1626728036999,,,,
Fix,GT,37.4462766000,-122.2725201000,121.43781379329994,26.760538,0.1,311.18585,1626728037999,,,,
Fix,GT,37.4464353000,-122.2727474000,121.79276567452916,26.69858,0.1,311.05585,1626728038999,,,,
Fix,GT,37.4465933000,-122.2729743000,122.16677104670816,26.626114,0.1,311.13495,1626728039999,,,,
Fix,GT,37.4467513000,-122.2732004000,122.54573743324227,26.548258,0.1,311.21338,1626728040999,,,,
Fix,GT,37.4469088000,-122.2734253000,123.01070448603332,26.454626,0.1,311.29733,1626728041999,,,,
Fix,GT,37.4470658000,-122.2736494000,123.52971895387782,26.327389,0.1,311.1652,1626728042999,,,,
Fix,GT,37.4472214000,-122.2738731000,124.08965795873155,26.191704,0.1,310.97223,1626728043999,,,,
Fix,GT,37.4473760000,-122.2740956000,124.71962585086521,26.04875,0.1,311.09692,1626728044999,,,,
Fix,GT,37.4475301000,-122.2743166000,125.412592424982,25.914003,0.1,311.17673,1626728045999,,,,
Fix,GT,37.4476837000,-122.2745362000,126.13957994877637,25.77622,0.1,311.2178,1626728046999,,,,
Fix,GT,37.4478365000,-122.2747546000,126.85358433425836,25.65139,0.1,311.23492,1626728047999,,,,
Fix,GT,37.4479886000,-122.2749719000,127.58658595383031,25.504513,0.1,311.2352,1626728048999,,,,
Fix,GT,37.4481399000,-122.2751877000,128.32459461862163,25.43609,0.1,311.3562,1626728049999,,,,
Fix,GT,37.4482916000,-122.2754034000,129.0815787049214,25.474968,0.1,311.36926,1626728050999,,,,
Fix,GT,37.4484443000,-122.2756193000,129.80760591757644,25.632181,0.1,311.7266,1626728051999,,,,
Fix,GT,37.4485991000,-122.2758359000,130.5195620197719,25.8517,0.1,311.82962,1626728052999,,,,
Fix,GT,37.4487550000,-122.2760542000,131.25360973055285,25.979952,0.1,311.76364,1626728053999,,,,
Fix,GT,37.4489102000,-122.2762735000,131.99859013779496,25.89577,0.1,311.0654,1626728054999,,,,
Fix,GT,37.4490625000,-122.2764946000,132.73759338172567,25.828754,0.1,310.44437,1626728055999,,,,
Fix,GT,37.4492128000,-122.2767176000,133.43761958283176,25.880375,0.1,309.88882,1626728056999,,,,
Fix,GT,37.4493630000,-122.2769423000,134.12363877304233,25.999773,0.1,309.94827,1626728057999,,,,
Fix,GT,37.4495134000,-122.2771670000,134.77163861970712,25.813288,0.1,310.0004,1626728058999,,,,
Fix,GT,37.4496612000,-122.2773890000,135.34270674947493,25.38219,0.1,309.57095,1626728059999,,,,
Fix,GT,37.4498055000,-122.2776086000,135.77176096560288,24.98683,0.1,309.42435,1626728060999,,,,
Fix,GT,37.4499475000,-122.2778253000,136.2447239380199,24.6803,0.1,309.42728,1626728061999,,,,
Fix,GT,37.4500886000,-122.2780404000,136.64975698122726,24.651663,0.1,309.40372,1626728062999,,,,
Fix,GT,37.4502299000,-122.2782561000,137.0187651673441,24.744516,0.1,309.43228,1626728063999,,,,
Fix,GT,37.4503717000,-122.2784713000,137.46554525012834,24.63788,0.1,309.58673,1626728064999,,,,
Fix,GT,37.4505136000,-122.2786848000,137.7678315554158,24.542284,0.1,309.7835,1626728065999,,,,
Fix,GT,37.4506551000,-122.2788979000,138.02181465896956,24.58557,0.1,309.787,1626728066999,,,,
Fix,GT,37.4507974000,-122.2791123000,138.19285903405034,24.761208,0.1,309.5384,1626728067999,,,,
Fix,GT,37.4509398000,-122.2793288000,138.33488186811155,24.933048,0.1,309.4982,1626728068999,,,,
Fix,GT,37.4510837000,-122.2795465000,138.38793508440176,25.105917,0.1,309.74127,1626728069999,,,,
Fix,GT,37.4512290000,-122.2797649000,138.4069273258865,25.225163,0.1,309.77924,1626728070999,,,,
Fix,GT,37.4513743000,-122.2799847000,138.42293824327135,25.307156,0.1,309.44394,1626728071999,,,,
Fix,GT,37.4515198000,-122.2802057000,138.4179633125923,25.401419,0.1,309.41843,1626728072999,,,,
Fix,GT,37.4516650000,-122.2804284000,138.3829694768683,25.504936,0.1,308.9876,1626728073999,,,,
Fix,GT,37.4518090000,-122.2806524000,138.27001697359447,25.422829,0.1,308.7478,1626728074999,,,,
Fix,GT,37.4519530000,-122.2808763000,138.15700600134824,25.462774,0.1,308.9893,1626728075999,,,,
Fix,GT,37.4520984000,-122.2810990000,137.97604558529383,25.499273,0.1,309.4118,1626728076999,,,,
Fix,GT,37.4522453000,-122.2813214000,137.71610475659054,25.633957,0.1,309.75803,1626728077999,,,,
Fix,GT,37.4523937000,-122.2815448000,137.442127742921,25.828249,0.1,309.66455,1626728078999,,,,
Fix,GT,37.4525427000,-122.2817711000,137.08814363592683,26.102922,0.1,309.3507,1626728079999,,,,
Fix,GT,37.4526926000,-122.2820007000,136.71913543046503,26.405937,0.1,309.19498,1626728080999,,,,
Fix,GT,37.4528443000,-122.2822332000,136.3111751314218,26.774021,0.1,309.32672,1626728081999,,,,
Fix,GT,37.4529987000,-122.2824688000,135.82419537206624,27.195213,0.1,309.48187,1626728082999,,,,
Fix,GT,37.4531562000,-122.2827074000,135.27423711554457,27.651142,0.1,309.586,1626728083999,,,,
Fix,GT,37.4533168000,-122.2829500000,134.6762694708632,28.15038,0.1,309.6874,1626728084999,,,,
Fix,GT,37.4534803000,-122.2831966000,134.05723172491435,28.592098,0.1,309.67532,1626728085999,,,,
Fix,GT,37.4536458000,-122.2834476000,133.42824882118475,29.038605,0.1,309.2809,1626728086999,,,,
Fix,GT,37.4538126000,-122.2837034000,132.7822823819588,29.446747,0.1,309.2305,1626728087999,,,,
Fix,GT,37.4539812000,-122.2839613000,132.15431103863557,29.475698,0.1,309.33936,1626728088999,,,,
Fix,GT,37.4541491000,-122.2842183000,131.5052744970426,29.332113,0.1,309.42365,1626728089999,,,,
Fix,GT,37.4543175000,-122.2844733000,130.85024620057084,29.277996,0.1,309.71317,1626728090999,,,,
Fix,GT,37.4544863000,-122.2847276000,130.20627869708733,29.284851,0.1,309.69797,1626728091999,,,,
Fix,GT,37.4546552000,-122.2849820000,129.54826912182216,29.305328,0.1,309.6999,1626728092999,,,,
Fix,GT,37.4548236000,-122.2852371000,128.91825975576648,29.315264,0.1,309.4153,1626728093999,,,,
Fix,GT,37.4549913000,-122.2854935000,128.25627709957007,29.35374,0.1,309.26486,1626728094999,,,,
Fix,GT,37.4551590000,-122.2857505000,127.60628549824924,29.410698,0.1,309.25204,1626728095999,,,,
Fix,GT,37.4553276000,-122.2860074000,126.93531267344952,29.462856,0.1,309.5343,1626728096999,,,,
Fix,GT,37.4554966000,-122.2862643000,126.25228441556874,29.495754,0.1,309.31393,1626728097999,,,,
Fix,GT,37.4556652000,-122.2865225000,125.52032677609668,29.57257,0.1,309.29706,1626728098999,,,,
Fix,GT,37.4558354000,-122.2867807000,124.73531830191496,29.708733,0.1,309.86493,1626728099999,,,,
Fix,GT,37.4560089000,-122.2870372000,124.00729680506356,29.832664,0.1,310.65546,1626728100999,,,,
Fix,GT,37.4561868000,-122.2872903000,123.46416396690438,29.87823,0.1,312.1731,1626728101999,,,,
Fix,GT,37.4563711000,-122.2875366000,123.05410093760247,29.924192,0.1,314.10962,1626728102999,,,,
Fix,GT,37.4565632000,-122.2877746000,122.77702626035443,30.04589,0.1,316.44183,1626728103999,,,,
Fix,GT,37.4567633000,-122.2880043000,122.6179603422097,30.168371,0.1,318.5692,1626728104999,,,,
Fix,GT,37.4569701000,-122.2882263000,122.57393682549719,30.273983,0.1,320.24048,1626728105999,,,,
Fix,GT,37.4571828000,-122.2884412000,122.6798378749204,30.283806,0.1,322.03287,1626728106999,,,,
Fix,GT,37.4573999000,-122.2886456000,122.90481418193303,30.040901,0.1,324.186,1626728107999,,,,
Fix,GT,37.4576213000,-122.2888395000,123.29471928566545,29.901752,0.1,325.96228,1626728108999,,,,
Fix,GT,37.4578468000,-122.2890233000,123.78470717509435,29.800058,0.1,327.9598,1626728109999,,,,
Fix,GT,37.4580764000,-122.2891966000,124.3536428493012,29.682886,0.1,329.79535,1626728110999,,,,
Fix,GT,37.4583088000,-122.2893607000,124.9506677331965,29.532331,0.1,331.45535,1626728111999,,,,
Fix,GT,37.4585441000,-122.2895144000,125.5646064941684,29.37396,0.1,333.54004,1626728112999,,,,
Fix,GT,37.4587823000,-122.2896564000,126.1896163335523,29.194536,0.1,335.61813,1626728113999,,,,
Fix,GT,37.4590231000,-122.2897873000,126.77968975263957,29.065384,0.1,337.4062,1626728114999,,,,
Fix,GT,37.4592659000,-122.2899083000,127.38965783690946,28.944136,0.1,339.2772,1626728115999,,,,
Fix,GT,37.4595111000,-122.2900186000,127.89569189793838,28.886091,0.1,341.21973,1626728116999,,,,
Fix,GT,37.4597582000,-122.2901190000,128.5016747653699,28.793264,0.1,342.80325,1626728117999,,,,
Fix,GT,37.4600066000,-122.2902105000,129.09058937640657,28.661304,0.1,344.31213,1626728118999,,,,
Fix,GT,37.4602560000,-122.2902926000,129.63755683941963,28.583965,0.1,346.43942,1626728119999,,,,
Fix,GT,37.4605074000,-122.2903634000,130.34764277263548,28.646463,0.1,348.41263,1626728120999,,,,
Fix,GT,37.4607617000,-122.2904229000,130.92568039623893,28.805433,0.1,350.35266,1626728121999,,,,
Fix,GT,37.4610190000,-122.2904725000,131.49564284553526,28.98146,0.1,352.09683,1626728122999,,,,
Fix,GT,37.4612790000,-122.2905121000,132.0866558384987,29.179035,0.1,354.2398,1626728123999,,,,
Fix,GT,37.4615415000,-122.2905391000,132.68463804538533,29.271568,0.1,356.30692,1626728124999,,,,
Fix,GT,37.4618048000,-122.2905564000,133.40957408479971,29.25499,0.1,357.4235,1626728125999,,,,
Fix,GT,37.4620681000,-122.2905693000,134.18956301875733,29.242666,0.1,357.9405,1626728126999,,,,
Fix,GT,37.4623315000,-122.2905799000,134.81062467979427,29.271303,0.1,358.329,1626728127999,,,,
Fix,GT,37.4625955000,-122.2905891000,135.39664808316775,29.333374,0.1,358.4144,1626728128999,,,,
Fix,GT,37.4628598000,-122.2905980000,135.9856225461226,29.376265,0.1,358.45074,1626728129999,,,,
Fix,GT,37.4631246000,-122.2906068000,136.5936192271747,29.388824,0.1,358.45422,1626728130999,,,,
Fix,GT,37.4633888000,-122.2906153000,137.23662443560897,29.249914,0.1,358.6557,1626728131999,,,,
Fix,GT,37.4636500000,-122.2906237000,138.01055158239524,28.760487,0.1,358.37845,1626728132999,,,,
Fix,GT,37.4639071000,-122.2906350000,138.77257984189237,28.342348,0.1,357.5523,1626728133999,,,,
Fix,GT,37.4641607000,-122.2906517000,139.32876423986454,28.053871,0.1,356.67926,1626728134999,,,,
Fix,GT,37.4644117000,-122.2906724000,139.70975091566288,27.786345,0.1,355.98163,1626728135999,,,,
Fix,GT,37.4646604000,-122.2906955000,140.0907576294485,27.576878,0.1,355.72037,1626728136999,,,,
Fix,GT,37.4649073000,-122.2907202000,140.46575758315157,27.39265,0.1,355.21667,1626728137999,,,,
Fix,GT,37.4651522000,-122.2907491000,140.78679184215252,27.188047,0.1,353.97467,1626728138999,,,,
Fix,GT,37.4653945000,-122.2907861000,141.0918145295991,27.024984,0.1,352.14847,1626728139999,,,,
Fix,GT,37.4656355000,-122.2908325000,141.30394004751543,27.059645,0.1,350.47977,1626728140999,,,,
Fix,GT,37.4658752000,-122.2908856000,141.638806490555,26.970842,0.1,349.8952,1626728141999,,,,
Fix,GT,37.4661143000,-122.2909377000,141.92806992280222,26.844746,0.1,350.32867,1626728143000,,,,
Fix,GT,37.4663508000,-122.2909888000,142.26210894622636,26.396046,0.1,350.15677,1626728144000,,,,
Fix,GT,37.4665811000,-122.2910410000,142.62909423842046,25.475523,0.099,349.3522,1626728145000,,,,
Fix,GT,37.4668013000,-122.2910973000,142.8569828933043,24.3908,0.1,347.7057,1626728146000,,,,
Fix,GT,37.4670111000,-122.2911577000,142.82486335040434,23.31285,0.1,346.62393,1626728147000,,,,
Fix,GT,37.4672094000,-122.2912204000,142.53576813799344,22.036627,0.1,345.36905,1626728148000,,,,
Fix,GT,37.4673955000,-122.2912839000,142.08762554840246,20.792248,0.099,344.39246,1626728149000,,,,
Fix,GT,37.4675703000,-122.2913477000,141.48176414706666,19.738739,0.1,343.51483,1626728150000,,,,
Fix,GT,37.4677363000,-122.2914120000,140.9405902892985,18.7857,0.1,342.20328,1626728151000,,,,
Fix,GT,37.4678917000,-122.2914794000,140.22452022805177,17.718721,0.1,340.04697,1626728152000,,,,
Fix,GT,37.4680366000,-122.2915479000,139.40749697697365,16.584263,0.1,339.0586,1626728153000,,,,
Fix,GT,37.4681711000,-122.2916105000,138.57151513979602,15.273617,0.1,340.16025,1626728154000,,,,
Fix,GT,37.4682978000,-122.2916647000,137.73054024254884,14.334437,0.1,341.98056,1626728155000,,,,
Fix,GT,37.4684150000,-122.2917097000,136.9946551506846,12.710149,0.1,343.34576,1626728156000,,,,
Fix,GT,37.4685155000,-122.2917467000,136.5187634466863,10.583041,0.1,343.54767,1626728157000,,,,
Fix,GT,37.4685973000,-122.2917792000,136.23887568796215,8.387048,0.1,341.58926,1626728158000,,,,
Fix,GT,37.4686557000,-122.2918096000,136.1329175142646,5.607034,0.1,335.52267,1626728159000,,,,
Fix,GT,37.4686883000,-122.2918328000,136.07592627146897,2.732414,0.1,330.4395,1626728160000,,,,
Fix,GT,37.4687013000,-122.2918434000,136.05395165695177,0.7949307,0.099,328.47086,1626728161000,,,,
Fix,GT,37.4687028000,-122.2918446000,136.04194230270295,0.12488407,0.1,328.2812,1626728162000,,,,
Fix,GT,37.4687065000,-122.2918477000,136.03594843793468,0.9276591,0.1,327.81406,1626728163000,,,,
Fix,GT,37.4687194000,-122.2918589000,136.0249516685129,2.6138215,0.1,326.41037,1626728164000,,,,
Fix,GT,37.4687443000,-122.2918825000,136.05997943814813,4.227102,0.1,322.7139,1626728165000,,,,
Fix,GT,37.4687747000,-122.2919223000,136.21703195585164,5.4855165,0.1,311.70343,1626728166000,,,,
Fix,GT,37.4687957000,-122.2919857000,136.3630809894345,6.534173,0.1,287.39795,1626728167000,,,,
Fix,GT,37.4687927000,-122.2920661000,136.48197792637518,7.6261587,0.1,261.7563,1626728168000,,,,
Fix,GT,37.4687644000,-122.2921513000,136.473946341846,8.752184,0.099,242.88326,1626728169000,,,,
Fix,GT,37.4687129000,-122.2922383000,136.48994274193956,10.380292,0.1,229.63048,1626728170000,,,,
Fix,GT,37.4686416000,-122.2923261000,136.46794909268874,11.689391,0.1,222.868,1626728171000,,,,
Fix,GT,37.4685607000,-122.2924198000,136.41191213700404,12.742768,0.1,222.72295,1626728172000,,,,
Fix,GT,37.4684747000,-122.2925215000,136.23982205230215,13.441035,0.1,223.7146,1626728173000,,,,
Fix,GT,37.4683879000,-122.2926306000,135.9467473226188,13.75282,0.1,226.26788,1626728174000,,,,
Fix,GT,37.4683059000,-122.2927477000,135.5277415144268,13.776798,0.1,230.09285,1626728175000,,,,
Fix,GT,37.4682264000,-122.2928653000,135.0116570121391,13.457792,0.1,228.36885,1626728176000,,,,
Fix,GT,37.4681435000,-122.2929710000,134.4026591769956,12.609072,0.1,224.12364,1626728177000,,,,
Fix,GT,37.4680662000,-122.2930662000,133.74465927397063,11.5466385,0.1,225.50475,1626728178000,,,,
Fix,GT,37.4680032000,-122.2931622000,133.0715590304535,10.304823,0.1,234.2331,1626728179000,,,,
Fix,GT,37.4679644000,-122.2932596000,132.35749943354045,9.167413,0.1,249.04462,1626728180000,,,,
Fix,GT,37.4679600000,-122.2933610000,131.47970893425745,9.241895,0.1,275.47778,1626728181000,,,,
Fix,GT,37.4679942000,-122.2934570000,131.11883147707783,9.840069,0.1,301.18817,1626728182000,,,,
Fix,GT,37.4680569000,-122.2935501000,131.10402148088386,11.848414,0.1,313.40787,1626728183000,,,,
Fix,GT,37.4681391000,-122.2936478000,131.21103877240193,13.143268,0.099,317.39618,1626728184000,,,,
Fix,GT,37.4682299000,-122.2937508000,131.3130138933304,14.054419,0.099,317.78055,1626728185000,,,,
Fix,GT,37.4683281000,-122.2938614000,131.657189120775,15.208776,0.1,317.9491,1626728186000,,,,
Fix,GT,37.4684327000,-122.2939783000,132.1952689584717,15.85928,0.1,318.45682,1626728187000,,,,
Fix,GT,37.4685401000,-122.2940944000,132.8933079043141,15.474037,0.1,319.90448,1626728188000,,,,
Fix,GT,37.4686478000,-122.2941947000,133.61634221369525,14.256162,0.1,326.3524,1626728189000,,,,
Fix,GT,37.4687570000,-122.2942625000,134.409362619205,13.078407,0.1,339.13605,1626728190000,,,,
Fix,GT,37.4688689000,-122.2942897000,135.26639152420432,12.47334,0.1,355.549,1626728191000,,,,
Fix,GT,37.4689792000,-122.2942772000,136.12935641409055,12.315991,0.1,11.001777,1626728192000,,,,
Fix,GT,37.4690834000,-122.2942271000,136.93637550436438,12.6407995,0.1,26.761341,1626728193000,,,,
Fix,GT,37.4691754000,-122.2941410000,137.74135475070733,13.00463,0.1,42.565132,1626728194000,,,,
Fix,GT,37.4692480000,-122.2940240000,138.54535846038016,13.28189,0.1,58.03373,1626728195000,,,,
Fix,GT,37.4692920000,-122.2938864000,139.35729727016886,13.12731,0.1,74.6575,1626728196000,,,,
Fix,GT,37.4693018000,-122.2937390000,140.12135276143817,13.236381,0.1,91.832436,1626728197000,,,,
Fix,GT,37.4692761000,-122.2935927000,140.88529044194274,13.462922,0.1,109.07468,1626728198000,,,,
Fix,GT,37.4692164000,-122.2934590000,141.56026186258816,13.924798,0.1,125.158195,1626728199000,,,,
Fix,GT,37.4691300000,-122.2933379000,142.15920968290115,14.964879,0.1,134.93593,1626728200000,,,,
Fix,GT,37.4690270000,-122.2932185000,142.6921926803203,16.193956,0.1,138.19197,1626728201000,,,,
Fix,GT,37.4689114000,-122.2930946000,143.146146120197,17.587214,0.1,140.27231,1626728202000,,,,
Fix,GT,37.4687823000,-122.2929659000,143.5330343768334,19.06802,0.1,142.34645,1626728203000,,,,
Fix,GT,37.4686391000,-122.2928305000,143.56991064127627,20.765013,0.1,143.71011,1626728204000,,,,
Fix,GT,37.4684821000,-122.2926926000,143.43387482416983,21.751713,0.1,146.16324,1626728205000,,,,
Fix,GT,37.4683138000,-122.2925590000,143.26685111095128,22.441505,0.1,148.98592,1626728206000,,,,
Fix,GT,37.4681355000,-122.2924315000,143.05085573682118,23.10721,0.1,151.31418,1626728207000,,,,
Fix,GT,37.4679471000,-122.2923084000,142.8168161111405,24.100954,0.1,153.36922,1626728208000,,,,
Fix,GT,37.4677471000,-122.2921877000,142.64288644564914,25.171759,0.1,155.0715,1626728209000,,,,
Fix,GT,37.4675357000,-122.2920693000,142.4188301404359,26.176043,0.1,156.77322,1626728210000,,,,
Fix,GT,37.4673149000,-122.2919556000,142.1187256373371,26.848694,0.1,158.47986,1626728211000,,,,
Fix,GT,37.4670856000,-122.2918468000,141.85184540320577,27.572205,0.1,159.94386,1626728212000,,,,
Fix,GT,37.4668483000,-122.2917419000,141.6217924293287,28.228094,0.1,161.02507,1626728213000,,,,
Fix,GT,37.4666055000,-122.2916402000,141.3308735802632,28.487648,0.1,161.9806,1626728214000,,,,
Fix,GT,37.4663617000,-122.2915446000,141.05678763541192,28.221048,0.1,163.26799,1626728215000,,,,
Fix,GT,37.4661187000,-122.2914566000,140.75681567597826,27.944939,0.1,164.57684,1626728216000,,,,
Fix,GT,37.4658761000,-122.2913781000,140.47487288809367,27.662914,0.099,166.40576,1626728217000,,,,
Fix,GT,37.4656342000,-122.2913097000,140.24179433660356,27.441336,0.1,168.083,1626728218000,,,,
Fix,GT,37.4653915000,-122.2912506000,139.9827616121172,27.504093,0.1,169.8023,1626728219000,,,,
Fix,GT,37.4651458000,-122.2911991000,139.64472259717905,27.870981,0.1,171.17816,1626728220000,,,,
Fix,GT,37.4648952000,-122.2911547000,139.34681854955042,28.314873,0.1,172.69908,1626728221000,,,,
Fix,GT,37.4646397000,-122.2911181000,139.01475083794824,28.781069,0.1,174.23138,1626728222000,,,,
Fix,GT,37.4643794000,-122.2910895000,138.63776982600433,29.238762,0.1,175.62297,1626728223000,,,,
Fix,GT,37.4641146000,-122.2910682000,138.2257493081685,29.657305,0.1,176.9096,1626728224000,,,,
Fix,GT,37.4638460000,-122.2910538000,137.85981016264304,29.974781,0.1,177.99866,1626728225000,,,,
Fix,GT,37.4635759000,-122.2910437000,137.4667218997543,29.925076,0.1,178.34518,1626728226000,,,,
Fix,GT,37.4633073000,-122.2910341000,136.96364910129927,29.735098,0.1,178.29424,1626728227000,,,,
Fix,GT,37.4630399000,-122.2910239000,136.42170952745795,29.676289,0.1,178.20102,1626728228000,,,,
Fix,GT,37.4627728000,-122.2910135000,135.84866589054215,29.6343,0.099,178.17586,1626728229000,,,,
Fix,GT,37.4625062000,-122.2910031000,135.37378214906425,29.556042,0.099,178.1844,1626728230000,,,,
Fix,GT,37.4622406000,-122.2909923000,135.0618263689219,29.430187,0.1,178.17485,1626728231000,,,,
Fix,GT,37.4619762000,-122.2909816000,134.80785848663285,29.287027,0.1,178.126,1626728232000,,,,
Fix,GT,37.4617132000,-122.2909683000,134.52376310181424,29.159676,0.1,177.19835,1626728233000,,,,
Fix,GT,37.4614513000,-122.2909467000,134.06470026799454,29.096798,0.1,175.27838,1626728234000,,,,
Fix,GT,37.4611905000,-122.2909134000,133.48265319559314,29.07742,0.1,173.21013,1626728235000,,,,
Fix,GT,37.4609307000,-122.2908712000,132.88267306582716,29.075594,0.1,172.20647,1626728236000,,,,
Fix,GT,37.4606717000,-122.2908226000,132.29269163702693,29.042067,0.1,170.67757,1626728237000,,,,
Fix,GT,37.4604145000,-122.2907633000,131.70968536046408,28.999264,0.1,168.48706,1626728238000,,,,
Fix,GT,37.4601597000,-122.2906924000,131.18672473526277,28.921448,0.1,166.67998,1626728239000,,,,
Fix,GT,37.4599077000,-122.2906119000,130.55866768287706,28.788713,0.1,164.76726,1626728240000,,,,
Fix,GT,37.4596589000,-122.2905205000,129.97870861791685,28.767076,0.1,162.69772,1626728241000,,,,
Fix,GT,37.4594127000,-122.2904191000,129.40368390991677,28.70046,0.1,161.08136,1626728242000,,,,
Fix,GT,37.4591695000,-122.2903095000,128.8906885707516,28.671469,0.1,159.32448,1626728243000,,,,
Fix,GT,37.4589294000,-122.2901900000,128.33867996741878,28.692934,0.1,157.50404,1626728244000,,,,
Fix,GT,37.4586919000,-122.2900616000,127.76666302813808,28.699991,0.1,155.94391,1626728245000,,,,
Fix,GT,37.4584572000,-122.2899248000,127.14563549198563,28.739777,0.1,154.20023,1626728246000,,,,
Fix,GT,37.4582258000,-122.2897785000,126.57264867777913,28.772703,0.1,152.36226,1626728247000,,,,
Fix,GT,37.4579981000,-122.2896225000,125.99469100686672,28.803501,0.1,150.3692,1626728248000,,,,
Fix,GT,37.4577743000,-122.2894568000,125.44968822881171,28.89663,0.099,148.83061,1626728249000,,,,
Fix,GT,37.4575523000,-122.2892832000,124.97272598637669,29.170702,0.1,147.31079,1626728250000,,,,
Fix,GT,37.4573324000,-122.2891002000,124.5518062513363,29.409159,0.1,145.51907,1626728251000,,,,
Fix,GT,37.4571157000,-122.2889068000,124.31880839419092,29.594881,0.1,143.62221,1626728252000,,,,
Fix,GT,37.4569033000,-122.2887032000,124.11884683459965,29.74587,0.1,141.68681,1626728253000,,,,
Fix,GT,37.4566952000,-122.2884901000,124.02391252294426,29.85766,0.099,139.85132,1626728254000,,,,
Fix,GT,37.4564922000,-122.2882679000,124.02600377391761,29.941975,0.1,137.96503,1626728255000,,,,
Fix,GT,37.4562951000,-122.2880364000,124.21103335493467,29.972942,0.1,135.81696,1626728256000,,,,
Fix,GT,37.4561048000,-122.2877961000,124.47814333339825,29.960646,0.1,133.93172,1626728257000,,,,
Fix,GT,37.4559207000,-122.2875485000,124.8551860528889,29.94287,0.1,132.1752,1626728258000,,,,
Fix,GT,37.4557425000,-122.2872946000,125.29415753760817,29.911263,0.1,130.67653,1626728259000,,,,
Fix,GT,37.4555689000,-122.2870361000,125.62305552742556,29.912674,0.1,129.70918,1626728260000,,,,
Fix,GT,37.4553968000,-122.2867755000,125.89511087121475,29.937977,0.1,129.54167,1626728261000,,,,
Fix,GT,37.4552253000,-122.2865145000,126.30223453404054,29.91608,0.1,129.48163,1626728262000,,,,
Fix,GT,37.4550534000,-122.2862535000,126.87425491889184,30.03601,0.1,129.51111,1626728263000,,,,
Fix,GT,37.4548804000,-122.2859915000,127.57627168450713,30.167086,0.1,129.68845,1626728264000,,,,
Fix,GT,37.4547056000,-122.2857285000,128.2242807722862,30.439104,0.1,129.74881,1626728265000,,,,
Fix,GT,37.4545300000,-122.2854626000,128.87726489827338,30.594173,0.1,129.41835,1626728266000,,,,
Fix,GT,37.4543549000,-122.2851952000,129.56223097152065,30.654882,0.1,129.2909,1626728267000,,,,
Fix,GT,37.4541794000,-122.2849271000,130.26223028401444,30.736,0.1,129.3891,1626728268000,,,,
Fix,GT,37.4540042000,-122.2846597000,130.90125623806463,30.4554,0.1,129.51497,1626728269000,,,,
Fix,GT,37.4538295000,-122.2843953000,131.5432871923973,30.38214,0.1,129.5471,1626728270000,,,,
Fix,GT,37.4536549000,-122.2841299000,132.22127356125927,30.528187,0.1,129.45013,1626728271000,,,,
Fix,GT,37.4534790000,-122.2838634000,132.91528880289428,30.705544,0.1,129.59692,1626728272000,,,,
Fix,GT,37.4533018000,-122.2835955000,133.6162309836322,30.892643,0.1,129.65071,1626728273000,,,,
Fix,GT,37.4531240000,-122.2833256000,134.26425896753668,31.076876,0.1,129.43646,1626728274000,,,,
Fix,GT,37.4529456000,-122.2830534000,134.85222350581768,31.278389,0.1,129.36351,1626728275000,,,,
Fix,GT,37.4527666000,-122.2827806000,135.41319661698756,31.120934,0.099,129.50621,1626728276000,,,,
Fix,GT,37.4525888000,-122.2825104000,135.90817043939296,30.918707,0.1,129.44058,1626728277000,,,,
Fix,GT,37.4524119000,-122.2822411000,136.37615214264815,30.876545,0.1,129.35397,1626728278000,,,,
Fix,GT,37.4522353000,-122.2819709000,136.7540928567909,30.924053,0.1,129.24734,1626728279000,,,,
Fix,GT,37.4520587000,-122.2817003000,137.1030912554092,30.9782,0.1,129.25299,1626728280000,,,,
Fix,GT,37.4518820000,-122.2814299000,137.35505389620448,30.833336,0.1,129.4508,1626728281000,,,,
Fix,GT,37.4517049000,-122.2811617000,137.57005652421472,30.83956,0.1,129.66895,1626728282000,,,,
Fix,GT,37.4515269000,-122.2808930000,137.74700768901167,30.988018,0.1,129.63977,1626728283000,,,,
Fix,GT,37.4513485000,-122.2806226000,137.86099592444663,31.127234,0.1,129.5238,1626728284000,,,,
Fix,GT,37.4511697000,-122.2803503000,137.92295475332887,31.289368,0.099,129.23225,1626728285000,,,,
Fix,GT,37.4509914000,-122.2800753000,137.92297821921778,31.452904,0.1,129.00386,1626728286000,,,,
Fix,GT,37.4508122000,-122.2797984000,137.83289956775894,31.663298,0.099,129.07272,1626728287000,,,,
Fix,GT,37.4506311000,-122.2795202000,137.71888618229352,31.896133,0.1,129.32622,1626728288000,,,,
Fix,GT,37.4504474000,-122.2792413000,137.500850419068,32.133858,0.1,129.67403,1626728289000,,,,
Fix,GT,37.4502621000,-122.2789605000,137.27480246120714,32.299957,0.1,129.5043,1626728290000,,,,
Fix,GT,37.4500773000,-122.2786801000,136.94078320207052,32.049076,0.1,129.56616,1626728291000,,,,
Fix,GT,37.4498946000,-122.2784022000,136.5047320814819,31.716993,0.099,129.39848,1626728292000,,,,
Fix,GT,37.4497141000,-122.2781269000,136.0977626623322,31.37908,0.1,129.41135,1626728293000,,,,
Fix,GT,37.4495352000,-122.2778542000,135.5796870886872,31.14498,0.1,129.50716,1626728294000,,,,
Fix,GT,37.4493566000,-122.2775843000,135.07166821961522,30.935682,0.1,129.7407,1626728295000,,,,
Fix,GT,37.4491783000,-122.2773164000,134.4436483024047,30.86618,0.1,129.98898,1626728296000,,,,
Fix,GT,37.4489991000,-122.2770494000,133.75861523540146,30.91314,0.1,130.17104,1626728297000,,,,
Fix,GT,37.4488188000,-122.2767827000,132.98658014657877,30.981554,0.1,130.45201,1626728298000,,,,
Fix,GT,37.4486362000,-122.2765171000,132.1315131968393,31.076952,0.1,130.96297,1626728299000,,,,
Fix,GT,37.4484518000,-122.2762521000,131.22852447334634,31.149176,0.1,131.22221,1626728300000,,,,
Fix,GT,37.4482664000,-122.2759877000,130.34950740379958,31.184229,0.1,131.36089,1626728301000,,,,
Fix,GT,37.4480806000,-122.2757232000,129.4585367870231,31.199106,0.1,131.44904,1626728302000,,,,
Fix,GT,37.4478942000,-122.2754591000,128.54947998566854,31.216125,0.1,131.41057,1626728303000,,,,
Fix,GT,37.4477088000,-122.2751941000,127.65349012208206,31.173967,0.1,131.12907,1626728304000,,,,
Fix,GT,37.4475242000,-122.2749285000,126.74652613951764,31.167515,0.1,130.9553,1626728305000,,,,
Fix,GT,37.4473397000,-122.2746629000,125.85353195905157,31.213354,0.1,131.14053,1626728306000,,,,
Fix,GT,37.4471540000,-122.2743971000,124.95451101931266,31.336191,0.1,131.25465,1626728307000,,,,
Fix,GT,37.4469668000,-122.2741302000,124.0935519208507,31.586,0.1,131.33792,1626728308000,,,,
Fix,GT,37.4467777000,-122.2738612000,123.33059589016757,31.895084,0.1,131.39465,1626728309000,,,,
Fix,GT,37.4465867000,-122.2735894000,122.65667656526384,32.219463,0.1,131.31671,1626728310000,,,,
Fix,GT,37.4463942000,-122.2733145000,122.12278360508543,32.463394,0.1,131.35658,1626728311000,,,,
Fix,GT,37.4462010000,-122.2730404000,121.81782158400273,32.320217,0.1,131.59477,1626728312000,,,,
Fix,GT,37.4460079000,-122.2727661000,121.57185579526127,32.43368,0.1,131.21887,1626728313000,,,,
Fix,GT,37.4458169000,-122.2724876000,121.41884175036634,32.58383,0.1,130.2073,1626728314000,,,,
Fix,GT,37.4456302000,-122.2722036000,121.29689874830419,32.44942,0.1,128.69931,1626728315000,,,,
Fix,GT,37.4454519000,-122.2719152000,121.22991897264217,32.174324,0.1,126.83475,1626728316000,,,,
Fix,GT,37.4452818000,-122.2716223000,121.23895990993452,31.92867,0.1,125.23746,1626728317000,,,,
Fix,GT,37.4451201000,-122.2713266000,121.32601169184937,31.535686,0.1,123.55712,1626728318000,,,,
Fix,GT,37.4449672000,-122.2710278000,121.50207144439159,31.303833,0.1,121.76222,1626728319000,,,,
Fix,GT,37.4448226000,-122.2707253000,121.82107488742972,31.104954,0.1,120.111305,1626728320000,,,,
Fix,GT,37.4446860000,-122.2704197000,122.12707873239773,30.906696,0.1,118.4646,1626728321000,,,,
Fix,GT,37.4445571000,-122.2701115000,122.4901563752401,30.688179,0.1,116.93074,1626728322000,,,,
Fix,GT,37.4444357000,-122.2698011000,122.86617491039526,30.48189,0.1,115.40425,1626728323000,,,,
Fix,GT,37.4443222000,-122.2694884000,123.15515739986822,30.31227,0.1,113.55721,1626728324000,,,,
Fix,GT,37.4442168000,-122.2691733000,123.47214165904165,30.148586,0.1,112.05039,1626728325000,,,,
Fix,GT,37.4441188000,-122.2688569000,123.90108074082491,29.928886,0.1,110.38475,1626728326000,,,,
Fix,GT,37.4440286000,-122.2685391000,124.2291027562953,29.785027,0.1,108.7982,1626728327000,,,,
Fix,GT,37.4439462000,-122.2682196000,124.57611019671432,29.633133,0.1,107.1505,1626728328000,,,,
Fix,GT,37.4438707000,-122.2678993000,124.91709518516181,29.490297,0.1,105.89096,1626728329000,,,,
Fix,GT,37.4438009000,-122.2675781000,125.25912783101391,29.4293,0.1,104.52812,1626728330000,,,,
Fix,GT,37.4437383000,-122.2672549000,125.61210444263703,29.43601,0.1,102.83532,1626728331000,,,,
Fix,GT,37.4436836000,-122.2669294000,125.94510468807941,29.417477,0.1,101.073296,1626728332000,,,,
Fix,GT,37.4436366000,-122.2666022000,126.2761060328214,29.411312,0.1,99.375206,1626728333000,,,,
Fix,GT,37.4435972000,-122.2662736000,126.57907927638563,29.423101,0.1,97.78293,1626728334000,,,,
Fix,GT,37.4435650000,-122.2659434000,126.86808302764811,29.439304,0.1,96.27118,1626728335000,,,,
Fix,GT,37.4435392000,-122.2656121000,127.09701648777784,29.471886,0.1,94.912476,1626728336000,,,,
Fix,GT,37.4435202000,-122.2652798000,127.2760126999401,29.471737,0.1,93.35664,1626728337000,,,,
Fix,GT,37.4435082000,-122.2649470000,127.42100504476852,29.507097,0.1,91.77899,1626728338000,,,,
Fix,GT,37.4435039000,-122.2646133000,127.50395475755529,29.561321,0.1,90.166435,1626728339000,,,,
Fix,GT,37.4435068000,-122.2642787000,127.50486175106337,29.652311,0.1,88.576584,1626728340000,,,,
Fix,GT,37.4435168000,-122.2639433000,127.45904741203621,29.734962,0.1,87.252846,1626728341000,,,,
Fix,GT,37.4435334000,-122.2636074000,127.42993454439059,29.8076,0.1,85.83461,1626728342000,,,,
Fix,GT,37.4435570000,-122.2632716000,127.39286142754862,29.86318,0.1,83.89886,1626728343000,,,,
Fix,GT,37.4435897000,-122.2629358000,127.14079513097832,29.998138,0.1,82.216064,1626728344000,,,,
Fix,GT,37.4436284000,-122.2625993000,126.81875474183454,30.131329,0.1,81.58618,1626728345000,,,,
Fix,GT,37.4436670000,-122.2622635000,126.47580175162767,29.912394,0.1,82.106995,1626728346000,,,,
Fix,GT,37.4437028000,-122.2619299000,126.13982636494858,29.70615,0.1,82.4341,1626728347000,,,,
Fix,GT,37.4437384000,-122.2615970000,125.88785621723193,29.759935,0.1,82.221436,1626728348000,,,,
Fix,GT,37.4437745000,-122.2612634000,125.70085513847289,29.833721,0.1,82.21747,1626728349000,,,,
Fix,GT,37.4438110000,-122.2609288000,125.5118498110582,29.941133,0.1,82.04669,1626728350000,,,,
Fix,GT,37.4438485000,-122.2605933000,125.33683311087685,30.009575,0.099,81.92505,1626728351000,,,,
Fix,GT,37.4438858000,-122.2602570000,125.09681239443569,30.083279,0.099,82.17873,1626728352000,,,,
Fix,GT,37.4439208000,-122.2599194000,124.76676987631191,30.161688,0.099,82.92055,1626728353000,,,,
Fix,GT,37.4439524000,-122.2595806000,124.3467408902018,30.210323,0.1,83.6817,1626728354000,,,,
Fix,GT,37.4439777000,-122.2592410000,123.87774440311043,30.15078,0.1,85.75049,1626728355000,,,,
Fix,GT,37.4439930000,-122.2589007000,123.377690278048,30.19645,0.1,87.6015,1626728356000,,,,
Fix,GT,37.4440001000,-122.2585593000,122.80265292884418,30.278072,0.1,89.51517,1626728357000,,,,
Fix,GT,37.4439969000,-122.2582166000,122.13761464294954,30.388206,0.1,91.79343,1626728358000,,,,
Fix,GT,37.4439841000,-122.2578731000,121.41156980018184,30.445137,0.1,93.53299,1626728359000,,,,
Fix,GT,37.4439625000,-122.2575310000,120.60955622919201,30.308556,0.1,95.510574,1626728360000,,,,
Fix,GT,37.4439314000,-122.2571916000,119.73451288249433,30.16161,0.1,97.53912,1626728361000,,,,
Fix,GT,37.4438916000,-122.2568551000,118.80048676183223,30.063562,0.1,99.36492,1626728362000,,,,
Fix,GT,37.4438428000,-122.2565215000,117.79346145874214,29.994675,0.1,101.30486,1626728363000,,,,
Fix,GT,37.4437856000,-122.2561899000,116.70044992843384,30.067009,0.1,103.19182,1626728364000,,,,
Fix,GT,37.4437195000,-122.2558600000,115.56439687353395,30.159595,0.1,104.94706,1626728365000,,,,
Fix,GT,37.4436445000,-122.2555318000,114.32436286816403,30.2994,0.1,106.887,1626728366000,,,,
Fix,GT,37.4435602000,-122.2552053000,113.09038193762967,30.45904,0.1,109.01398,1626728367000,,,,
Fix,GT,37.4434657000,-122.2548810000,111.83736861788121,30.670456,0.1,111.00891,1626728368000,,,,
Fix,GT,37.4433617000,-122.2545586000,110.5893479403439,30.894365,0.1,112.85902,1626728369000,,,,
Fix,GT,37.4432491000,-122.2542380000,109.33833824288826,31.109142,0.099,114.65023,1626728370000,,,,
Fix,GT,37.4431274000,-122.2539202000,108.05834087662615,31.31451,0.1,116.588715,1626728371000,,,,
Fix,GT,37.4429967000,-122.2536056000,106.79035350067448,31.503548,0.1,118.52239,1626728372000,,,,
Fix,GT,37.4428561000,-122.2532953000,105.51637707604274,31.671452,0.099,120.730484,1626728373000,,,,
Fix,GT,37.4427051000,-122.2529907000,104.24833919508615,31.82214,0.1,123.02447,1626728374000,,,,
Fix,GT,37.4425437000,-122.2526925000,102.96832706485691,31.971615,0.1,125.294525,1626728375000,,,,
