% program   : RTKLIB ver.demo5 gdsc_2022
% inp file  : supplemental\gnss_log.obs
% inp file  : ..\slac1770.20o
% inp file  : ..\BRDM00DLR_S_20201770000_01D_MN.rnx
% obs start : 2020/06/25 00:34:30.4 GPST (week2111 347670.4s)
% obs end   : 2020/06/25 00:56:09.4 GPST (week2111 348969.4s)
% pos mode  : Kinematic
% freqs     : L1+L2/E5b+L5
% solution  : Combined-No Phase Reset
% elev mask : 5.0 deg
% dynamics  : on
% tidecorr  : off
% ionos opt : Broadcast
% tropo opt : Saastamoinen
% ephemeris : Broadcast
% navi sys  : GPS GLONASS Galileo
% amb res   : OFF
% amb glo   : OFF
% val thres : 3.0
% antenna1  :                       ( 0.0000  0.0000  0.0000)
% antenna2  :                       ( 0.0000  0.0000  0.0000)
% ref pos   : 37.416519040-122.204268280   63.7780
%
% (lat/lon/height=WGS84/ellipsoidal,Q=1:fix,2:float,3:sbas,4:dgps,5:single,6:ppp,ns=# of satellites)
%  GPST          latitude(deg) longitude(deg)  height(m)   Q  ns   sdn(m)   sde(m)   sdu(m)  sdne(m)  sdeu(m)  sdun(m) age(s)  ratio
2111 347670.441   37.428291158 -122.072529883   -26.8797   2  16   0.8382   0.6606   1.3893   0.2919  -0.7512  -0.8174   0.44    0.0
2111 347671.441   37.428294970 -122.072526513   -27.5215   2  14   0.6695   0.5221   1.0379   0.2287  -0.5971  -0.6241   1.44    0.0
2111 347672.441   37.428289723 -122.072522457   -27.4407   2  15   0.5188   0.4061   0.8074   0.1939  -0.4682  -0.4921   2.44    0.0
2111 347673.441   37.428284666 -122.072524890   -26.4833   2  18   0.3743   0.3264   0.6239   0.1263  -0.3616  -0.3493   3.44    0.0
2111 347674.441   37.428278479 -122.072531134   -26.8946   2  16   0.2955   0.2761   0.5177   0.0891  -0.2931  -0.2713   4.44    0.0
2111 347675.441   37.428269155 -122.072547413   -27.2114   2  18   0.2500   0.2461   0.4525   0.0694  -0.2565  -0.2253   5.44    0.0
2111 347676.441   37.428265572 -122.072578620   -27.2657   2  20   0.2214   0.2247   0.4142   0.0570  -0.2319  -0.1943   6.44    0.0
2111 347677.441   37.428277645 -122.072615375   -27.3088   2  19   0.2055   0.2158   0.3952   0.0405  -0.2213  -0.1721   7.44    0.0
2111 347678.441   37.428304654 -122.072659744   -27.5554   2  20   0.1833   0.2035   0.3680  -0.0097  -0.2061  -0.1428   8.44    0.0
2111 347679.441   37.428339516 -122.072728099   -27.8843   2  18   0.1672   0.1953   0.3491  -0.0310  -0.1955  -0.1232   9.44    0.0
2111 347680.441   37.428371286 -122.072819242   -27.9660   2  18   0.1555   0.1877   0.3337  -0.0396  -0.1862  -0.1072  10.44    0.0
2111 347681.441   37.428384682 -122.072930933   -27.9692   2  16   0.1459   0.1787   0.3192  -0.0412  -0.1761  -0.1000  11.44    0.0
2111 347682.441   37.428388251 -122.073054302   -28.1356   2  16   0.1400   0.1730   0.3090  -0.0339  -0.1694  -0.0984  12.44    0.0
2111 347683.441   37.428386066 -122.073191005   -28.0362   2  15   0.1361   0.1696   0.3031  -0.0270  -0.1649  -0.0977  13.44    0.0
2111 347684.441   37.428383272 -122.073337360   -27.7254   2  15   0.1322   0.1656   0.2964  -0.0213  -0.1606  -0.0958  14.44    0.0
2111 347685.441   37.428382820 -122.073493777   -27.4904   2  18   0.1276   0.1615   0.2890  -0.0134  -0.1565  -0.0932 -14.56    0.0
2111 347686.441   37.428382157 -122.073660521   -27.5454   2  17   0.1233   0.1575   0.2818  -0.0023  -0.1520  -0.0916 -13.56    0.0
2111 347687.441   37.428380698 -122.073829624   -27.7280   2  18   0.1194   0.1540   0.2746   0.0106  -0.1488  -0.0891 -12.56    0.0
2111 347688.441   37.428380304 -122.073997563   -27.8400   2  17   0.1170   0.1514   0.2696   0.0153  -0.1462  -0.0878 -11.56    0.0
2111 347689.441   37.428379566 -122.074171809   -28.0256   2  17   0.1148   0.1488   0.2651   0.0185  -0.1439  -0.0866 -10.56    0.0
2111 347690.441   37.428378310 -122.074350055   -28.1313   2  18   0.1118   0.1458   0.2594   0.0198  -0.1407  -0.0844  -9.56    0.0
2111 347691.441   37.428377535 -122.074532520   -28.3458   2  18   0.1092   0.1432   0.2540   0.0219  -0.1383  -0.0831  -8.56    0.0
2111 347692.441   37.428377855 -122.074722074   -28.7704   2  15   0.1072   0.1411   0.2493   0.0216  -0.1359  -0.0817  -7.56    0.0
2111 347693.441   37.428379888 -122.074918378   -29.1923   2  15   0.1047   0.1386   0.2440   0.0212  -0.1331  -0.0797  -6.56    0.0
2111 347694.441   37.428381165 -122.075120471   -29.7745   2  13   0.1031   0.1368   0.2402   0.0212  -0.1310  -0.0787  -5.56    0.0
2111 347695.441   37.428382291 -122.075324589   -30.0952   2  16   0.1013   0.1347   0.2361   0.0212  -0.1288  -0.0772  -4.56    0.0
2111 347696.441   37.428383412 -122.075527503   -30.2172   2  16   0.1006   0.1332   0.2333   0.0223  -0.1273  -0.0767  -3.56    0.0
2111 347697.441   37.428383974 -122.075729445   -30.1972   2  18   0.0992   0.1315   0.2301   0.0231  -0.1259  -0.0757  -2.56    0.0
2111 347698.441   37.428384565 -122.075929307   -30.2894   2  16   0.0977   0.1301   0.2281   0.0237  -0.1246  -0.0750  -1.56    0.0
2111 347699.441   37.428383867 -122.076126399   -30.3730   2  15   0.0963   0.1285   0.2253   0.0237  -0.1229  -0.0739  -0.56    0.0
2111 347700.441   37.428376333 -122.076322482   -30.2876   2  18   0.0946   0.1266   0.2226   0.0223  -0.1203  -0.0723   0.44    0.0
2111 347701.441   37.428357126 -122.076517608   -30.0715   2  20   0.0927   0.1238   0.2181   0.0202  -0.1169  -0.0695   1.44    0.0
2111 347702.441   37.428323604 -122.076709749   -29.8927   2  20   0.0913   0.1214   0.2145   0.0198  -0.1147  -0.0685   2.44    0.0
2111 347703.441   37.428280426 -122.076896711   -29.9102   2  17   0.0895   0.1191   0.2107   0.0194  -0.1119  -0.0672   3.44    0.0
2111 347704.441   37.428233493 -122.077081011   -29.2637   2  17   0.0883   0.1174   0.2078   0.0197  -0.1098  -0.0666   4.44    0.0
2111 347705.441   37.428190381 -122.077251139   -29.3455   2  17   0.0867   0.1152   0.2042   0.0192  -0.1075  -0.0652   5.44    0.0
2111 347706.441   37.428158163 -122.077414394   -29.4333   2  18   0.0861   0.1139   0.2025   0.0188  -0.1056  -0.0644   6.44    0.0
2111 347707.441   37.428138858 -122.077566334   -29.5579   2  17   0.0859   0.1130   0.2008   0.0190  -0.1047  -0.0636   7.44    0.0
2111 347708.441   37.428129153 -122.077699908   -29.5322   2  13   0.0863   0.1132   0.2007   0.0180  -0.1034  -0.0639   8.44    0.0
2111 347709.441   37.428127739 -122.077809531   -29.5159   2  12   0.0863   0.1122   0.2007   0.0207  -0.1028  -0.0652   9.44    0.0
2111 347710.441   37.428127082 -122.077892424   -29.5207   2  14   0.0852   0.1110   0.1981   0.0205  -0.1024  -0.0637  10.44    0.0
2111 347711.441   37.428126759 -122.077956279   -29.6537   2  14   0.0836   0.1100   0.1960   0.0198  -0.1013  -0.0623  11.44    0.0
2111 347712.441   37.428119404 -122.078019241   -29.7090   2  18   0.0817   0.1082   0.1925   0.0194  -0.0990  -0.0604  12.44    0.0
2111 347713.441   37.428094353 -122.078080166   -29.8682   2  17   0.0813   0.1064   0.1903   0.0203  -0.0972  -0.0617  13.44    0.0
2111 347714.441   37.428048447 -122.078133276   -29.8338   2  19   0.0804   0.1037   0.1866   0.0198  -0.0951  -0.0612  14.44    0.0
2111 347715.441   37.427981760 -122.078170427   -29.8543   2  19   0.0796   0.1029   0.1846   0.0186  -0.0941  -0.0601 -14.56    0.0
2111 347716.441   37.427897397 -122.078190352   -30.0453   2  18   0.0787   0.1023   0.1832   0.0175  -0.0937  -0.0585 -13.56    0.0
2111 347717.441   37.427795103 -122.078194433   -30.0499   2  17   0.0786   0.1021   0.1825   0.0154  -0.0932  -0.0577 -12.56    0.0
2111 347718.441   37.427681185 -122.078191735   -29.9469   2  18   0.0780   0.1013   0.1809   0.0159  -0.0924  -0.0575 -11.56    0.0
2111 347719.441   37.427554535 -122.078183281   -30.1463   2  15   0.0780   0.1012   0.1807   0.0157  -0.0918  -0.0578 -10.56    0.0
2111 347720.441   37.427419081 -122.078167448   -30.1910   2  11   0.0786   0.1016   0.1800   0.0103  -0.0916  -0.0586  -9.56    0.0
2111 347721.441   37.427284127 -122.078151132   -30.4871   2  15   0.0782   0.1018   0.1796   0.0075  -0.0898  -0.0591  -8.56    0.0
2111 347722.441   37.427142323 -122.078130062   -30.2472   2  19   0.0774   0.1006   0.1781   0.0099  -0.0898  -0.0583  -7.56    0.0
2111 347723.441   37.426994537 -122.078112573   -30.0597   2  21   0.0768   0.0997   0.1768   0.0119  -0.0896  -0.0580  -6.56    0.0
2111 347724.441   37.426839026 -122.078097653   -29.9228   2  16   0.0764   0.0991   0.1755   0.0124  -0.0894  -0.0579  -5.56    0.0
2111 347725.441   37.426677408 -122.078086018   -29.7010   2  17   0.0763   0.0988   0.1745   0.0119  -0.0892  -0.0581  -4.56    0.0
2111 347726.441   37.426511990 -122.078080824   -29.6996   2  16   0.0762   0.0985   0.1737   0.0108  -0.0891  -0.0581  -3.56    0.0
2111 347727.441   37.426344529 -122.078080063   -29.6672   2  18   0.0759   0.0980   0.1727   0.0105  -0.0889  -0.0580  -2.56    0.0
2111 347728.441   37.426174197 -122.078083399   -29.8682   2  19   0.0764   0.0980   0.1736   0.0086  -0.0889  -0.0589  -1.56    0.0
2111 347729.441   37.425999645 -122.078090719   -29.7815   2  17   0.0756   0.0974   0.1721   0.0074  -0.0882  -0.0584  -0.56    0.0
2111 347730.441   37.425824191 -122.078101917   -29.7430   2  18   0.0750   0.0969   0.1706   0.0059  -0.0877  -0.0578   0.44    0.0
2111 347731.441   37.425652237 -122.078116376   -29.6950   2  19   0.0744   0.0964   0.1695   0.0010  -0.0870  -0.0571   1.44    0.0
2111 347732.441   37.425491386 -122.078129109   -29.6385   2  19   0.0738   0.0960   0.1683  -0.0056  -0.0865  -0.0562   2.44    0.0
2111 347733.441   37.425350522 -122.078137156   -29.5427   2  19   0.0733   0.0956   0.1671  -0.0075  -0.0860  -0.0555   3.44    0.0
2111 347734.441   37.425232870 -122.078142894   -29.4436   2  19   0.0727   0.0953   0.1662  -0.0085  -0.0856  -0.0545   4.44    0.0
2111 347735.441   37.425139213 -122.078146664   -29.4207   2  18   0.0725   0.0950   0.1656  -0.0097  -0.0851  -0.0543   5.44    0.0
2111 347736.441   37.425069745 -122.078148761   -29.2068   2  18   0.0725   0.0948   0.1651  -0.0105  -0.0847  -0.0541   6.44    0.0
2111 347737.441   37.425015858 -122.078149504   -29.2961   2  18   0.0722   0.0946   0.1645  -0.0114  -0.0845  -0.0537   7.44    0.0
2111 347738.441   37.424981497 -122.078149667   -29.2093   2  14   0.0724   0.0946   0.1642  -0.0134  -0.0841  -0.0536   8.44    0.0
2111 347739.441   37.424963157 -122.078149421   -29.2101   2  17   0.0724   0.0944   0.1637  -0.0148  -0.0840  -0.0528   9.44    0.0
2111 347740.441   37.424952966 -122.078147654   -29.1473   2  15   0.0720   0.0940   0.1633  -0.0133  -0.0835  -0.0529  10.44    0.0
2111 347741.441   37.424952499 -122.078147615   -29.3336   2  13   0.0753   0.0944   0.1683   0.0026  -0.0857  -0.0611  11.44    0.0
2111 347742.441   37.424951892 -122.078147209   -29.1194   2  11   0.0754   0.0940   0.1687  -0.0122  -0.0835  -0.0619  12.44    0.0
2111 347743.441   37.424950206 -122.078147788   -28.7369   2  10   0.0760   0.0941   0.1700  -0.0039  -0.0851  -0.0639  13.44    0.0
2111 347744.441   37.424949670 -122.078147598   -28.6645   2  10   0.0759   0.0940   0.1683  -0.0153  -0.0828  -0.0624  14.44    0.0
2111 347745.441   37.424949059 -122.078147977   -28.5168   2  16   0.0749   0.0938   0.1669  -0.0138  -0.0831  -0.0610 -14.56    0.0
2111 347746.441   37.424948642 -122.078148068   -28.4131   2  17   0.0742   0.0931   0.1658  -0.0142  -0.0825  -0.0600 -13.56    0.0
2111 347747.441   37.424946219 -122.078147885   -28.4774   2  18   0.0737   0.0930   0.1650  -0.0143  -0.0826  -0.0589 -12.56    0.0
2111 347748.441   37.424944774 -122.078147800   -28.4212   2  12   0.0734   0.0926   0.1642  -0.0152  -0.0821  -0.0585 -11.56    0.0
2111 347749.441   37.424944171 -122.078148191   -28.4495   2  18   0.0738   0.0925   0.1644  -0.0167  -0.0820  -0.0592 -10.56    0.0
2111 347750.441   37.424943170 -122.078148504   -28.4465   2  16   0.0737   0.0924   0.1637  -0.0173  -0.0816  -0.0590  -9.56    0.0
2111 347751.441   37.424941866 -122.078148800   -28.3631   2  17   0.0736   0.0921   0.1626  -0.0186  -0.0810  -0.0579  -8.56    0.0
2111 347752.441   37.424936409 -122.078148526   -28.3571   2  17   0.0735   0.0922   0.1624  -0.0203  -0.0802  -0.0579  -7.56    0.0
2111 347753.441   37.424920295 -122.078148422   -28.4875   2  17   0.0731   0.0917   0.1618  -0.0200  -0.0795  -0.0575  -6.56    0.0
2111 347754.441   37.424887085 -122.078146177   -28.3432   2  17   0.0727   0.0914   0.1609  -0.0201  -0.0793  -0.0570  -5.56    0.0
2111 347755.441   37.424836035 -122.078143705   -28.2476   2  18   0.0726   0.0910   0.1601  -0.0197  -0.0790  -0.0564  -4.56    0.0
2111 347756.441   37.424761423 -122.078141808   -28.2991   2  17   0.0722   0.0908   0.1595  -0.0199  -0.0786  -0.0560  -3.56    0.0
2111 347757.441   37.424667469 -122.078140103   -28.4222   2  15   0.0722   0.0907   0.1591  -0.0206  -0.0784  -0.0555  -2.56    0.0
2111 347758.441   37.424561413 -122.078137870   -28.4343   2  16   0.0725   0.0907   0.1591  -0.0214  -0.0779  -0.0546  -1.56    0.0
2111 347759.441   37.424445423 -122.078131094   -28.1995   2  16   0.0726   0.0906   0.1584  -0.0224  -0.0779  -0.0546  -0.56    0.0
2111 347760.441   37.424322315 -122.078122354   -28.0459   2  17   0.0718   0.0899   0.1575  -0.0209  -0.0774  -0.0546   0.44    0.0
2111 347761.441   37.424195058 -122.078112202   -28.0636   2  13   0.0717   0.0896   0.1568  -0.0205  -0.0776  -0.0545   1.44    0.0
2111 347762.441   37.424068278 -122.078098421   -28.0654   2  17   0.0723   0.0892   0.1570  -0.0207  -0.0777  -0.0558   2.44    0.0
2111 347763.441   37.423945493 -122.078084746   -27.9707   2  15   0.0718   0.0889   0.1563  -0.0198  -0.0774  -0.0552   3.44    0.0
2111 347764.441   37.423828969 -122.078075170   -28.2887   2  16   0.0719   0.0886   0.1564  -0.0197  -0.0772  -0.0555   4.44    0.0
2111 347765.441   37.423721007 -122.078066258   -28.1698   2  16   0.0713   0.0883   0.1551  -0.0192  -0.0765  -0.0554   5.44    0.0
2111 347766.441   37.423628236 -122.078061013   -28.2578   2  17   0.0706   0.0876   0.1535  -0.0184  -0.0767  -0.0550   6.44    0.0
2111 347767.441   37.423549589 -122.078067714   -28.2639   2  17   0.0700   0.0871   0.1525  -0.0182  -0.0765  -0.0548   7.44    0.0
2111 347768.441   37.423482725 -122.078095042   -28.1704   2  16   0.0699   0.0866   0.1525  -0.0185  -0.0759  -0.0550   8.44    0.0
2111 347769.441   37.423436317 -122.078154557   -28.4582   2  16   0.0692   0.0857   0.1511  -0.0185  -0.0756  -0.0540   9.44    0.0
2111 347770.441   37.423414701 -122.078237619   -28.5543   2  18   0.0696   0.0856   0.1512  -0.0177  -0.0756  -0.0546  10.44    0.0
2111 347771.441   37.423410505 -122.078339559   -28.5309   2  18   0.0695   0.0849   0.1504  -0.0169  -0.0747  -0.0538  11.44    0.0
2111 347772.441   37.423407955 -122.078461875   -28.3791   2  16   0.0687   0.0844   0.1496  -0.0170  -0.0742  -0.0534  12.44    0.0
2111 347773.441   37.423403932 -122.078603205   -28.2639   2  20   0.0681   0.0839   0.1488  -0.0169  -0.0737  -0.0531  13.44    0.0
2111 347774.441   37.423398432 -122.078763533   -28.1510   2  18   0.0676   0.0835   0.1481  -0.0167  -0.0733  -0.0528  14.44    0.0
2111 347775.441   37.423391632 -122.078940297   -27.9632   2  19   0.0670   0.0831   0.1473  -0.0166  -0.0728  -0.0524 -14.56    0.0
2111 347776.441   37.423384216 -122.079129217   -27.7907   2  19   0.0666   0.0828   0.1467  -0.0164  -0.0725  -0.0522 -13.56    0.0
2111 347777.441   37.423375798 -122.079326303   -27.6626   2  16   0.0661   0.0824   0.1460  -0.0163  -0.0721  -0.0518 -12.56    0.0
2111 347778.441   37.423365279 -122.079528805   -27.5052   2  14   0.0656   0.0821   0.1455  -0.0163  -0.0718  -0.0515 -11.56    0.0
2111 347779.441   37.423351615 -122.079733340   -27.3317   2  18   0.0650   0.0816   0.1447  -0.0163  -0.0713  -0.0511 -10.56    0.0
2111 347780.441   37.423335210 -122.079940597   -27.1818   2  18   0.0642   0.0810   0.1433  -0.0163  -0.0705  -0.0503  -9.56    0.0
2111 347781.441   37.423316806 -122.080148523   -27.1778   2  18   0.0635   0.0805   0.1424  -0.0161  -0.0700  -0.0496  -8.56    0.0
2111 347782.441   37.423297131 -122.080352680   -27.0363   2  17   0.0631   0.0800   0.1414  -0.0160  -0.0694  -0.0491  -7.56    0.0
2111 347783.441   37.423276082 -122.080552759   -27.0868   2  21   0.0627   0.0793   0.1400  -0.0153  -0.0686  -0.0485  -6.56    0.0
2111 347784.441   37.423257735 -122.080749315   -27.2897   2  18   0.0619   0.0786   0.1389  -0.0152  -0.0679  -0.0477  -5.56    0.0
2111 347785.441   37.423243168 -122.080942798   -27.3888   2  19   0.0613   0.0781   0.1386  -0.0151  -0.0674  -0.0474  -4.56    0.0
2111 347786.441   37.423229020 -122.081133143   -27.4981   2  20   0.0608   0.0776   0.1378  -0.0148  -0.0669  -0.0471  -3.56    0.0
2111 347787.441   37.423214036 -122.081320333   -27.6185   2  20   0.0601   0.0770   0.1368  -0.0146  -0.0663  -0.0465  -2.56    0.0
2111 347788.441   37.423198176 -122.081504905   -27.7923   2  20   0.0597   0.0767   0.1362  -0.0144  -0.0659  -0.0461  -1.56    0.0
2111 347789.441   37.423182768 -122.081686650   -27.9304   2  20   0.0590   0.0760   0.1351  -0.0141  -0.0653  -0.0454  -0.56    0.0
2111 347790.441   37.423168229 -122.081866280   -28.1064   2  19   0.0586   0.0756   0.1344  -0.0139  -0.0648  -0.0451   0.44    0.0
2111 347791.441   37.423151973 -122.082042582   -28.2471   2  17   0.0581   0.0750   0.1335  -0.0136  -0.0642  -0.0447   1.44    0.0
2111 347792.441   37.423135133 -122.082216845   -28.3620   2  17   0.0576   0.0745   0.1326  -0.0133  -0.0637  -0.0442   2.44    0.0
2111 347793.441   37.423119215 -122.082391405   -28.5864   2  18   0.0570   0.0740   0.1316  -0.0131  -0.0632  -0.0437   3.44    0.0
2111 347794.441   37.423106292 -122.082564382   -28.6747   2  16   0.0566   0.0736   0.1308  -0.0128  -0.0628  -0.0431   4.44    0.0
2111 347795.441   37.423097340 -122.082735421   -28.8316   2  16   0.0561   0.0732   0.1301  -0.0127  -0.0625  -0.0427   5.44    0.0
2111 347796.441   37.423090860 -122.082903520   -28.8527   2  19   0.0555   0.0727   0.1290  -0.0125  -0.0620  -0.0422   6.44    0.0
2111 347797.441   37.423087128 -122.083068450   -28.8915   2  18   0.0552   0.0725   0.1283  -0.0124  -0.0619  -0.0418   7.44    0.0
2111 347798.441   37.423086538 -122.083230516   -28.9570   2  16   0.0547   0.0721   0.1275  -0.0123  -0.0616  -0.0414   8.44    0.0
2111 347799.441   37.423086656 -122.083395286   -29.0451   2  19   0.0543   0.0717   0.1267  -0.0121  -0.0613  -0.0409   9.44    0.0
2111 347800.441   37.423088907 -122.083565470   -29.0975   2  18   0.0539   0.0712   0.1258  -0.0119  -0.0609  -0.0405  10.44    0.0
2111 347801.441   37.423094933 -122.083743630   -28.9977   2  16   0.0539   0.0711   0.1257  -0.0121  -0.0605  -0.0394  11.44    0.0
2111 347802.441   37.423104877 -122.083928633   -28.9273   2  16   0.0536   0.0708   0.1252  -0.0124  -0.0603  -0.0390  12.44    0.0
2111 347803.441   37.423117453 -122.084120931   -28.8990   2  16   0.0540   0.0708   0.1252  -0.0135  -0.0603  -0.0391  13.44    0.0
2111 347804.441   37.423133953 -122.084320535   -28.8218   2  17   0.0537   0.0704   0.1246  -0.0135  -0.0600  -0.0387  14.44    0.0
2111 347805.441   37.423154021 -122.084524562   -28.7943   2  15   0.0532   0.0700   0.1242  -0.0145  -0.0598  -0.0380 -14.56    0.0
2111 347806.441   37.423176669 -122.084731181   -28.6906   2  18   0.0528   0.0699   0.1244  -0.0153  -0.0589  -0.0384 -13.56    0.0
2111 347807.441   37.423201120 -122.084939165   -28.5152   2  19   0.0530   0.0695   0.1237  -0.0159  -0.0585  -0.0380 -12.56    0.0
2111 347808.441   37.423228698 -122.085147193   -28.0301   2  18   0.0523   0.0690   0.1229  -0.0157  -0.0584  -0.0374 -11.56    0.0
2111 347809.441   37.423258319 -122.085352200   -27.3606   2  16   0.0519   0.0687   0.1225  -0.0158  -0.0582  -0.0369 -10.56    0.0
2111 347810.441   37.423288235 -122.085552375   -26.6413   2  19   0.0518   0.0683   0.1219  -0.0160  -0.0579  -0.0363  -9.56    0.0
2111 347811.441   37.423322303 -122.085748782   -25.9610   2  20   0.0514   0.0679   0.1215  -0.0158  -0.0576  -0.0359  -8.56    0.0
2111 347812.441   37.423360270 -122.085942481   -25.4873   2  18   0.0519   0.0679   0.1213  -0.0168  -0.0575  -0.0354  -7.56    0.0
2111 347813.441   37.423397656 -122.086135976   -25.0252   2  18   0.0516   0.0676   0.1207  -0.0164  -0.0572  -0.0346  -6.56    0.0
2111 347814.441   37.423436759 -122.086326781   -24.8411   2  18   0.0511   0.0675   0.1202  -0.0165  -0.0570  -0.0338  -5.56    0.0
2111 347815.441   37.423476916 -122.086518749   -24.8679   2  17   0.0507   0.0674   0.1196  -0.0164  -0.0565  -0.0328  -4.56    0.0
2111 347816.441   37.423517807 -122.086713394   -24.9710   2  19   0.0503   0.0671   0.1189  -0.0169  -0.0565  -0.0323  -3.56    0.0
2111 347817.441   37.423559491 -122.086910094   -24.9720   2  19   0.0499   0.0668   0.1181  -0.0169  -0.0563  -0.0317  -2.56    0.0
2111 347818.441   37.423600095 -122.087111415   -25.6074   2  16   0.0498   0.0667   0.1179  -0.0166  -0.0558  -0.0306  -1.56    0.0
2111 347819.441   37.423642269 -122.087315995   -26.1691   2  18   0.0494   0.0664   0.1171  -0.0170  -0.0557  -0.0304  -0.56    0.0
2111 347820.441   37.423684976 -122.087525394   -26.8769   2  20   0.0492   0.0662   0.1166  -0.0171  -0.0556  -0.0301   0.44    0.0
2111 347821.441   37.423728853 -122.087738973   -27.6846   2  19   0.0488   0.0660   0.1159  -0.0172  -0.0554  -0.0296   1.44    0.0
2111 347822.441   37.423773487 -122.087954839   -28.2759   2  21   0.0485   0.0657   0.1157  -0.0173  -0.0550  -0.0294   2.44    0.0
2111 347823.441   37.423817376 -122.088169791   -28.6668   2  18   0.0484   0.0656   0.1152  -0.0173  -0.0549  -0.0284   3.44    0.0
2111 347824.441   37.423858797 -122.088382935   -28.9061   2  18   0.0485   0.0655   0.1148  -0.0177  -0.0546  -0.0281   4.44    0.0
2111 347825.441   37.423898174 -122.088590895   -29.0262   2  17   0.0481   0.0654   0.1142  -0.0178  -0.0545  -0.0273   5.44    0.0
2111 347826.441   37.423934852 -122.088790142   -29.0773   2  18   0.0482   0.0652   0.1142  -0.0177  -0.0542  -0.0253   6.44    0.0
2111 347827.441   37.423965264 -122.088978194   -29.1454   2  15   0.0477   0.0650   0.1135  -0.0179  -0.0543  -0.0255   7.44    0.0
2111 347828.441   37.423984809 -122.089154038   -29.1818   2  15   0.0477   0.0655   0.1136  -0.0186  -0.0550  -0.0246   8.44    0.0
2111 347829.441   37.423990342 -122.089314067   -29.2382   2  15   0.0474   0.0651   0.1128  -0.0182  -0.0543  -0.0248   9.44    0.0
2111 347830.441   37.423987393 -122.089456010   -29.1842   2  16   0.0485   0.0651   0.1146  -0.0184  -0.0529  -0.0263  10.44    0.0
2111 347831.441   37.423977816 -122.089582458   -29.0943   2  15   0.0479   0.0651   0.1141  -0.0182  -0.0528  -0.0253  11.44    0.0
2111 347832.441   37.423958737 -122.089700749   -28.9531   2  17   0.0474   0.0645   0.1129  -0.0176  -0.0524  -0.0249  12.44    0.0
2111 347833.441   37.423933969 -122.089808477   -28.8981   2  18   0.0473   0.0639   0.1122  -0.0168  -0.0521  -0.0251  13.44    0.0
2111 347834.441   37.423915071 -122.089904439   -28.7767   2  17   0.0473   0.0633   0.1116  -0.0169  -0.0517  -0.0248  14.44    0.0
2111 347835.441   37.423916983 -122.089990632   -28.7240   2  16   0.0470   0.0635   0.1123  -0.0166  -0.0508  -0.0238 -14.56    0.0
2111 347836.441   37.423941573 -122.090062392   -28.3824   2  18   0.0470   0.0632   0.1129  -0.0159  -0.0505  -0.0237 -13.56    0.0
2111 347837.441   37.423987959 -122.090115358   -28.5417   2  18   0.0467   0.0631   0.1127  -0.0152  -0.0493  -0.0223 -12.56    0.0
2111 347838.441   37.424049183 -122.090163189   -28.6406   2  14   0.0477   0.0627   0.1140  -0.0135  -0.0473  -0.0170 -11.56    0.0
2111 347839.441   37.424119839 -122.090219288   -28.7963   2  15   0.0476   0.0632   0.1145  -0.0117  -0.0462  -0.0170 -10.56    0.0
2111 347840.441   37.424198200 -122.090291881   -28.6176   2  15   0.0473   0.0625   0.1162  -0.0131  -0.0469  -0.0167  -9.56    0.0
2111 347841.441   37.424283437 -122.090373765   -28.5513   2  13   0.0470   0.0624   0.1157  -0.0130  -0.0457  -0.0142  -8.56    0.0
2111 347842.441   37.424369364 -122.090470666   -28.3089   2  17   0.0466   0.0618   0.1156  -0.0139  -0.0452  -0.0120  -7.56    0.0
2111 347843.441   37.424451745 -122.090584022   -28.2554   2  16   0.0464   0.0616   0.1164  -0.0142  -0.0441  -0.0093  -6.56    0.0
2111 347844.441   37.424528387 -122.090710495   -28.2088   2  16   0.0472   0.0617   0.1161  -0.0168  -0.0451   0.0062  -5.56    0.0
2111 347845.441   37.424595834 -122.090845160   -28.3966   2  15   0.0465   0.0611   0.1147  -0.0160  -0.0450  -0.0052  -4.56    0.0
2111 347846.441   37.424654434 -122.090988826   -28.4295   2  16   0.0465   0.0609   0.1138  -0.0151  -0.0449  -0.0063  -3.56    0.0
2111 347847.441   37.424702542 -122.091141028   -28.4888   2  17   0.0469   0.0609   0.1138  -0.0158  -0.0449   0.0080  -2.56    0.0
2111 347848.441   37.424740685 -122.091295775   -28.5989   2  16   0.0469   0.0609   0.1140  -0.0154  -0.0445   0.0109  -1.56    0.0
2111 347849.441   37.424772799 -122.091450061   -28.6658   2  14   0.0472   0.0612   0.1150  -0.0146  -0.0435   0.0157  -0.56    0.0
2111 347850.441   37.424803052 -122.091600482   -28.5481   2  16   0.0469   0.0611   0.1143  -0.0143  -0.0431   0.0148   0.44    0.0
2111 347851.441   37.424835056 -122.091752887   -28.5404   2  17   0.0477   0.0619   0.1150  -0.0154  -0.0412   0.0126   1.44    0.0
2111 347852.441   37.424868209 -122.091908538   -28.6479   2  12   0.0469   0.0619   0.1150  -0.0141  -0.0419   0.0128   2.44    0.0
2111 347853.441   37.424910664 -122.092070049   -27.9570   2  13   0.0489   0.0619   0.1211  -0.0140  -0.0415   0.0275   3.44    0.0
2111 347854.441   37.424956207 -122.092232114   -27.8299   2  16   0.0548   0.0611   0.1180  -0.0120  -0.0409   0.0268   4.44    0.0
2111 347855.441   37.425006144 -122.092392054   -27.6863   2  14   0.0543   0.0612   0.1172  -0.0171  -0.0412   0.0256   5.44    0.0
2111 347856.441   37.425061309 -122.092549072   -27.8569   2  12   0.0571   0.0615   0.1178  -0.0208  -0.0435   0.0309   6.44    0.0
2111 347857.441   37.425121017 -122.092701473   -28.2416   2  14   0.0557   0.0605   0.1168  -0.0185  -0.0432   0.0303   7.44    0.0
2111 347858.441   37.425183393 -122.092851139   -28.1739   2  14   0.0587   0.0602   0.1167  -0.0161  -0.0430   0.0294   8.44    0.0
2111 347859.441   37.425248810 -122.092997690   -28.1918   2  16   0.0569   0.0604   0.1172  -0.0112  -0.0409   0.0299   9.44    0.0
2111 347860.441   37.425319500 -122.093142816   -28.2200   2  15   0.0548   0.0595   0.1151  -0.0127  -0.0413   0.0285  10.44    0.0
2111 347861.441   37.425395882 -122.093283825   -28.3529   2  14   0.0543   0.0597   0.1150  -0.0113  -0.0406   0.0294  11.44    0.0
2111 347862.441   37.425475119 -122.093420178   -28.3350   2  14   0.0555   0.0595   0.1160  -0.0114  -0.0407   0.0331  12.44    0.0
2111 347863.441   37.425553604 -122.093551740   -28.3658   2  13   0.0548   0.0595   0.1156  -0.0112  -0.0406   0.0316  13.44    0.0
2111 347864.441   37.425634581 -122.093677673   -28.1594   2  15   0.0543   0.0596   0.1158  -0.0121  -0.0412   0.0326  14.44    0.0
2111 347865.441   37.425718927 -122.093796825   -28.1066   2  13   0.0537   0.0597   0.1154  -0.0126  -0.0397   0.0318 -14.56    0.0
2111 347866.441   37.425798992 -122.093910021   -28.0633   2  14   0.0529   0.0592   0.1155  -0.0123  -0.0398   0.0329 -13.56    0.0
2111 347867.441   37.425878605 -122.094016691   -28.1422   2  13   0.0521   0.0590   0.1142  -0.0134  -0.0405   0.0315 -12.56    0.0
2111 347868.441   37.425962139 -122.094120509   -28.0685   2  17   0.0517   0.0597   0.1146  -0.0149  -0.0390   0.0305 -11.56    0.0
2111 347869.441   37.426052744 -122.094224014   -28.1082   2  18   0.0510   0.0591   0.1142  -0.0143  -0.0387   0.0300 -10.56    0.0
2111 347870.441   37.426151263 -122.094325357   -28.1829   2  18   0.0505   0.0587   0.1138  -0.0147  -0.0388   0.0291  -9.56    0.0
2111 347871.441   37.426256202 -122.094426733   -28.3724   2  14   0.0502   0.0590   0.1138  -0.0154  -0.0378   0.0286  -8.56    0.0
2111 347872.441   37.426364436 -122.094527865   -28.4521   2  16   0.0497   0.0587   0.1138  -0.0147  -0.0372   0.0287  -7.56    0.0
2111 347873.441   37.426474097 -122.094627420   -28.5490   2  17   0.0493   0.0580   0.1125  -0.0148  -0.0379   0.0281  -6.56    0.0
2111 347874.441   37.426587418 -122.094722613   -28.4746   2  15   0.0490   0.0577   0.1118  -0.0149  -0.0380   0.0277  -5.56    0.0
2111 347875.441   37.426703428 -122.094806295   -28.4239   2  16   0.0487   0.0572   0.1110  -0.0147  -0.0381   0.0274  -4.56    0.0
2111 347876.441   37.426815790 -122.094879442   -28.4392   2  17   0.0485   0.0568   0.1106  -0.0146  -0.0380   0.0272  -3.56    0.0
2111 347877.441   37.426923701 -122.094947476   -28.4288   2  16   0.0482   0.0564   0.1100  -0.0145  -0.0379   0.0269  -2.56    0.0
2111 347878.441   37.427025075 -122.095014194   -28.4277   2  16   0.0480   0.0562   0.1094  -0.0142  -0.0379   0.0265  -1.56    0.0
2111 347879.441   37.427117901 -122.095084127   -28.4348   2  17   0.0478   0.0561   0.1095  -0.0141  -0.0372   0.0268  -0.56    0.0
2111 347880.441   37.427208414 -122.095160003   -28.4503   2  14   0.0476   0.0559   0.1090  -0.0141  -0.0370   0.0269   0.44    0.0
2111 347881.441   37.427300010 -122.095247343   -28.5247   2  17   0.0475   0.0559   0.1094  -0.0141  -0.0363   0.0274   1.44    0.0
2111 347882.441   37.427391561 -122.095346485   -28.5517   2  16   0.0473   0.0558   0.1101  -0.0140  -0.0354   0.0280   2.44    0.0
2111 347883.441   37.427478780 -122.095456773   -28.7047   2  12   0.0478   0.0565   0.1118  -0.0149  -0.0346   0.0299   3.44    0.0
2111 347884.441   37.427557909 -122.095575192   -27.9613   2  13   0.0506   0.0581   0.1165  -0.0064  -0.0280   0.0360   4.44    0.0
2111 347885.441   37.427632115 -122.095698528   -27.3816   2  15   0.0518   0.0577   0.1159  -0.0055  -0.0286   0.0388   5.44    0.0
2111 347886.441   37.427697501 -122.095826023   -27.6563   2  16   0.0524   0.0567   0.1147  -0.0100  -0.0320   0.0338   6.44    0.0
2111 347887.441   37.427753495 -122.095960165   -27.6636   2  12   0.0528   0.0565   0.1148  -0.0136  -0.0345   0.0300   7.44    0.0
2111 347888.441   37.427804171 -122.096098679   -27.5395   2  11   0.0616   0.0569   0.1137  -0.0183  -0.0336   0.0259   8.44    0.0
2111 347889.441   37.427847708 -122.096247963   -27.0455   2  15   0.0742   0.0588   0.1242  -0.0245  -0.0455   0.0469   9.44    0.0
2111 347890.441   37.427877537 -122.096397007   -27.1621   2  16   0.0634   0.0574   0.1197  -0.0180  -0.0404   0.0399  10.44    0.0
2111 347891.441   37.427902933 -122.096547861   -27.1291   2  16   0.0593   0.0597   0.1224  -0.0145  -0.0368   0.0385  11.44    0.0
2111 347892.441   37.427922101 -122.096701137   -27.3913   2  14   0.0581   0.0600   0.1219  -0.0125  -0.0404   0.0380  12.44    0.0
2111 347893.441   37.427929844 -122.096853910   -27.4662   2  14   0.0569   0.0634   0.1262  -0.0142  -0.0488   0.0389  13.44    0.0
2111 347894.441   37.427926497 -122.097004017   -27.5799   2  17   0.0593   0.0632   0.1271  -0.0153  -0.0457   0.0369  14.44    0.0
2111 347895.441   37.427910658 -122.097149404   -27.2908   2  17   0.0557   0.0624   0.1246  -0.0144  -0.0460   0.0398 -14.56    0.0
2111 347896.441   37.427889671 -122.097287476   -27.3338   2  18   0.0545   0.0625   0.1238  -0.0137  -0.0452   0.0407 -13.56    0.0
2111 347897.441   37.427868634 -122.097404637   -27.1586   2  17   0.0537   0.0616   0.1229  -0.0126  -0.0446   0.0407 -12.56    0.0
2111 347898.441   37.427848271 -122.097507865   -27.2999   2  19   0.0532   0.0611   0.1225  -0.0111  -0.0438   0.0409 -11.56    0.0
2111 347899.441   37.427832097 -122.097599151   -27.3475   2  19   0.0527   0.0607   0.1213  -0.0108  -0.0436   0.0409 -10.56    0.0
2111 347900.441   37.427816113 -122.097687311   -27.3649   2  17   0.0522   0.0603   0.1204  -0.0103  -0.0433   0.0406  -9.56    0.0
2111 347901.441   37.427799715 -122.097774515   -27.3948   2  18   0.0521   0.0604   0.1197  -0.0103  -0.0432   0.0403  -8.56    0.0
2111 347902.441   37.427782953 -122.097862668   -27.3548   2  20   0.0517   0.0601   0.1191  -0.0102  -0.0427   0.0401  -7.56    0.0
2111 347903.441   37.427765508 -122.097956019   -27.3767   2  17   0.0513   0.0599   0.1191  -0.0097  -0.0421   0.0404  -6.56    0.0
2111 347904.441   37.427748236 -122.098055372   -27.3047   2  17   0.0512   0.0594   0.1190  -0.0088  -0.0416   0.0400  -5.56    0.0
2111 347905.441   37.427733721 -122.098160872   -27.3390   2  15   0.0517   0.0599   0.1188  -0.0103  -0.0412   0.0397  -4.56    0.0
2111 347906.441   37.427716853 -122.098274896   -27.4218   2  17   0.0521   0.0599   0.1189  -0.0108  -0.0410   0.0386  -3.56    0.0
2111 347907.441   37.427696788 -122.098399379   -27.1325   2  16   0.0536   0.0603   0.1201  -0.0070  -0.0418   0.0348  -2.56    0.0
2111 347908.441   37.427674576 -122.098528795   -27.0779   2  17   0.0528   0.0599   0.1185  -0.0054  -0.0418   0.0362  -1.56    0.0
2111 347909.441   37.427649960 -122.098661240   -26.9279   2  16   0.0522   0.0598   0.1177  -0.0063  -0.0418   0.0367  -0.56    0.0
2111 347910.441   37.427632381 -122.098787861   -27.4631   2  15   0.0522   0.0596   0.1179  -0.0048  -0.0414   0.0359   0.44    0.0
2111 347911.441   37.427609542 -122.098905644   -27.1101   2  14   0.0523   0.0592   0.1179   0.0041  -0.0418   0.0345   1.44    0.0
2111 347912.441   37.427590223 -122.099008000   -26.7815   2  14   0.0529   0.0598   0.1186   0.0039  -0.0414   0.0335   2.44    0.0
2111 347913.441   37.427568765 -122.099098750   -26.0823   2  16   0.0540   0.0613   0.1203   0.0134  -0.0458   0.0297   3.44    0.0
2111 347914.441   37.427553949 -122.099168149   -25.9767   2  14   0.0525   0.0600   0.1182   0.0098  -0.0433   0.0319   4.44    0.0
2111 347915.441   37.427545543 -122.099211316   -25.9086   2  16   0.0518   0.0596   0.1171   0.0085  -0.0427   0.0324   5.44    0.0
2111 347916.441   37.427538367 -122.099243895   -25.8226   2  17   0.0515   0.0592   0.1161   0.0093  -0.0423   0.0331   6.44    0.0
2111 347917.441   37.427532454 -122.099275285   -25.7749   2  17   0.0510   0.0589   0.1155   0.0087  -0.0419   0.0333   7.44    0.0
2111 347918.441   37.427528880 -122.099311003   -25.8177   2  16   0.0508   0.0586   0.1151   0.0086  -0.0414   0.0330   8.44    0.0
2111 347919.441   37.427535884 -122.099354290   -26.0426   2  20   0.0503   0.0587   0.1141   0.0065  -0.0413   0.0332   9.44    0.0
2111 347920.441   37.427560648 -122.099402168   -25.8696   2  20   0.0503   0.0590   0.1144   0.0055  -0.0413   0.0335  10.44    0.0
2111 347921.441   37.427606366 -122.099442292   -25.9090   2  20   0.0497   0.0584   0.1138   0.0051  -0.0408   0.0334  11.44    0.0
2111 347922.441   37.427673136 -122.099472961   -26.0041   2  15   0.0494   0.0587   0.1141   0.0072  -0.0396   0.0340  12.44    0.0
2111 347923.441   37.427753300 -122.099506287   -26.2273   2  17   0.0492   0.0584   0.1154   0.0073  -0.0388   0.0346  13.44    0.0
2111 347924.441   37.427846716 -122.099547318   -25.9688   2  17   0.0492   0.0584   0.1170   0.0089  -0.0375   0.0353  14.44    0.0
2111 347925.441   37.427950457 -122.099598137   -24.8276   2  16   0.0491   0.0586   0.1175   0.0104  -0.0374   0.0352 -14.56    0.0
2111 347926.441   37.428066175 -122.099651100   -25.3026   2  15   0.0489   0.0584   0.1166   0.0104  -0.0358   0.0360 -13.56    0.0
2111 347927.441   37.428192627 -122.099707840   -25.4828   2  15   0.0487   0.0579   0.1156   0.0098  -0.0360   0.0359 -12.56    0.0
2111 347928.441   37.428326811 -122.099768203   -25.5524   2  16   0.0486   0.0578   0.1158   0.0104  -0.0359   0.0357 -11.56    0.0
2111 347929.441   37.428466221 -122.099830547   -25.2932   2  18   0.0484   0.0577   0.1151   0.0107  -0.0366   0.0353 -10.56    0.0
2111 347930.441   37.428606041 -122.099889558   -25.2418   2  16   0.0482   0.0574   0.1146   0.0104  -0.0354   0.0357  -9.56    0.0
2111 347931.441   37.428747440 -122.099948768   -25.4247   2  14   0.0480   0.0572   0.1146   0.0105  -0.0351   0.0356  -8.56    0.0
2111 347932.441   37.428892988 -122.100006905   -25.0666   2  16   0.0478   0.0570   0.1146   0.0102  -0.0345   0.0357  -7.56    0.0
2111 347933.441   37.429040009 -122.100067486   -24.9196   2  19   0.0476   0.0567   0.1144   0.0100  -0.0346   0.0351  -6.56    0.0
2111 347934.441   37.429187135 -122.100128523   -25.0430   2  15   0.0474   0.0564   0.1135   0.0097  -0.0342   0.0351  -5.56    0.0
2111 347935.441   37.429330569 -122.100190303   -25.2367   2  17   0.0471   0.0562   0.1128   0.0096  -0.0342   0.0349  -4.56    0.0
2111 347936.441   37.429466635 -122.100248254   -25.7085   2  13   0.0470   0.0561   0.1134   0.0098  -0.0333   0.0351  -3.56    0.0
2111 347937.441   37.429592714 -122.100300822   -25.3472   2  17   0.0470   0.0560   0.1134   0.0097  -0.0333   0.0344  -2.56    0.0
2111 347938.441   37.429713188 -122.100343695   -25.3154   2  18   0.0468   0.0557   0.1122   0.0089  -0.0337   0.0338  -1.56    0.0
2111 347939.441   37.429831569 -122.100371498   -25.6222   2  17   0.0471   0.0559   0.1114   0.0054  -0.0335   0.0329  -0.56    0.0
2111 347940.441   37.429947554 -122.100376271   -25.5351   2  15   0.0495   0.0561   0.1127   0.0051  -0.0339   0.0281   0.44    0.0
2111 347941.441   37.430054568 -122.100355505   -25.2742   2  11   0.0513   0.0586   0.1164  -0.0099  -0.0377   0.0248   1.44    0.0
2111 347942.441   37.430157407 -122.100319114   -25.1337   2  14   0.0535   0.0589   0.1163  -0.0168  -0.0361   0.0226   2.44    0.0
2111 347943.441   37.430261909 -122.100272396   -24.9891   2  19   0.0520   0.0580   0.1149  -0.0145  -0.0359   0.0254   3.44    0.0
2111 347944.441   37.430368051 -122.100221741   -24.9408   2  20   0.0521   0.0577   0.1144  -0.0151  -0.0345   0.0242   4.44    0.0
2111 347945.441   37.430467598 -122.100171748   -24.9111   2  20   0.0519   0.0573   0.1138  -0.0151  -0.0338   0.0246   5.44    0.0
2111 347946.441   37.430561514 -122.100142198   -24.8115   2  15   0.0519   0.0568   0.1136  -0.0151  -0.0334   0.0247   6.44    0.0
2111 347947.441   37.430649220 -122.100145602   -24.8769   2  20   0.0531   0.0568   0.1140  -0.0165  -0.0316   0.0211   7.44    0.0
2111 347948.441   37.430724098 -122.100178897   -24.6859   2  17   0.0537   0.0563   0.1151  -0.0150  -0.0315   0.0155   8.44    0.0
2111 347949.441   37.430777206 -122.100232797   -24.6683   2  17   0.0542   0.0569   0.1153  -0.0156  -0.0328   0.0159   9.44    0.0
2111 347950.441   37.430821271 -122.100288948   -24.5045   2  10   0.0548   0.0730   0.1238  -0.0235  -0.0551   0.0211  10.44    0.0
2111 347951.441   37.430868995 -122.100339529   -24.8653   2  17   0.0563   0.0745   0.1267  -0.0190  -0.0551  -0.0090  11.44    0.0
2111 347952.441   37.430926704 -122.100376611   -25.2520   2  18   0.0555   0.0698   0.1237  -0.0202  -0.0486   0.0164  12.44    0.0
2111 347953.441   37.430993535 -122.100392113   -25.6034   2  17   0.0576   0.0706   0.1235  -0.0246  -0.0465   0.0104  13.44    0.0
2111 347954.441   37.431065827 -122.100393291   -25.6120   2  17   0.0571   0.0701   0.1229  -0.0240  -0.0467   0.0150  14.44    0.0
2111 347955.441   37.431146299 -122.100387051   -25.4252   2  15   0.0570   0.0699   0.1229  -0.0244  -0.0466   0.0140 -14.56    0.0
2111 347956.441   37.431237324 -122.100378692   -25.2038   2  17   0.0568   0.0699   0.1226  -0.0248  -0.0465   0.0120 -13.56    0.0
2111 347957.441   37.431336749 -122.100369127   -25.2168   2  16   0.0565   0.0698   0.1222  -0.0251  -0.0470   0.0137 -12.56    0.0
2111 347958.441   37.431442450 -122.100359210   -25.2672   2  19   0.0563   0.0695   0.1217  -0.0251  -0.0466   0.0142 -11.56    0.0
2111 347959.441   37.431549431 -122.100344942   -25.3417   2  16   0.0564   0.0694   0.1213  -0.0256  -0.0466   0.0139 -10.56    0.0
2111 347960.441   37.431654060 -122.100330209   -25.2996   2  17   0.0563   0.0693   0.1211  -0.0259  -0.0457   0.0116  -9.56    0.0
2111 347961.441   37.431760476 -122.100315439   -25.1460   2  17   0.0559   0.0689   0.1206  -0.0255  -0.0456   0.0115  -8.56    0.0
2111 347962.441   37.431867677 -122.100299711   -24.9647   2  19   0.0555   0.0687   0.1204  -0.0252  -0.0452   0.0134  -7.56    0.0
2111 347963.441   37.431969200 -122.100283151   -24.8151   2  19   0.0556   0.0684   0.1202  -0.0252  -0.0453   0.0119  -6.56    0.0
2111 347964.441   37.432059559 -122.100265803   -24.5945   2  18   0.0555   0.0684   0.1198  -0.0255  -0.0452   0.0125  -5.56    0.0
2111 347965.441   37.432133540 -122.100231617   -24.5910   2  16   0.0563   0.0688   0.1200  -0.0268  -0.0444   0.0073  -4.56    0.0
2111 347966.441   37.432187117 -122.100172747   -24.4523   2  15   0.0561   0.0690   0.1197  -0.0267  -0.0446   0.0099  -3.56    0.0
2111 347967.441   37.432210586 -122.100092344   -24.9156   2  17   0.0565   0.0686   0.1195  -0.0267  -0.0444   0.0134  -2.56    0.0
2111 347968.441   37.432214510 -122.099995949   -24.9133   2  18   0.0572   0.0698   0.1223  -0.0236  -0.0391   0.0191  -1.56    0.0
2111 347969.441   37.432204542 -122.099883459   -24.9456   2  20   0.0567   0.0687   0.1210  -0.0240  -0.0410   0.0175  -0.56    0.0
2111 347970.441   37.432189408 -122.099756450   -24.8787   2  17   0.0565   0.0681   0.1201  -0.0237  -0.0418   0.0169   0.44    0.0
2111 347971.441   37.432171726 -122.099618660   -25.1070   2  17   0.0567   0.0679   0.1201  -0.0236  -0.0419   0.0154   1.44    0.0
2111 347972.441   37.432157721 -122.099467673   -25.3105   2  12   0.0601   0.0714   0.1236  -0.0159  -0.0381   0.0054   2.44    0.0
2111 347973.441   37.432145641 -122.099308093   -25.2468   2  14   0.0590   0.0724   0.1264  -0.0181  -0.0313   0.0080   3.44    0.0
2111 347974.441   37.432133560 -122.099148277   -25.1633   2  14   0.0593   0.0722   0.1275  -0.0195  -0.0294  -0.0064   4.44    0.0
2111 347975.441   37.432121629 -122.098991190   -25.2302   2  15   0.0577   0.0704   0.1244  -0.0212  -0.0337   0.0069   5.44    0.0
2111 347976.441   37.432108580 -122.098833923   -25.2009   2  14   0.0573   0.0700   0.1237  -0.0218  -0.0339   0.0070   6.44    0.0
2111 347977.441   37.432094949 -122.098674042   -25.2132   2  18   0.0570   0.0694   0.1227  -0.0219  -0.0349   0.0083   7.44    0.0
2111 347978.441   37.432079607 -122.098513605   -25.1705   2  19   0.0566   0.0688   0.1217  -0.0218  -0.0355   0.0104   8.44    0.0
2111 347979.441   37.432063391 -122.098358340   -25.5146   2  20   0.0563   0.0684   0.1207  -0.0219  -0.0358   0.0097   9.44    0.0
2111 347980.441   37.432046343 -122.098204863   -25.6525   2  17   0.0561   0.0679   0.1201  -0.0220  -0.0364   0.0095  10.44    0.0
2111 347981.441   37.432028732 -122.098057884   -25.6167   2  16   0.0564   0.0681   0.1206  -0.0210  -0.0353   0.0095  11.44    0.0
2111 347982.441   37.432015821 -122.097930956   -25.8437   2  19   0.0562   0.0679   0.1201  -0.0212  -0.0355   0.0094  12.44    0.0
2111 347983.441   37.432016280 -122.097823838   -26.1625   2  17   0.0561   0.0678   0.1200  -0.0215  -0.0350   0.0055  13.44    0.0
2111 347984.441   37.432036967 -122.097730125   -26.3470   2  17   0.0560   0.0676   0.1198  -0.0215  -0.0348   0.0059  14.44    0.0
2111 347985.441   37.432075381 -122.097657464   -26.1223   2  18   0.0560   0.0673   0.1195  -0.0212  -0.0350   0.0043 -14.56    0.0
2111 347986.441   37.432128317 -122.097611771   -26.1081   2  17   0.0559   0.0672   0.1190  -0.0211  -0.0353   0.0070 -13.56    0.0
2111 347987.441   37.432182664 -122.097603611   -26.0439   2  19   0.0559   0.0671   0.1184  -0.0208  -0.0353   0.0097 -12.56    0.0
2111 347988.441   37.432221961 -122.097628818   -25.9033   2  19   0.0556   0.0669   0.1183  -0.0210  -0.0347   0.0096 -11.56    0.0
2111 347989.441   37.432240623 -122.097668803   -26.0232   2  18   0.0555   0.0668   0.1179  -0.0213  -0.0348   0.0105 -10.56    0.0
2111 347990.441   37.432246796 -122.097711870   -26.0449   2  16   0.0560   0.0679   0.1197  -0.0190  -0.0308   0.0174  -9.56    0.0
2111 347991.441   37.432251280 -122.097753387   -26.1391   2  15   0.0558   0.0675   0.1203  -0.0197  -0.0318   0.0204  -8.56    0.0
2111 347992.441   37.432256319 -122.097802836   -26.0531   2  12   0.0562   0.0674   0.1215  -0.0207  -0.0337   0.0248  -7.56    0.0
2111 347993.441   37.432264141 -122.097875579   -26.0107   2  14   0.0569   0.0671   0.1203  -0.0214  -0.0334   0.0229  -6.56    0.0
2111 347994.441   37.432274889 -122.097971312   -25.8224   2  14   0.0562   0.0667   0.1200  -0.0213  -0.0338   0.0198  -5.56    0.0
2111 347995.441   37.432288033 -122.098079736   -25.7823   2  14   0.0551   0.0663   0.1186  -0.0210  -0.0341   0.0193  -4.56    0.0
2111 347996.441   37.432300067 -122.098192349   -25.6954   2  16   0.0552   0.0662   0.1177  -0.0212  -0.0344   0.0181  -3.56    0.0
2111 347997.441   37.432301106 -122.098296249   -25.6805   2  18   0.0544   0.0661   0.1171  -0.0207  -0.0348   0.0179  -2.56    0.0
2111 347998.441   37.432281473 -122.098379570   -25.8013   2  19   0.0540   0.0653   0.1164  -0.0203  -0.0348   0.0186  -1.56    0.0
2111 347999.441   37.432248468 -122.098435907   -25.9337   2  20   0.0544   0.0651   0.1171  -0.0204  -0.0341   0.0138  -0.56    0.0
2111 348000.441   37.432212554 -122.098466305   -26.0915   2  17   0.0534   0.0646   0.1161  -0.0203  -0.0345   0.0127   0.44    0.0
2111 348001.441   37.432186422 -122.098479556   -26.2732   2  15   0.0529   0.0645   0.1160  -0.0202  -0.0348   0.0116   1.44    0.0
2111 348002.441   37.432165893 -122.098498969   -26.2952   2  18   0.0524   0.0642   0.1144  -0.0202  -0.0346   0.0124   2.44    0.0
2111 348003.441   37.432148655 -122.098537729   -26.3120   2  19   0.0521   0.0636   0.1132  -0.0197  -0.0338   0.0120   3.44    0.0
2111 348004.441   37.432143090 -122.098606400   -26.2910   2  16   0.0517   0.0633   0.1125  -0.0194  -0.0340   0.0113   4.44    0.0
2111 348005.441   37.432149699 -122.098707691   -26.3071   2  15   0.0518   0.0639   0.1134  -0.0189  -0.0334   0.0154   5.44    0.0
2111 348006.441   37.432165681 -122.098837663   -26.1349   2  17   0.0519   0.0639   0.1142  -0.0193  -0.0330   0.0100   6.44    0.0
2111 348007.441   37.432181142 -122.098992455   -26.1945   2  17   0.0523   0.0636   0.1153  -0.0199  -0.0318  -0.0069   7.44    0.0
2111 348008.441   37.432194879 -122.099167048   -26.5595   2  14   0.0534   0.0647   0.1169  -0.0204  -0.0272  -0.0086   8.44    0.0
2111 348009.441   37.432205225 -122.099353442   -26.7580   2  12   0.0541   0.0662   0.1178  -0.0193  -0.0261  -0.0166   9.44    0.0
2111 348010.441   37.432218930 -122.099529688   -26.8939   2  14   0.0532   0.0656   0.1161  -0.0203  -0.0278  -0.0132  10.44    0.0
2111 348011.441   37.432236210 -122.099691542   -27.2560   2  15   0.0528   0.0649   0.1149  -0.0202  -0.0280  -0.0111  11.44    0.0
2111 348012.441   37.432250713 -122.099833542   -27.5902   2  12   0.0528   0.0645   0.1143  -0.0202  -0.0289  -0.0066  12.44    0.0
2111 348013.441   37.432262144 -122.099956130   -27.5236   2  13   0.0523   0.0643   0.1135  -0.0203  -0.0291   0.0040  13.44    0.0
2111 348014.441   37.432270158 -122.100053095   -27.6477   2  15   0.0518   0.0637   0.1127  -0.0199  -0.0291   0.0062  14.44    0.0
2111 348015.441   37.432275701 -122.100118310   -27.7827   2  17   0.0520   0.0633   0.1122  -0.0200  -0.0293   0.0042 -14.56    0.0
2111 348016.441   37.432277325 -122.100159605   -27.9212   2  16   0.0516   0.0630   0.1116  -0.0194  -0.0293  -0.0034 -13.56    0.0
2111 348017.441   37.432269334 -122.100204384   -27.9367   2  19   0.0515   0.0629   0.1107  -0.0199  -0.0297  -0.0069 -12.56    0.0
2111 348018.441   37.432237867 -122.100263691   -27.8241   2  19   0.0516   0.0628   0.1105  -0.0203  -0.0289  -0.0118 -11.56    0.0
2111 348019.441   37.432176206 -122.100314834   -27.9330   2  20   0.0512   0.0625   0.1096  -0.0203  -0.0293  -0.0108 -10.56    0.0
2111 348020.441   37.432088746 -122.100344932   -28.0915   2  18   0.0512   0.0624   0.1092  -0.0202  -0.0297  -0.0126  -9.56    0.0
2111 348021.441   37.431982979 -122.100362760   -28.5243   2  19   0.0516   0.0623   0.1096  -0.0195  -0.0300  -0.0170  -8.56    0.0
2111 348022.441   37.431859353 -122.100383216   -28.9769   2  18   0.0528   0.0621   0.1110  -0.0189  -0.0303  -0.0227  -7.56    0.0
2111 348023.441   37.431720408 -122.100411098   -29.2845   2  17   0.0526   0.0621   0.1109  -0.0192  -0.0301  -0.0227  -6.56    0.0
2111 348024.441   37.431576426 -122.100449084   -29.4228   2  19   0.0527   0.0622   0.1103  -0.0187  -0.0302  -0.0220  -5.56    0.0
2111 348025.441   37.431436204 -122.100490968   -29.6173   2  19   0.0521   0.0619   0.1095  -0.0188  -0.0307  -0.0207  -4.56    0.0
2111 348026.441   37.431301421 -122.100529347   -29.8206   2  18   0.0517   0.0618   0.1089  -0.0193  -0.0301  -0.0200  -3.56    0.0
2111 348027.441   37.431170369 -122.100558121   -29.9546   2  17   0.0516   0.0618   0.1090  -0.0196  -0.0296  -0.0203  -2.56    0.0
2111 348028.441   37.431050953 -122.100577823   -29.6938   2  15   0.0532   0.0620   0.1113  -0.0210  -0.0282  -0.0269  -1.56    0.0
2111 348029.441   37.430944791 -122.100594457   -29.7367   2  18   0.0519   0.0626   0.1097  -0.0204  -0.0298  -0.0229  -0.56    0.0
2111 348030.441   37.430837539 -122.100609957   -29.7087   2  18   0.0512   0.0622   0.1085  -0.0201  -0.0298  -0.0210   0.44    0.0
2111 348031.441   37.430718659 -122.100625686   -29.6755   2  19   0.0510   0.0620   0.1079  -0.0202  -0.0301  -0.0203   1.44    0.0
2111 348032.441   37.430584031 -122.100644885   -29.4700   2  21   0.0509   0.0616   0.1078  -0.0194  -0.0309  -0.0215   2.44    0.0
2111 348033.441   37.430440244 -122.100673480   -29.2116   2  22   0.0506   0.0613   0.1071  -0.0195  -0.0308  -0.0202   3.44    0.0
2111 348034.441   37.430292471 -122.100718789   -29.0268   2  19   0.0506   0.0613   0.1074  -0.0194  -0.0309  -0.0204   4.44    0.0
2111 348035.441   37.430143647 -122.100783158   -28.9641   2  16   0.0509   0.0618   0.1079  -0.0198  -0.0305  -0.0217   5.44    0.0
2111 348036.441   37.429994859 -122.100866292   -28.7626   2  14   0.0527   0.0620   0.1109  -0.0180  -0.0310  -0.0295   6.44    0.0
2111 348037.441   37.429847607 -122.100959658   -28.9444   2  18   0.0524   0.0624   0.1109  -0.0202  -0.0289  -0.0296   7.44    0.0
2111 348038.441   37.429704933 -122.101057845   -29.1840   2  21   0.0517   0.0622   0.1094  -0.0204  -0.0288  -0.0277   8.44    0.0
2111 348039.441   37.429569378 -122.101157916   -29.4714   2  22   0.0504   0.0615   0.1077  -0.0192  -0.0298  -0.0246   9.44    0.0
2111 348040.441   37.429447850 -122.101269603   -29.6603   2  20   0.0494   0.0607   0.1060  -0.0185  -0.0304  -0.0232  10.44    0.0
2111 348041.441   37.429349180 -122.101403236   -29.7959   2  20   0.0498   0.0606   0.1063  -0.0182  -0.0308  -0.0250  11.44    0.0
2111 348042.441   37.429284947 -122.101561089   -29.8765   2  19   0.0499   0.0605   0.1056  -0.0186  -0.0317  -0.0235  12.44    0.0
2111 348043.441   37.429258929 -122.101730498   -30.0299   2  19   0.0503   0.0607   0.1050  -0.0171  -0.0315  -0.0232  13.44    0.0
2111 348044.441   37.429276114 -122.101902446   -30.0444   2  20   0.0497   0.0601   0.1042  -0.0175  -0.0310  -0.0207  14.44    0.0
2111 348045.441   37.429335709 -122.102065360   -30.2354   2  17   0.0518   0.0600   0.1047  -0.0177  -0.0312  -0.0212 -14.56    0.0
2111 348046.441   37.429434723 -122.102205898   -30.1632   2  19   0.0526   0.0599   0.1046  -0.0194  -0.0314  -0.0173 -13.56    0.0
2111 348047.441   37.429552901 -122.102338366   -30.0382   2  21   0.0509   0.0593   0.1033  -0.0184  -0.0316  -0.0179 -12.56    0.0
2111 348048.441   37.429683528 -122.102483694   -29.8719   2  19   0.0498   0.0589   0.1025  -0.0184  -0.0312  -0.0168 -11.56    0.0
2111 348049.441   37.429826748 -122.102648195   -29.7760   2  21   0.0490   0.0585   0.1017  -0.0183  -0.0310  -0.0156 -10.56    0.0
2111 348050.441   37.429982919 -122.102830180   -29.6368   2  19   0.0484   0.0582   0.1010  -0.0184  -0.0308  -0.0145  -9.56    0.0
2111 348051.441   37.430148982 -122.103023862   -29.6509   2  20   0.0479   0.0579   0.1005  -0.0184  -0.0306  -0.0137  -8.56    0.0
2111 348052.441   37.430325023 -122.103224157   -29.5328   2  18   0.0474   0.0576   0.1003  -0.0184  -0.0304  -0.0131  -7.56    0.0
2111 348053.441   37.430509760 -122.103429565   -29.5214   2  20   0.0470   0.0575   0.0999  -0.0184  -0.0302  -0.0125  -6.56    0.0
2111 348054.441   37.430700220 -122.103639359   -29.4076   2  18   0.0467   0.0573   0.0995  -0.0184  -0.0301  -0.0119  -5.56    0.0
2111 348055.441   37.430892162 -122.103845873   -29.2866   2  19   0.0465   0.0571   0.0996  -0.0183  -0.0298  -0.0109  -4.56    0.0
2111 348056.441   37.431082867 -122.104047889   -29.0513   2  19   0.0466   0.0575   0.0995  -0.0192  -0.0301  -0.0098  -3.56    0.0
2111 348057.441   37.431269617 -122.104247253   -28.7036   2  20   0.0462   0.0572   0.0990  -0.0190  -0.0298  -0.0092  -2.56    0.0
2111 348058.441   37.431448407 -122.104438856   -28.3271   2  19   0.0458   0.0569   0.0986  -0.0187  -0.0295  -0.0089  -1.56    0.0
2111 348059.441   37.431621482 -122.104628499   -27.9740   2  21   0.0458   0.0570   0.0990  -0.0191  -0.0293  -0.0074  -0.56    0.0
2111 348060.441   37.431791734 -122.104822072   -27.6764   2  21   0.0456   0.0569   0.0987  -0.0191  -0.0293  -0.0073   0.44    0.0
2111 348061.441   37.431965764 -122.105020073   -27.4887   2  23   0.0453   0.0567   0.0981  -0.0190  -0.0291  -0.0074   1.44    0.0
2111 348062.441   37.432147759 -122.105219068   -27.4702   2  20   0.0450   0.0564   0.0976  -0.0189  -0.0291  -0.0067   2.44    0.0
2111 348063.441   37.432338174 -122.105421366   -27.4362   2  21   0.0447   0.0562   0.0971  -0.0189  -0.0291  -0.0057   3.44    0.0
2111 348064.441   37.432536384 -122.105630003   -27.5193   2  18   0.0446   0.0562   0.0970  -0.0190  -0.0291  -0.0039   4.44    0.0
2111 348065.441   37.432742036 -122.105845950   -27.7353   2  21   0.0448   0.0562   0.0973  -0.0195  -0.0293   0.0049   5.44    0.0
2111 348066.441   37.432950199 -122.106063607   -28.0792   2  20   0.0445   0.0560   0.0971  -0.0192  -0.0290   0.0052   6.44    0.0
2111 348067.441   37.433159579 -122.106281633   -28.4325   2  20   0.0441   0.0556   0.0965  -0.0189  -0.0288   0.0049   7.44    0.0
2111 348068.441   37.433368874 -122.106499142   -28.7608   2  17   0.0440   0.0554   0.0962  -0.0187  -0.0287   0.0055   8.44    0.0
2111 348069.441   37.433577094 -122.106718220   -29.0299   2  20   0.0437   0.0552   0.0959  -0.0186  -0.0284   0.0057   9.44    0.0
2111 348070.441   37.433783991 -122.106937097   -29.1002   2  20   0.0438   0.0553   0.0958  -0.0190  -0.0284   0.0063  10.44    0.0
2111 348071.441   37.433989018 -122.107153167   -29.0914   2  22   0.0436   0.0552   0.0955  -0.0191  -0.0285   0.0073  11.44    0.0
2111 348072.441   37.434191194 -122.107367029   -29.0839   2  22   0.0434   0.0550   0.0953  -0.0191  -0.0283   0.0073  12.44    0.0
2111 348073.441   37.434391398 -122.107578152   -29.0828   2  18   0.0433   0.0549   0.0951  -0.0191  -0.0281   0.0080  13.44    0.0
2111 348074.441   37.434589634 -122.107786233   -29.0388   2  20   0.0429   0.0545   0.0944  -0.0188  -0.0281   0.0077  14.44    0.0
2111 348075.441   37.434785519 -122.107991670   -29.0272   2  21   0.0426   0.0543   0.0940  -0.0187  -0.0280   0.0078 -14.56    0.0
2111 348076.441   37.434979460 -122.108194915   -29.0100   2  21   0.0424   0.0540   0.0936  -0.0186  -0.0279   0.0081 -13.56    0.0
2111 348077.441   37.435170845 -122.108394653   -28.9914   2  22   0.0422   0.0538   0.0932  -0.0185  -0.0279   0.0084 -12.56    0.0
2111 348078.441   37.435359666 -122.108592307   -29.0026   2  19   0.0422   0.0538   0.0936  -0.0188  -0.0282   0.0114 -11.56    0.0
2111 348079.441   37.435547036 -122.108788049   -28.9103   2  20   0.0420   0.0535   0.0930  -0.0188  -0.0279   0.0105 -10.56    0.0
2111 348080.441   37.435731947 -122.108981929   -28.9669   2  18   0.0417   0.0533   0.0925  -0.0186  -0.0278   0.0105  -9.56    0.0
2111 348081.441   37.435915075 -122.109173258   -28.9628   2  21   0.0415   0.0531   0.0922  -0.0185  -0.0277   0.0106  -8.56    0.0
2111 348082.441   37.436097086 -122.109363370   -28.9228   2  20   0.0414   0.0530   0.0920  -0.0184  -0.0275   0.0107  -7.56    0.0
2111 348083.441   37.436280518 -122.109555859   -28.9115   2  18   0.0414   0.0531   0.0923  -0.0187  -0.0276   0.0125  -6.56    0.0
2111 348084.441   37.436464460 -122.109748962   -28.9486   2  19   0.0415   0.0533   0.0923  -0.0193  -0.0275   0.0126  -5.56    0.0
2111 348085.441   37.436647249 -122.109940632   -28.9471   2  20   0.0412   0.0530   0.0918  -0.0190  -0.0273   0.0124  -4.56    0.0
2111 348086.441   37.436830325 -122.110131909   -28.9556   2  20   0.0409   0.0527   0.0913  -0.0186  -0.0271   0.0121  -3.56    0.0
2111 348087.441   37.437013762 -122.110322256   -28.9042   2  20   0.0406   0.0523   0.0908  -0.0184  -0.0269   0.0123  -2.56    0.0
2111 348088.441   37.437196734 -122.110514748   -28.8542   2  21   0.0404   0.0521   0.0904  -0.0183  -0.0268   0.0124  -1.56    0.0
2111 348089.441   37.437382065 -122.110712490   -28.8607   2  22   0.0402   0.0520   0.0901  -0.0184  -0.0268   0.0126  -0.56    0.0
2111 348090.441   37.437571014 -122.110913598   -28.8252   2  21   0.0401   0.0518   0.0898  -0.0184  -0.0267   0.0127   0.44    0.0
2111 348091.441   37.437761231 -122.111113768   -28.7794   2  20   0.0398   0.0516   0.0897  -0.0182  -0.0265   0.0129   1.44    0.0
2111 348092.441   37.437951539 -122.111313218   -28.7935   2  21   0.0397   0.0514   0.0893  -0.0181  -0.0265   0.0131   2.44    0.0
2111 348093.441   37.438142026 -122.111512568   -28.7736   2  19   0.0395   0.0512   0.0890  -0.0181  -0.0263   0.0133   3.44    0.0
2111 348094.441   37.438332811 -122.111712620   -28.7389   2  21   0.0393   0.0510   0.0887  -0.0180  -0.0262   0.0134   4.44    0.0
2111 348095.441   37.438522335 -122.111911945   -28.7580   2  19   0.0391   0.0508   0.0883  -0.0179  -0.0264   0.0135   5.44    0.0
2111 348096.441   37.438711552 -122.112110305   -28.7491   2  20   0.0390   0.0506   0.0884  -0.0178  -0.0261   0.0141   6.44    0.0
2111 348097.441   37.438902539 -122.112310011   -28.7287   2  21   0.0388   0.0504   0.0881  -0.0178  -0.0262   0.0140   7.44    0.0
2111 348098.441   37.439093246 -122.112509524   -28.5785   2  22   0.0386   0.0502   0.0876  -0.0177  -0.0263   0.0141   8.44    0.0
2111 348099.441   37.439284184 -122.112709145   -28.3877   2  21   0.0385   0.0501   0.0873  -0.0177  -0.0263   0.0141   9.44    0.0
2111 348100.441   37.439475692 -122.112910031   -28.0928   2  20   0.0384   0.0499   0.0870  -0.0176  -0.0263   0.0141  10.44    0.0
2111 348101.441   37.439669155 -122.113114058   -27.7845   2  20   0.0382   0.0498   0.0868  -0.0176  -0.0262   0.0142  11.44    0.0
2111 348102.441   37.439867213 -122.113321419   -27.5170   2  21   0.0381   0.0496   0.0868  -0.0175  -0.0261   0.0148  12.44    0.0
2111 348103.441   37.440069148 -122.113533703   -27.4968   2  22   0.0383   0.0498   0.0869  -0.0180  -0.0261   0.0150  13.44    0.0
2111 348104.441   37.440275004 -122.113750939   -27.4881   2  20   0.0382   0.0498   0.0868  -0.0181  -0.0263   0.0153  14.44    0.0
2111 348105.441   37.440482112 -122.113969434   -27.5920   2  19   0.0381   0.0496   0.0867  -0.0180  -0.0260   0.0151 -14.56    0.0
2111 348106.441   37.440688776 -122.114185661   -27.8703   2  20   0.0380   0.0495   0.0865  -0.0179  -0.0259   0.0151 -13.56    0.0
2111 348107.441   37.440893545 -122.114400397   -28.1985   2  17   0.0379   0.0495   0.0864  -0.0178  -0.0257   0.0152 -12.56    0.0
2111 348108.441   37.441095573 -122.114612916   -28.5116   2  19   0.0379   0.0495   0.0863  -0.0179  -0.0257   0.0152 -11.56    0.0
2111 348109.441   37.441295132 -122.114822662   -28.6898   2  18   0.0377   0.0493   0.0861  -0.0178  -0.0255   0.0154 -10.56    0.0
2111 348110.441   37.441492157 -122.115028933   -28.7280   2  18   0.0377   0.0493   0.0861  -0.0179  -0.0255   0.0157  -9.56    0.0
2111 348111.441   37.441686477 -122.115232091   -28.7083   2  19   0.0376   0.0491   0.0858  -0.0177  -0.0254   0.0155  -8.56    0.0
2111 348112.441   37.441878049 -122.115432366   -28.6832   2  20   0.0375   0.0491   0.0857  -0.0177  -0.0252   0.0155  -7.56    0.0
