$GPGGA,204919.44,3726.6463900,N,12213.9660500,W,1,0,0.0,11.1776,M,0.0000,M,0.0000,0000*51
$GPRMC,204919.44,A,3726.6463900,N,12213.9660500,W,0.0027,30.3124,190721,,,,A*58
$GPGGA,204920.44,3726.6463900,N,12213.9660500,W,1,0,0.0,11.1766,M,0.0000,M,0.0000,0000*5a
$GPRMC,204920.44,A,3726.6463900,N,12213.9660500,W,0.0037,30.3125,190721,,,,A*52
$GPGGA,204921.44,3726.6463900,N,12213.9660500,W,1,0,0.0,11.1766,M,0.0000,M,0.0000,0000*5b
$GPRMC,204921.44,A,3726.6463900,N,12213.9660500,W,0.0043,30.3126,190721,,,,A*53
$GPGGA,204922.44,3726.6463900,N,12213.9660500,W,1,0,0.0,11.1756,M,0.0000,M,0.0000,0000*5b
$GPRMC,204922.44,A,3726.6463900,N,12213.9660500,W,0.0043,30.3125,190721,,,,A*53
$GPGGA,204923.44,3726.6463900,N,12213.9660500,W,1,0,0.0,11.1766,M,0.0000,M,0.0000,0000*59
$GPRMC,204923.44,A,3726.6463900,N,12213.9660500,W,0.0049,30.3124,190721,,,,A*59
$GPGGA,204924.44,3726.6463900,N,12213.9660500,W,1,0,0.0,11.1786,M,0.0000,M,0.0000,0000*50
$GPRMC,204924.44,A,3726.6463900,N,12213.9660500,W,0.0099,30.3117,190721,,,,A*53
$GPGGA,204925.44,3726.6463840,N,12213.9660440,W,1,0,0.0,11.1870,M,0.0000,M,0.0000,0000*57
$GPRMC,204925.44,A,3726.6463840,N,12213.9660440,W,0.2375,30.4215,190721,,,,A*57
$GPGGA,204926.44,3726.6462400,N,12213.9662480,W,1,0,0.0,11.1842,M,0.0000,M,0.0000,0000*52
$GPRMC,204926.44,A,3726.6462400,N,12213.9662480,W,1.1433,26.8314,190721,,,,A*5f
$GPGGA,204927.44,3726.6459340,N,12213.9666680,W,1,0,0.0,11.1722,M,0.0000,M,0.0000,0000*57
$GPRMC,204927.44,A,3726.6459340,N,12213.9666680,W,1.7815,17.0492,190721,,,,A*5e
$GPGGA,204928.44,3726.6454480,N,12213.9671240,W,1,0,0.0,11.1539,M,0.0000,M,0.0000,0000*58
$GPRMC,204928.44,A,3726.6454480,N,12213.9671240,W,2.0761,3.9975,190721,,,,A*69
$GPGGA,204929.44,3726.6449620,N,12213.9673880,W,1,0,0.0,11.1352,M,0.0000,M,0.0000,0000*52
$GPRMC,204929.44,A,3726.6449620,N,12213.9673880,W,1.2022,352.9763,190721,,,,A*67
$GPGGA,204930.44,3726.6448060,N,12213.9674420,W,1,0,0.0,11.1340,M,0.0000,M,0.0000,0000*5b
$GPRMC,204930.44,A,3726.6448060,N,12213.9674420,W,0.0618,349.8091,190721,,,,A*60
$GPGGA,204931.44,3726.6448480,N,12213.9674540,W,1,0,0.0,11.1300,M,0.0000,M,0.0000,0000*53
$GPRMC,204931.44,A,3726.6448480,N,12213.9674540,W,0.7002,349.3321,190721,,,,A*65
$GPGGA,204932.44,3726.6452620,N,12213.9678200,W,1,0,0.0,11.1526,M,0.0000,M,0.0000,0000*5e
$GPRMC,204932.44,A,3726.6452620,N,12213.9678200,W,2.7994,340.1572,190721,,,,A*65
$GPGGA,204933.44,3726.6458620,N,12213.9689960,W,1,0,0.0,11.1752,M,0.0000,M,0.0000,0000*57
$GPRMC,204933.44,A,3726.6458620,N,12213.9689960,W,4.5043,315.4703,190721,,,,A*6b
$GPGGA,204934.44,3726.6460300,N,12213.9709700,W,1,0,0.0,11.1295,M,0.0000,M,0.0000,0000*53
$GPRMC,204934.44,A,3726.6460300,N,12213.9709700,W,6.2963,283.5436,190721,,,,A*65
$GPGGA,204935.44,3726.6453820,N,12213.9733640,W,1,0,0.0,11.0671,M,0.0000,M,0.0000,0000*58
$GPRMC,204935.44,A,3726.6453820,N,12213.9733640,W,7.5419,253.0356,190721,,,,A*6e
$GPGGA,204936.44,3726.6438640,N,12213.9753260,W,1,0,0.0,10.9681,M,0.0000,M,0.0000,0000*59
$GPRMC,204936.44,A,3726.6438640,N,12213.9753260,W,7.4969,226.3635,190721,,,,A*62
$GPGGA,204937.44,3726.6423220,N,12213.9763640,W,1,0,0.0,10.8737,M,0.0000,M,0.0000,0000*58
$GPRMC,204937.44,A,3726.6423220,N,12213.9763640,W,4.4892,211.1169,190721,,,,A*60
$GPGGA,204938.44,3726.6413380,N,12213.9769880,W,1,0,0.0,10.8131,M,0.0000,M,0.0000,0000*57
$GPRMC,204938.44,A,3726.6413380,N,12213.9769880,W,4.2958,208.4558,190721,,,,A*65
$GPGGA,204939.44,3726.6401620,N,12213.9777560,W,1,0,0.0,10.7235,M,0.0000,M,0.0000,0000*5e
$GPRMC,204939.44,A,3726.6401620,N,12213.9777560,W,5.3469,207.7135,190721,,,,A*68
$GPGGA,204940.44,3726.6385480,N,12213.9787760,W,1,0,0.0,10.6837,M,0.0000,M,0.0000,0000*57
$GPRMC,204940.44,A,3726.6385480,N,12213.9787760,W,7.7917,206.9151,190721,,,,A*67
$GPGGA,204941.44,3726.6364180,N,12213.9801560,W,1,0,0.0,10.6069,M,0.0000,M,0.0000,0000*5c
$GPRMC,204941.44,A,3726.6364180,N,12213.9801560,W,8.8647,207.2168,190721,,,,A*65
$GPGGA,204942.44,3726.6343480,N,12213.9815960,W,1,0,0.0,10.5401,M,0.0000,M,0.0000,0000*5f
$GPRMC,204942.44,A,3726.6343480,N,12213.9815960,W,8.0847,209.4898,190721,,,,A*67
$GPGGA,204943.44,3726.6326980,N,12213.9830960,W,1,0,0.0,10.4735,M,0.0000,M,0.0000,0000*52
$GPRMC,204943.44,A,3726.6326980,N,12213.9830960,W,6.2405,215.7516,190721,,,,A*6c
$GPGGA,204944.44,3726.6316960,N,12213.9842600,W,1,0,0.0,10.3746,M,0.0000,M,0.0000,0000*57
$GPRMC,204944.44,A,3726.6316960,N,12213.9842600,W,3.8334,221.3705,190721,,,,A*63
$GPGGA,204945.44,3726.6311020,N,12213.9854480,W,1,0,0.0,10.2472,M,0.0000,M,0.0000,0000*54
$GPRMC,204945.44,A,3726.6311020,N,12213.9854480,W,4.3176,232.6132,190721,,,,A*68
$GPGGA,204946.44,3726.6308980,N,12213.9872120,W,1,0,0.0,10.1143,M,0.0000,M,0.0000,0000*53
$GPRMC,204946.44,A,3726.6308980,N,12213.9872120,W,5.7379,255.2728,190721,,,,A*6b
$GPGGA,204947.44,3726.6312940,N,12213.9897020,W,1,0,0.0,10.0875,M,0.0000,M,0.0000,0000*52
$GPRMC,204947.44,A,3726.6312940,N,12213.9897020,W,8.6997,279.2321,190721,,,,A*62
$GPGGA,204948.44,3726.6325420,N,12213.9930800,W,1,0,0.0,9.9722,M,0.0000,M,0.0000,0000*68
$GPRMC,204948.44,A,3726.6325420,N,12213.9930800,W,12.6296,295.2784,190721,,,,A*5c
$GPGGA,204949.44,3726.6344440,N,12213.9975440,W,1,0,0.0,9.7325,M,0.0000,M,0.0000,0000*6c
$GPRMC,204949.44,A,3726.6344440,N,12213.9975440,W,16.3029,298.8684,190721,,,,A*54
$GPGGA,204950.44,3726.6369220,N,12214.0027340,W,1,0,0.0,9.5148,M,0.0000,M,0.0000,0000*67
$GPRMC,204950.44,A,3726.6369220,N,12214.0027340,W,18.3410,301.3932,190721,,,,A*5c
$GPGGA,204951.44,3726.6397480,N,12214.0084820,W,1,0,0.0,9.2545,M,0.0000,M,0.0000,0000*61
$GPRMC,204951.44,A,3726.6397480,N,12214.0084820,W,20.1139,301.6498,190721,,,,A*5b
$GPGGA,204952.44,3726.6427480,N,12214.0145060,W,1,0,0.0,8.9486,M,0.0000,M,0.0000,0000*6a
$GPRMC,204952.44,A,3726.6427480,N,12214.0145060,W,20.7245,302.1617,190721,,,,A*5b
$GPGGA,204953.44,3726.6458920,N,12214.0207040,W,1,0,0.0,8.6969,M,0.0000,M,0.0000,0000*60
$GPRMC,204953.44,A,3726.6458920,N,12214.0207040,W,21.2673,302.6127,190721,,,,A*54
$GPGGA,204954.44,3726.6491200,N,12214.0269560,W,1,0,0.0,8.4875,M,0.0000,M,0.0000,0000*6a
$GPRMC,204954.44,A,3726.6491200,N,12214.0269560,W,21.4136,303.2782,190721,,,,A*5c
$GPGGA,204955.44,3726.6524080,N,12214.0331660,W,1,0,0.0,8.2527,M,0.0000,M,0.0000,0000*6d
$GPRMC,204955.44,A,3726.6524080,N,12214.0331660,W,21.1476,303.6711,190721,,,,A*5d
$GPGGA,204956.44,3726.6555280,N,12214.0390940,W,1,0,0.0,8.0229,M,0.0000,M,0.0000,0000*67
$GPRMC,204956.44,A,3726.6555280,N,12214.0390940,W,19.3161,303.3220,190721,,,,A*54
$GPGGA,204957.44,3726.6582940,N,12214.0443500,W,1,0,0.0,7.8524,M,0.0000,M,0.0000,0000*67
$GPRMC,204957.44,A,3726.6582940,N,12214.0443500,W,16.8111,303.4848,190721,,,,A*59
$GPGGA,204958.44,3726.6606280,N,12214.0488440,W,1,0,0.0,7.6740,M,0.0000,M,0.0000,0000*6c
$GPRMC,204958.44,A,3726.6606280,N,12214.0488440,W,13.5517,302.3252,190721,,,,A*51
$GPGGA,204959.44,3726.6621400,N,12214.0522460,W,1,0,0.0,7.5671,M,0.0000,M,0.0000,0000*65
$GPRMC,204959.44,A,3726.6621400,N,12214.0522460,W,8.6930,298.7042,190721,,,,A*6d
$GPGGA,205000.44,3726.6630400,N,12214.0543220,W,1,0,0.0,7.4926,M,0.0000,M,0.0000,0000*68
$GPRMC,205000.44,A,3726.6630400,N,12214.0543220,W,5.2387,298.4496,190721,,,,A*6d
$GPGGA,205001.44,3726.6635560,N,12214.0555220,W,1,0,0.0,7.4565,M,0.0000,M,0.0000,0000*67
$GPRMC,205001.44,A,3726.6635560,N,12214.0555220,W,2.5117,298.4658,190721,,,,A*62
$GPGGA,205002.44,3726.6637000,N,12214.0558580,W,1,0,0.0,7.4425,M,0.0000,M,0.0000,0000*60
$GPRMC,205002.44,A,3726.6637000,N,12214.0558580,W,0.0832,298.4732,190721,,,,A*64
$GPGGA,205003.44,3726.6637000,N,12214.0558580,W,1,0,0.0,7.4366,M,0.0000,M,0.0000,0000*61
$GPRMC,205003.44,A,3726.6637000,N,12214.0558580,W,0.0017,298.4759,190721,,,,A*67
$GPGGA,205004.44,3726.6637000,N,12214.0558580,W,1,0,0.0,7.4356,M,0.0000,M,0.0000,0000*65
$GPRMC,205004.44,A,3726.6637000,N,12214.0558580,W,0.0060,298.4756,190721,,,,A*6f
$GPGGA,205005.44,3726.6637000,N,12214.0558580,W,1,0,0.0,7.4346,M,0.0000,M,0.0000,0000*65
$GPRMC,205005.44,A,3726.6637000,N,12214.0558580,W,0.0023,298.4739,190721,,,,A*60
$GPGGA,205006.44,3726.6637000,N,12214.0558580,W,1,0,0.0,7.4346,M,0.0000,M,0.0000,0000*66
$GPRMC,205006.44,A,3726.6637000,N,12214.0558580,W,0.0008,298.4739,190721,,,,A*6a
$GPGGA,205007.44,3726.6637000,N,12214.0558580,W,1,0,0.0,7.4346,M,0.0000,M,0.0000,0000*67
$GPRMC,205007.44,A,3726.6637000,N,12214.0558580,W,0.0023,298.4740,190721,,,,A*6c
$GPGGA,205008.44,3726.6637000,N,12214.0558580,W,1,0,0.0,7.4356,M,0.0000,M,0.0000,0000*69
$GPRMC,205008.44,A,3726.6637000,N,12214.0558580,W,0.0019,298.4739,190721,,,,A*64
$GPGGA,205009.44,3726.6637000,N,12214.0558640,W,1,0,0.0,7.4356,M,0.0000,M,0.0000,0000*67
$GPRMC,205009.44,A,3726.6637000,N,12214.0558640,W,0.0023,298.4736,190721,,,,A*6c
$GPGGA,205010.44,3726.6637000,N,12214.0558640,W,1,0,0.0,7.4356,M,0.0000,M,0.0000,0000*6f
$GPRMC,205010.44,A,3726.6637000,N,12214.0558640,W,0.0017,298.4737,190721,,,,A*62
$GPGGA,205011.44,3726.6637000,N,12214.0558640,W,1,0,0.0,7.4356,M,0.0000,M,0.0000,0000*6e
$GPRMC,205011.44,A,3726.6637000,N,12214.0558640,W,0.0011,298.4738,190721,,,,A*6a
$GPGGA,205012.44,3726.6637000,N,12214.0558640,W,1,0,0.0,7.4356,M,0.0000,M,0.0000,0000*6d
$GPRMC,205012.44,A,3726.6637000,N,12214.0558640,W,0.0024,298.4738,190721,,,,A*6f
$GPGGA,205013.44,3726.6637000,N,12214.0558580,W,1,0,0.0,7.4356,M,0.0000,M,0.0000,0000*63
$GPRMC,205013.44,A,3726.6637000,N,12214.0558580,W,0.0034,298.4739,190721,,,,A*61
$GPGGA,205014.44,3726.6637420,N,12214.0559660,W,1,0,0.0,7.4159,M,0.0000,M,0.0000,0000*63
$GPRMC,205014.44,A,3726.6637420,N,12214.0559660,W,1.6612,298.4547,190721,,,,A*62
$GPGGA,205015.44,3726.6643120,N,12214.0574300,W,1,0,0.0,7.3694,M,0.0000,M,0.0000,0000*69
$GPRMC,205015.44,A,3726.6643120,N,12214.0574300,W,7.5803,296.7651,190721,,,,A*6b
$GPGGA,205016.44,3726.6652300,N,12214.0606160,W,1,0,0.0,7.3380,M,0.0000,M,0.0000,0000*68
$GPRMC,205016.44,A,3726.6652300,N,12214.0606160,W,11.2231,288.5088,190721,,,,A*5e
$GPGGA,205017.44,3726.6656500,N,12214.0649300,W,1,0,0.0,7.4075,M,0.0000,M,0.0000,0000*6a
$GPRMC,205017.44,A,3726.6656500,N,12214.0649300,W,13.7423,273.8818,190721,,,,A*58
$GPGGA,205018.44,3726.6649060,N,12214.0699160,W,1,0,0.0,7.5632,M,0.0000,M,0.0000,0000*65
$GPRMC,205018.44,A,3726.6649060,N,12214.0699160,W,15.3123,254.1346,190721,,,,A*58
$GPGGA,205019.44,3726.6625600,N,12214.0749080,W,1,0,0.0,7.6251,M,0.0000,M,0.0000,0000*6f
$GPRMC,205019.44,A,3726.6625600,N,12214.0749080,W,17.9732,233.7064,190721,,,,A*5a
$GPGGA,205020.44,3726.6586600,N,12214.0793420,W,1,0,0.0,7.7443,M,0.0000,M,0.0000,0000*62
$GPRMC,205020.44,A,3726.6586600,N,12214.0793420,W,20.0029,217.8911,190721,,,,A*51
$GPGGA,205021.44,3726.6536500,N,12214.0834760,W,1,0,0.0,7.9739,M,0.0000,M,0.0000,0000*6e
$GPRMC,205021.44,A,3726.6536500,N,12214.0834760,W,23.2265,212.2975,190721,,,,A*5b
$GPGGA,205022.44,3726.6477520,N,12214.0879100,W,1,0,0.0,8.3018,M,0.0000,M,0.0000,0000*63
$GPRMC,205022.44,A,3726.6477520,N,12214.0879100,W,25.9406,209.9493,190721,,,,A*5d
$GPGGA,205023.44,3726.6411880,N,12214.0923860,W,1,0,0.0,8.6902,M,0.0000,M,0.0000,0000*63
$GPRMC,205023.44,A,3726.6411880,N,12214.0923860,W,27.7629,207.8764,190721,,,,A*5d
$GPGGA,205024.44,3726.6340600,N,12214.0969880,W,1,0,0.0,9.2048,M,0.0000,M,0.0000,0000*63
$GPRMC,205024.44,A,3726.6340600,N,12214.0969880,W,30.0430,207.1215,190721,,,,A*5e
$GPGGA,205025.44,3726.6263260,N,12214.1019560,W,1,0,0.0,9.5253,M,0.0000,M,0.0000,0000*63
$GPRMC,205025.44,A,3726.6263260,N,12214.1019560,W,32.1895,207.0492,190721,,,,A*59
$GPGGA,205026.44,3726.6181360,N,12214.1072540,W,1,0,0.0,9.7831,M,0.0000,M,0.0000,0000*6d
$GPRMC,205026.44,A,3726.6181360,N,12214.1072540,W,34.1963,207.4224,190721,,,,A*5a
$GPGGA,205027.44,3726.6094780,N,12214.1129660,W,1,0,0.0,9.9111,M,0.0000,M,0.0000,0000*68
$GPRMC,205027.44,A,3726.6094780,N,12214.1129660,W,36.0568,207.7940,190721,,,,A*54
$GPGGA,205028.44,3726.6004840,N,12214.1189600,W,1,0,0.0,10.0575,M,0.0000,M,0.0000,0000*56
$GPRMC,205028.44,A,3726.6004840,N,12214.1189600,W,36.7022,208.0980,190721,,,,A*55
$GPGGA,205029.44,3726.5915800,N,12214.1249780,W,1,0,0.0,10.2338,M,0.0000,M,0.0000,0000*52
$GPRMC,205029.44,A,3726.5915800,N,12214.1249780,W,36.0176,208.2577,190721,,,,A*5d
$GPGGA,205030.44,3726.5828620,N,12214.1308580,W,1,0,0.0,10.4598,M,0.0000,M,0.0000,0000*55
$GPRMC,205030.44,A,3726.5828620,N,12214.1308580,W,35.1062,208.1311,190721,,,,A*53
$GPGGA,205031.44,3726.5742700,N,12214.1366120,W,1,0,0.0,10.7544,M,0.0000,M,0.0000,0000*50
$GPRMC,205031.44,A,3726.5742700,N,12214.1366120,W,35.0424,207.9729,190721,,,,A*5b
$GPGGA,205032.44,3726.5656600,N,12214.1423480,W,1,0,0.0,11.2234,M,0.0000,M,0.0000,0000*5b
$GPRMC,205032.44,A,3726.5656600,N,12214.1423480,W,35.0298,207.7503,190721,,,,A*51
$GPGGA,205033.44,3726.5570200,N,12214.1480120,W,1,0,0.0,11.8950,M,0.0000,M,0.0000,0000*5c
$GPRMC,205033.44,A,3726.5570200,N,12214.1480120,W,35.1550,207.4092,190721,,,,A*59
$GPGGA,205034.44,3726.5483800,N,12214.1536340,W,1,0,0.0,12.7318,M,0.0000,M,0.0000,0000*5e
$GPRMC,205034.44,A,3726.5483800,N,12214.1536340,W,34.6199,207.3949,190721,,,,A*5e
$GPGGA,205035.44,3726.5399980,N,12214.1591120,W,1,0,0.0,13.7943,M,0.0000,M,0.0000,0000*56
$GPRMC,205035.44,A,3726.5399980,N,12214.1591120,W,33.3192,207.6131,190721,,,,A*58
$GPGGA,205036.44,3726.5319820,N,12214.1644220,W,1,0,0.0,14.8075,M,0.0000,M,0.0000,0000*5a
$GPRMC,205036.44,A,3726.5319820,N,12214.1644220,W,31.8892,208.0787,190721,,,,A*52
$GPGGA,205037.44,3726.5242960,N,12214.1696420,W,1,0,0.0,15.6488,M,0.0000,M,0.0000,0000*51
$GPRMC,205037.44,A,3726.5242960,N,12214.1696420,W,31.0508,208.6301,190721,,,,A*5a
$GPGGA,205038.44,3726.5167300,N,12214.1748800,W,1,0,0.0,16.4212,M,0.0000,M,0.0000,0000*5e
$GPRMC,205038.44,A,3726.5167300,N,12214.1748800,W,31.1139,208.9329,190721,,,,A*53
$GPGGA,205039.44,3726.5091880,N,12214.1801780,W,1,0,0.0,17.1648,M,0.0000,M,0.0000,0000*5e
$GPRMC,205039.44,A,3726.5091880,N,12214.1801780,W,31.0477,209.2636,190721,,,,A*53
$GPGGA,205040.44,3726.5015920,N,12214.1855720,W,1,0,0.0,17.8369,M,0.0000,M,0.0000,0000*53
$GPRMC,205040.44,A,3726.5015920,N,12214.1855720,W,31.9305,209.1446,190721,,,,A*5c
$GPGGA,205041.44,3726.4936660,N,12214.1911700,W,1,0,0.0,18.5332,M,0.0000,M,0.0000,0000*5f
$GPRMC,205041.44,A,3726.4936660,N,12214.1911700,W,33.6989,209.4894,190721,,,,A*59
$GPGGA,205042.44,3726.4855540,N,12214.1974100,W,1,0,0.0,19.3660,M,0.0000,M,0.0000,0000*59
$GPRMC,205042.44,A,3726.4855540,N,12214.1974100,W,34.7410,213.3162,190721,,,,A*5d
$GPGGA,205043.44,3726.4775740,N,12214.2047300,W,1,0,0.0,20.2923,M,0.0000,M,0.0000,0000*5c
$GPRMC,205043.44,A,3726.4775740,N,12214.2047300,W,36.3645,217.9786,190721,,,,A*5d
$GPGGA,205044.44,3726.4696300,N,12214.2130400,W,1,0,0.0,21.2485,M,0.0000,M,0.0000,0000*51
$GPRMC,205044.44,A,3726.4696300,N,12214.2130400,W,38.0731,221.4249,190721,,,,A*51
$GPGGA,205045.44,3726.4618060,N,12214.2224000,W,1,0,0.0,22.3596,M,0.0000,M,0.0000,0000*50
$GPRMC,205045.44,A,3726.4618060,N,12214.2224000,W,39.6615,225.1362,190721,,,,A*58
$GPGGA,205046.44,3726.4542400,N,12214.2327680,W,1,0,0.0,23.5419,M,0.0000,M,0.0000,0000*50
$GPRMC,205046.44,A,3726.4542400,N,12214.2327680,W,40.5674,229.6299,190721,,,,A*5d
$GPGGA,205047.44,3726.4473760,N,12214.2440000,W,1,0,0.0,24.7517,M,0.0000,M,0.0000,0000*55
$GPRMC,205047.44,A,3726.4473760,N,12214.2440000,W,40.6668,234.4955,190721,,,,A*59
$GPGGA,205048.44,3726.4409680,N,12214.2557660,W,1,0,0.0,26.0120,M,0.0000,M,0.0000,0000*5a
$GPRMC,205048.44,A,3726.4409680,N,12214.2557660,W,40.9704,236.2698,190721,,,,A*5d
$GPGGA,205049.44,3726.4347160,N,12214.2677180,W,1,0,0.0,27.2362,M,0.0000,M,0.0000,0000*50
$GPRMC,205049.44,A,3726.4347160,N,12214.2677180,W,40.9092,236.7001,190721,,,,A*5b
$GPGGA,205050.44,3726.4283200,N,12214.2794660,W,1,0,0.0,28.5335,M,0.0000,M,0.0000,0000*5b
$GPRMC,205050.44,A,3726.4283200,N,12214.2794660,W,40.6462,234.4328,190721,,,,A*57
$GPGGA,205051.44,3726.4214920,N,12214.2907460,W,1,0,0.0,29.8148,M,0.0000,M,0.0000,0000*5f
$GPRMC,205051.44,A,3726.4214920,N,12214.2907460,W,40.5909,231.8086,190721,,,,A*5a
$GPGGA,205052.44,3726.4144060,N,12214.3017920,W,1,0,0.0,30.9326,M,0.0000,M,0.0000,0000*54
$GPRMC,205052.44,A,3726.4144060,N,12214.3017920,W,40.6915,230.7017,190721,,,,A*5a
$GPGGA,205053.44,3726.4070980,N,12214.3126760,W,1,0,0.0,31.9815,M,0.0000,M,0.0000,0000*57
$GPRMC,205053.44,A,3726.4070980,N,12214.3126760,W,40.9554,229.2876,190721,,,,A*57
$GPGGA,205054.44,3726.3994840,N,12214.3234340,W,1,0,0.0,33.0549,M,0.0000,M,0.0000,0000*50
$GPRMC,205054.44,A,3726.3994840,N,12214.3234340,W,41.5586,227.6065,190721,,,,A*5d
$GPGGA,205055.44,3726.3914920,N,12214.3338980,W,1,0,0.0,34.1571,M,0.0000,M,0.0000,0000*58
$GPRMC,205055.44,A,3726.3914920,N,12214.3338980,W,41.4922,225.1682,190721,,,,A*51
$GPGGA,205056.44,3726.3832540,N,12214.3439900,W,1,0,0.0,35.0711,M,0.0000,M,0.0000,0000*5e
$GPRMC,205056.44,A,3726.3832540,N,12214.3439900,W,41.2653,223.4109,190721,,,,A*5b
$GPGGA,205057.44,3726.3748300,N,12214.3536500,W,1,0,0.0,36.1334,M,0.0000,M,0.0000,0000*5c
$GPRMC,205057.44,A,3726.3748300,N,12214.3536500,W,40.5710,221.3721,190721,,,,A*51
$GPGGA,205058.44,3726.3663100,N,12214.3625360,W,1,0,0.0,37.3202,M,0.0000,M,0.0000,0000*5f
$GPRMC,205058.44,A,3726.3663100,N,12214.3625360,W,39.2274,218.5642,190721,,,,A*53
$GPGGA,205059.44,3726.3578140,N,12214.3709600,W,1,0,0.0,38.4398,M,0.0000,M,0.0000,0000*55
$GPRMC,205059.44,A,3726.3578140,N,12214.3709600,W,38.6384,217.9210,190721,,,,A*58
$GPGGA,205100.44,3726.3492700,N,12214.3789640,W,1,0,0.0,39.4469,M,0.0000,M,0.0000,0000*5b
$GPRMC,205100.44,A,3726.3492700,N,12214.3789640,W,38.1106,215.9431,190721,,,,A*56
$GPGGA,205101.44,3726.3406060,N,12214.3865360,W,1,0,0.0,40.3248,M,0.0000,M,0.0000,0000*50
$GPRMC,205101.44,A,3726.3406060,N,12214.3865360,W,37.8222,214.0718,190721,,,,A*52
$GPGGA,205102.44,3726.3318280,N,12214.3937000,W,1,0,0.0,41.2126,M,0.0000,M,0.0000,0000*5f
$GPRMC,205102.44,A,3726.3318280,N,12214.3937000,W,37.4876,212.2854,190721,,,,A*52
$GPGGA,205103.44,3726.3229420,N,12214.4005280,W,1,0,0.0,41.9274,M,0.0000,M,0.0000,0000*5b
$GPRMC,205103.44,A,3726.3229420,N,12214.4005280,W,37.5864,210.8049,190721,,,,A*57
$GPGGA,205104.44,3726.3138040,N,12214.4070920,W,1,0,0.0,42.4419,M,0.0000,M,0.0000,0000*5d
$GPRMC,205104.44,A,3726.3138040,N,12214.4070920,W,38.1448,208.9600,190721,,,,A*58
$GPGGA,205105.44,3726.3043480,N,12214.4133080,W,1,0,0.0,42.9042,M,0.0000,M,0.0000,0000*5b
$GPRMC,205105.44,A,3726.3043480,N,12214.4133080,W,38.6145,206.6394,190721,,,,A*5f
$GPGGA,205106.44,3726.2945980,N,12214.4191220,W,1,0,0.0,43.2532,M,0.0000,M,0.0000,0000*53
$GPRMC,205106.44,A,3726.2945980,N,12214.4191220,W,39.0525,204.5827,190721,,,,A*58
$GPGGA,205107.44,3726.2845720,N,12214.4246120,W,1,0,0.0,43.4840,M,0.0000,M,0.0000,0000*53
$GPRMC,205107.44,A,3726.2845720,N,12214.4246120,W,39.5905,202.9342,190721,,,,A*5f
$GPGGA,205108.44,3726.2743180,N,12214.4298200,W,1,0,0.0,43.6447,M,0.0000,M,0.0000,0000*52
$GPRMC,205108.44,A,3726.2743180,N,12214.4298200,W,39.8745,201.4469,190721,,,,A*50
$GPGGA,205109.44,3726.2639740,N,12214.4347580,W,1,0,0.0,43.8117,M,0.0000,M,0.0000,0000*57
$GPRMC,205109.44,A,3726.2639740,N,12214.4347580,W,39.7810,200.1831,190721,,,,A*5e
$GPGGA,205110.44,3726.2535760,N,12214.4395880,W,1,0,0.0,43.8505,M,0.0000,M,0.0000,0000*57
$GPRMC,205110.44,A,3726.2535760,N,12214.4395880,W,39.9483,200.4940,190721,,,,A*53
$GPGGA,205111.44,3726.2431960,N,12214.4446280,W,1,0,0.0,44.1167,M,0.0000,M,0.0000,0000*50
$GPRMC,205111.44,A,3726.2431960,N,12214.4446280,W,40.0801,201.7301,190721,,,,A*56
$GPGGA,205112.44,3726.2328880,N,12214.4500040,W,1,0,0.0,44.4735,M,0.0000,M,0.0000,0000*5a
$GPRMC,205112.44,A,3726.2328880,N,12214.4500040,W,40.1320,203.1001,190721,,,,A*56
$GPGGA,205113.44,3726.2228140,N,12214.4556980,W,1,0,0.0,44.9345,M,0.0000,M,0.0000,0000*57
$GPRMC,205113.44,A,3726.2228140,N,12214.4556980,W,39.3162,205.2512,190721,,,,A*5f
$GPGGA,205114.44,3726.2131900,N,12214.4619020,W,1,0,0.0,45.4868,M,0.0000,M,0.0000,0000*54
$GPRMC,205114.44,A,3726.2131900,N,12214.4619020,W,38.5046,208.7309,190721,,,,A*50
$GPGGA,205115.44,3726.2041600,N,12214.4688800,W,1,0,0.0,46.1688,M,0.0000,M,0.0000,0000*58
$GPRMC,205115.44,A,3726.2041600,N,12214.4688800,W,37.6546,214.4026,190721,,,,A*53
$GPGGA,205116.44,3726.1960600,N,12214.4768240,W,1,0,0.0,46.9605,M,0.0000,M,0.0000,0000*5e
$GPRMC,205116.44,A,3726.1960600,N,12214.4768240,W,36.3466,221.0439,190721,,,,A*57
$GPGGA,205117.44,3726.1889620,N,12214.4855360,W,1,0,0.0,47.6101,M,0.0000,M,0.0000,0000*54
$GPRMC,205117.44,A,3726.1889620,N,12214.4855360,W,35.1192,226.2328,190721,,,,A*5d
$GPGGA,205118.44,3726.1825480,N,12214.4944880,W,1,0,0.0,48.1744,M,0.0000,M,0.0000,0000*5e
$GPRMC,205118.44,A,3726.1825480,N,12214.4944880,W,33.8615,229.1944,190721,,,,A*53
$GPGGA,205119.44,3726.1766560,N,12214.5033680,W,1,0,0.0,48.8622,M,0.0000,M,0.0000,0000*56
$GPRMC,205119.44,A,3726.1766560,N,12214.5033680,W,32.2927,230.9021,190721,,,,A*5c
$GPGGA,205120.44,3726.1713820,N,12214.5120380,W,1,0,0.0,49.5639,M,0.0000,M,0.0000,0000*57
$GPRMC,205120.44,A,3726.1713820,N,12214.5120380,W,30.2108,233.4350,190721,,,,A*57
$GPGGA,205121.44,3726.1667200,N,12214.5202700,W,1,0,0.0,50.1722,M,0.0000,M,0.0000,0000*54
$GPRMC,205121.44,A,3726.1667200,N,12214.5202700,W,27.2968,235.7311,190721,,,,A*5b
$GPGGA,205122.44,3726.1630720,N,12214.5277640,W,1,0,0.0,50.7693,M,0.0000,M,0.0000,0000*58
$GPRMC,205122.44,A,3726.1630720,N,12214.5277640,W,22.8265,240.3500,190721,,,,A*53
$GPGGA,205123.44,3726.1606480,N,12214.5340280,W,1,0,0.0,51.1442,M,0.0000,M,0.0000,0000*51
$GPRMC,205123.44,A,3726.1606480,N,12214.5340280,W,17.1692,246.5461,190721,,,,A*56
$GPGGA,205124.44,3726.1593880,N,12214.5387920,W,1,0,0.0,51.4306,M,0.0000,M,0.0000,0000*5d
$GPRMC,205124.44,A,3726.1593880,N,12214.5387920,W,11.8176,253.4189,190721,,,,A*5c
$GPGGA,205125.44,3726.1588480,N,12214.5419780,W,1,0,0.0,51.6137,M,0.0000,M,0.0000,0000*5c
$GPRMC,205125.44,A,3726.1588480,N,12214.5419780,W,6.9548,258.6055,190721,,,,A*68
$GPGGA,205126.44,3726.1586620,N,12214.5437120,W,1,0,0.0,51.6980,M,0.0000,M,0.0000,0000*5d
$GPRMC,205126.44,A,3726.1586620,N,12214.5437120,W,3.7785,261.3297,190721,,,,A*66
$GPGGA,205127.44,3726.1585540,N,12214.5450740,W,1,0,0.0,51.7466,M,0.0000,M,0.0000,0000*5f
$GPRMC,205127.44,A,3726.1585540,N,12214.5450740,W,4.5098,263.3166,190721,,,,A*61
$GPGGA,205128.44,3726.1584580,N,12214.5474260,W,1,0,0.0,51.8283,M,0.0000,M,0.0000,0000*5e
$GPRMC,205128.44,A,3726.1584580,N,12214.5474260,W,9.2876,266.6208,190721,,,,A*6b
$GPGGA,205129.44,3726.1585180,N,12214.5514400,W,1,0,0.0,51.9938,M,0.0000,M,0.0000,0000*57
$GPRMC,205129.44,A,3726.1585180,N,12214.5514400,W,13.4752,272.0798,190721,,,,A*53
$GPGGA,205130.44,3726.1590520,N,12214.5565160,W,1,0,0.0,52.3088,M,0.0000,M,0.0000,0000*5b
$GPRMC,205130.44,A,3726.1590520,N,12214.5565160,W,15.6364,279.3079,190721,,,,A*51
$GPGGA,205131.44,3726.1601920,N,12214.5620840,W,1,0,0.0,52.7248,M,0.0000,M,0.0000,0000*5e
$GPRMC,205131.44,A,3726.1601920,N,12214.5620840,W,17.5698,285.8613,190721,,,,A*5b
$GPGGA,205132.44,3726.1618480,N,12214.5682580,W,1,0,0.0,53.1025,M,0.0000,M,0.0000,0000*55
$GPRMC,205132.44,A,3726.1618480,N,12214.5682580,W,19.6353,289.1080,190721,,,,A*58
$GPGGA,205133.44,3726.1638640,N,12214.5749720,W,1,0,0.0,53.6295,M,0.0000,M,0.0000,0000*58
$GPRMC,205133.44,A,3726.1638640,N,12214.5749720,W,21.4578,291.4945,190721,,,,A*51
$GPGGA,205134.44,3726.1662520,N,12214.5820640,W,1,0,0.0,54.2039,M,0.0000,M,0.0000,0000*55
$GPRMC,205134.44,A,3726.1662520,N,12214.5820640,W,22.5987,293.5178,190721,,,,A*50
$GPGGA,205135.44,3726.1689160,N,12214.5893480,W,1,0,0.0,54.8392,M,0.0000,M,0.0000,0000*5f
$GPRMC,205135.44,A,3726.1689160,N,12214.5893480,W,23.2529,295.1733,190721,,,,A*57
$GPGGA,205136.44,3726.1717000,N,12214.5965420,W,1,0,0.0,55.5420,M,0.0000,M,0.0000,0000*5d
$GPRMC,205136.44,A,3726.1717000,N,12214.5965420,W,22.4580,296.0738,190721,,,,A*5a
$GPGGA,205137.44,3726.1743940,N,12214.6033520,W,1,0,0.0,56.1871,M,0.0000,M,0.0000,0000*57
$GPRMC,205137.44,A,3726.1743940,N,12214.6033520,W,21.2840,296.3221,190721,,,,A*55
$GPGGA,205138.44,3726.1770340,N,12214.6099700,W,1,0,0.0,56.8117,M,0.0000,M,0.0000,0000*52
$GPRMC,205138.44,A,3726.1770340,N,12214.6099700,W,21.2735,296.5963,190721,,,,A*56
$GPGGA,205139.44,3726.1797520,N,12214.6166660,W,1,0,0.0,57.4175,M,0.0000,M,0.0000,0000*55
$GPRMC,205139.44,A,3726.1797520,N,12214.6166660,W,21.9414,297.2581,190721,,,,A*55
$GPGGA,205140.44,3726.1827220,N,12214.6236140,W,1,0,0.0,58.1104,M,0.0000,M,0.0000,0000*57
$GPRMC,205140.44,A,3726.1827220,N,12214.6236140,W,23.2262,298.5354,190721,,,,A*53
$GPGGA,205141.44,3726.1859440,N,12214.6307240,W,1,0,0.0,58.8264,M,0.0000,M,0.0000,0000*53
$GPRMC,205141.44,A,3726.1859440,N,12214.6307240,W,23.6460,300.0871,190721,,,,A*52
$GPGGA,205142.44,3726.1894240,N,12214.6378100,W,1,0,0.0,59.5660,M,0.0000,M,0.0000,0000*54
$GPRMC,205142.44,A,3726.1894240,N,12214.6378100,W,24.1216,302.5186,190721,,,,A*58
$GPGGA,205143.44,3726.1932580,N,12214.6448300,W,1,0,0.0,60.2788,M,0.0000,M,0.0000,0000*5f
$GPRMC,205143.44,A,3726.1932580,N,12214.6448300,W,24.6877,305.4640,190721,,,,A*58
$GPGGA,205144.44,3726.1974340,N,12214.6517960,W,1,0,0.0,61.0345,M,0.0000,M,0.0000,0000*51
$GPRMC,205144.44,A,3726.1974340,N,12214.6517960,W,25.2698,307.5281,190721,,,,A*50
$GPGGA,205145.44,3726.2019040,N,12214.6587200,W,1,0,0.0,61.8309,M,0.0000,M,0.0000,0000*56
$GPRMC,205145.44,A,3726.2019040,N,12214.6587200,W,25.8172,309.7920,190721,,,,A*52
$GPGGA,205146.44,3726.2066740,N,12214.6655660,W,1,0,0.0,62.6676,M,0.0000,M,0.0000,0000*54
$GPRMC,205146.44,A,3726.2066740,N,12214.6655660,W,26.3250,311.8021,190721,,,,A*55
$GPGGA,205147.44,3726.2116600,N,12214.6724240,W,1,0,0.0,63.5128,M,0.0000,M,0.0000,0000*59
$GPRMC,205147.44,A,3726.2116600,N,12214.6724240,W,26.8646,312.5193,190721,,,,A*58
$GPGGA,205148.44,3726.2167660,N,12214.6793540,W,1,0,0.0,64.3655,M,0.0000,M,0.0000,0000*51
$GPRMC,205148.44,A,3726.2167660,N,12214.6793540,W,27.2281,312.6805,190721,,,,A*5d
$GPGGA,205149.44,3726.2219380,N,12214.6864340,W,1,0,0.0,65.1433,M,0.0000,M,0.0000,0000*51
$GPRMC,205149.44,A,3726.2219380,N,12214.6864340,W,27.8778,312.3022,190721,,,,A*5d
$GPGGA,205150.44,3726.2272240,N,12214.6937360,W,1,0,0.0,65.8885,M,0.0000,M,0.0000,0000*54
$GPRMC,205150.44,A,3726.2272240,N,12214.6937360,W,28.7040,312.2046,190721,,,,A*5f
$GPGGA,205151.44,3726.2326840,N,12214.7012540,W,1,0,0.0,66.5744,M,0.0000,M,0.0000,0000*58
$GPRMC,205151.44,A,3726.2326840,N,12214.7012540,W,29.6184,312.4752,190721,,,,A*52
$GPGGA,205152.44,3726.2383840,N,12214.7089820,W,1,0,0.0,67.2502,M,0.0000,M,0.0000,0000*5b
$GPRMC,205152.44,A,3726.2383840,N,12214.7089820,W,30.7690,312.8377,190721,,,,A*53
$GPGGA,205153.44,3726.2443120,N,12214.7170100,W,1,0,0.0,67.9328,M,0.0000,M,0.0000,0000*57
$GPRMC,205153.44,A,3726.2443120,N,12214.7170100,W,32.0310,312.7668,190721,,,,A*56
$GPGGA,205154.44,3726.2505160,N,12214.7253560,W,1,0,0.0,68.6170,M,0.0000,M,0.0000,0000*58
$GPRMC,205154.44,A,3726.2505160,N,12214.7253560,W,33.3061,313.2611,190721,,,,A*5b
$GPGGA,205155.44,3726.2569960,N,12214.7339000,W,1,0,0.0,69.3278,M,0.0000,M,0.0000,0000*5a
$GPRMC,205155.44,A,3726.2569960,N,12214.7339000,W,34.0813,313.7227,190721,,,,A*5b
$GPGGA,205156.44,3726.2635960,N,12214.7424380,W,1,0,0.0,70.0470,M,0.0000,M,0.0000,0000*56
$GPRMC,205156.44,A,3726.2635960,N,12214.7424380,W,34.1180,314.2788,190721,,,,A*52
$GPGGA,205157.44,3726.2702380,N,12214.7509220,W,1,0,0.0,70.8024,M,0.0000,M,0.0000,0000*5e
$GPRMC,205157.44,A,3726.2702380,N,12214.7509220,W,34.0067,314.2419,190721,,,,A*55
$GPGGA,205158.44,3726.2767420,N,12214.7595200,W,1,0,0.0,71.5839,M,0.0000,M,0.0000,0000*50
$GPRMC,205158.44,A,3726.2767420,N,12214.7595200,W,34.1302,312.7628,190721,,,,A*51
$GPGGA,205159.44,3726.2832040,N,12214.7684360,W,1,0,0.0,72.3041,M,0.0000,M,0.0000,0000*5a
$GPRMC,205159.44,A,3726.2832040,N,12214.7684360,W,34.9271,312.0980,190721,,,,A*5e
$GPGGA,205200.44,3726.2899060,N,12214.7776280,W,1,0,0.0,73.0908,M,0.0000,M,0.0000,0000*53
$GPRMC,205200.44,A,3726.2899060,N,12214.7776280,W,36.5126,312.7684,190721,,,,A*52
$GPGGA,205201.44,3726.2969680,N,12214.7869580,W,1,0,0.0,73.8748,M,0.0000,M,0.0000,0000*50
$GPRMC,205201.44,A,3726.2969680,N,12214.7869580,W,37.2932,313.9602,190721,,,,A*59
$GPGGA,205202.44,3726.3043540,N,12214.7963720,W,1,0,0.0,74.7128,M,0.0000,M,0.0000,0000*57
$GPRMC,205202.44,A,3726.3043540,N,12214.7963720,W,38.1005,314.9229,190721,,,,A*5d
$GPGGA,205203.44,3726.3118720,N,12214.8056480,W,1,0,0.0,75.5153,M,0.0000,M,0.0000,0000*5b
$GPRMC,205203.44,A,3726.3118720,N,12214.8056480,W,37.7561,315.7248,190721,,,,A*58
$GPGGA,205204.44,3726.3194020,N,12214.8148040,W,1,0,0.0,76.2495,M,0.0000,M,0.0000,0000*52
$GPRMC,205204.44,A,3726.3194020,N,12214.8148040,W,37.6775,315.9484,190721,,,,A*54
$GPGGA,205205.44,3726.3268780,N,12214.8238880,W,1,0,0.0,77.0279,M,0.0000,M,0.0000,0000*59
$GPRMC,205205.44,A,3726.3268780,N,12214.8238880,W,37.0622,315.7378,190721,,,,A*57
$GPGGA,205206.44,3726.3342160,N,12214.8329300,W,1,0,0.0,77.7877,M,0.0000,M,0.0000,0000*5a
$GPRMC,205206.44,A,3726.3342160,N,12214.8329300,W,37.0181,315.1865,190721,,,,A*58
$GPGGA,205207.44,3726.3415180,N,12214.8420860,W,1,0,0.0,78.5525,M,0.0000,M,0.0000,0000*54
$GPRMC,205207.44,A,3726.3415180,N,12214.8420860,W,37.3144,314.8860,190721,,,,A*56
$GPGGA,205208.44,3726.3488980,N,12214.8513980,W,1,0,0.0,79.3261,M,0.0000,M,0.0000,0000*59
$GPRMC,205208.44,A,3726.3488980,N,12214.8513980,W,38.0796,314.7251,190721,,,,A*59
$GPGGA,205209.44,3726.3564400,N,12214.8609680,W,1,0,0.0,80.1196,M,0.0000,M,0.0000,0000*56
$GPRMC,205209.44,A,3726.3564400,N,12214.8609680,W,39.0229,314.6301,190721,,,,A*5c
$GPGGA,205210.44,3726.3641140,N,12214.8707180,W,1,0,0.0,80.9295,M,0.0000,M,0.0000,0000*5b
$GPRMC,205210.44,A,3726.3641140,N,12214.8707180,W,39.5753,314.5310,190721,,,,A*57
$GPGGA,205211.44,3726.3718840,N,12214.8806120,W,1,0,0.0,81.7472,M,0.0000,M,0.0000,0000*5a
$GPRMC,205211.44,A,3726.3718840,N,12214.8806120,W,39.9747,314.5616,190721,,,,A*5c
$GPGGA,205212.44,3726.3797020,N,12214.8905420,W,1,0,0.0,82.5675,M,0.0000,M,0.0000,0000*53
$GPRMC,205212.44,A,3726.3797020,N,12214.8905420,W,40.0247,314.6556,190721,,,,A*57
$GPGGA,205213.44,3726.3875440,N,12214.9004840,W,1,0,0.0,83.3830,M,0.0000,M,0.0000,0000*58
$GPRMC,205213.44,A,3726.3875440,N,12214.9004840,W,40.2097,314.5530,190721,,,,A*5a
$GPGGA,205214.44,3726.3953860,N,12214.9105580,W,1,0,0.0,84.2078,M,0.0000,M,0.0000,0000*57
$GPRMC,205214.44,A,3726.3953860,N,12214.9105580,W,40.4976,314.1079,190721,,,,A*5b
$GPGGA,205215.44,3726.4032400,N,12214.9207220,W,1,0,0.0,85.0714,M,0.0000,M,0.0000,0000*57
$GPRMC,205215.44,A,3726.4032400,N,12214.9207220,W,40.6430,314.0024,190721,,,,A*51
$GPGGA,205216.44,3726.4111000,N,12214.9309400,W,1,0,0.0,85.9308,M,0.0000,M,0.0000,0000*5b
$GPRMC,205216.44,A,3726.4111000,N,12214.9309400,W,40.8231,313.8352,190721,,,,A*59
$GPGGA,205217.44,3726.4189780,N,12214.9412780,W,1,0,0.0,86.8066,M,0.0000,M,0.0000,0000*5b
$GPRMC,205217.44,A,3726.4189780,N,12214.9412780,W,41.1296,313.5867,190721,,,,A*55
$GPGGA,205218.44,3726.4268740,N,12214.9516760,W,1,0,0.0,87.6462,M,0.0000,M,0.0000,0000*50
$GPRMC,205218.44,A,3726.4268740,N,12214.9516760,W,41.1400,313.6081,190721,,,,A*5b
$GPGGA,205219.44,3726.4347700,N,12214.9620320,W,1,0,0.0,88.5110,M,0.0000,M,0.0000,0000*53
$GPRMC,205219.44,A,3726.4347700,N,12214.9620320,W,41.0610,313.7742,190721,,,,A*5f
$GPGGA,205220.44,3726.4426840,N,12214.9723640,W,1,0,0.0,89.3444,M,0.0000,M,0.0000,0000*50
$GPRMC,205220.44,A,3726.4426840,N,12214.9723640,W,41.0638,313.8485,190721,,,,A*52
$GPGGA,205221.44,3726.4506160,N,12214.9826960,W,1,0,0.0,90.1687,M,0.0000,M,0.0000,0000*59
$GPRMC,205221.44,A,3726.4506160,N,12214.9826960,W,41.2975,313.9279,190721,,,,A*5c
$GPGGA,205222.44,3726.4586440,N,12214.9931060,W,1,0,0.0,91.0170,M,0.0000,M,0.0000,0000*54
$GPRMC,205222.44,A,3726.4586440,N,12214.9931060,W,41.7189,314.1121,190721,,,,A*51
$GPGGA,205223.44,3726.4667620,N,12215.0036060,W,1,0,0.0,91.8682,M,0.0000,M,0.0000,0000*59
$GPRMC,205223.44,A,3726.4667620,N,12215.0036060,W,42.1684,313.9847,190721,,,,A*57
$GPGGA,205224.44,3726.4749580,N,12215.0142500,W,1,0,0.0,92.7210,M,0.0000,M,0.0000,0000*58
$GPRMC,205224.44,A,3726.4749580,N,12215.0142500,W,42.6512,314.0103,190721,,,,A*59
$GPGGA,205225.44,3726.4832500,N,12215.0250020,W,1,0,0.0,93.6213,M,0.0000,M,0.0000,0000*56
$GPRMC,205225.44,A,3726.4832500,N,12215.0250020,W,43.0994,313.9391,190721,,,,A*56
$GPGGA,205226.44,3726.4915960,N,12215.0358860,W,1,0,0.0,94.6130,M,0.0000,M,0.0000,0000*5b
$GPRMC,205226.44,A,3726.4915960,N,12215.0358860,W,43.4743,313.8448,190721,,,,A*5c
$GPGGA,205227.44,3726.5000020,N,12215.0468660,W,1,0,0.0,95.6324,M,0.0000,M,0.0000,0000*57
$GPRMC,205227.44,A,3726.5000020,N,12215.0468660,W,43.8290,313.7932,190721,,,,A*5e
$GPGGA,205228.44,3726.5084740,N,12215.0579600,W,1,0,0.0,96.6604,M,0.0000,M,0.0000,0000*56
$GPRMC,205228.44,A,3726.5084740,N,12215.0579600,W,44.1926,313.8184,190721,,,,A*59
$GPGGA,205229.44,3726.5170060,N,12215.0691080,W,1,0,0.0,97.7196,M,0.0000,M,0.0000,0000*5f
$GPRMC,205229.44,A,3726.5170060,N,12215.0691080,W,44.3526,313.8039,190721,,,,A*55
$GPGGA,205230.44,3726.5254840,N,12215.0803100,W,1,0,0.0,98.7282,M,0.0000,M,0.0000,0000*5d
$GPRMC,205230.44,A,3726.5254840,N,12215.0803100,W,44.1732,313.2815,190721,,,,A*57
$GPGGA,205231.44,3726.5337820,N,12215.0916320,W,1,0,0.0,99.7063,M,0.0000,M,0.0000,0000*57
$GPRMC,205231.44,A,3726.5337820,N,12215.0916320,W,44.0291,311.9442,190721,,,,A*5b
$GPGGA,205232.44,3726.5418160,N,12215.1031940,W,1,0,0.0,100.6008,M,0.0000,M,0.0000,0000*6f
$GPRMC,205232.44,A,3726.5418160,N,12215.1031940,W,43.9584,310.3743,190721,,,,A*5a
$GPGGA,205233.44,3726.5496040,N,12215.1150020,W,1,0,0.0,101.5142,M,0.0000,M,0.0000,0000*6f
$GPRMC,205233.44,A,3726.5496040,N,12215.1150020,W,43.8845,309.0552,190721,,,,A*5f
$GPGGA,205234.44,3726.5571460,N,12215.1270020,W,1,0,0.0,102.4056,M,0.0000,M,0.0000,0000*61
$GPRMC,205234.44,A,3726.5571460,N,12215.1270020,W,43.7278,307.4695,190721,,,,A*5e
$GPGGA,205235.44,3726.5643880,N,12215.1392360,W,1,0,0.0,103.2908,M,0.0000,M,0.0000,0000*6f
$GPRMC,205235.44,A,3726.5643880,N,12215.1392360,W,43.6336,305.9114,190721,,,,A*5e
$GPGGA,205236.44,3726.5713480,N,12215.1516800,W,1,0,0.0,104.1728,M,0.0000,M,0.0000,0000*6b
$GPRMC,205236.44,A,3726.5713480,N,12215.1516800,W,43.5258,304.3738,190721,,,,A*5b
$GPGGA,205237.44,3726.5780320,N,12215.1643160,W,1,0,0.0,105.0440,M,0.0000,M,0.0000,0000*6c
$GPRMC,205237.44,A,3726.5780320,N,12215.1643160,W,43.4430,302.9385,190721,,,,A*56
$GPGGA,205238.44,3726.5844520,N,12215.1771320,W,1,0,0.0,105.9134,M,0.0000,M,0.0000,0000*6b
$GPRMC,205238.44,A,3726.5844520,N,12215.1771320,W,43.3472,301.5360,190721,,,,A*5b
$GPGGA,205239.44,3726.5906140,N,12215.1901100,W,1,0,0.0,106.7928,M,0.0000,M,0.0000,0000*6e
$GPRMC,205239.44,A,3726.5906140,N,12215.1901100,W,43.2637,300.2002,190721,,,,A*55
$GPGGA,205240.44,3726.5965540,N,12215.2032320,W,1,0,0.0,107.6578,M,0.0000,M,0.0000,0000*62
$GPRMC,205240.44,A,3726.5965540,N,12215.2032320,W,43.2684,299.1211,190721,,,,A*5a
$GPGGA,205241.44,3726.6022780,N,12215.2165100,W,1,0,0.0,108.5260,M,0.0000,M,0.0000,0000*65
$GPRMC,205241.44,A,3726.6022780,N,12215.2165100,W,43.2853,297.8267,190721,,,,A*5d
$GPGGA,205242.44,3726.6077560,N,12215.2299560,W,1,0,0.0,109.4114,M,0.0000,M,0.0000,0000*68
$GPRMC,205242.44,A,3726.6077560,N,12215.2299560,W,43.2976,296.4069,190721,,,,A*57
$GPGGA,205243.44,3726.6129520,N,12215.2435700,W,1,0,0.0,110.3072,M,0.0000,M,0.0000,0000*6d
$GPRMC,205243.44,A,3726.6129520,N,12215.2435700,W,43.2217,294.9805,190721,,,,A*5d
$GPGGA,205244.44,3726.6178720,N,12215.2572860,W,1,0,0.0,111.1876,M,0.0000,M,0.0000,0000*68
$GPRMC,205244.44,A,3726.6178720,N,12215.2572860,W,43.0013,293.6175,190721,,,,A*55
$GPGGA,205245.44,3726.6224920,N,12215.2710800,W,1,0,0.0,112.0506,M,0.0000,M,0.0000,0000*65
$GPRMC,205245.44,A,3726.6224920,N,12215.2710800,W,42.7962,292.1550,190721,,,,A*5c
$GPGGA,205246.44,3726.6268180,N,12215.2849760,W,1,0,0.0,112.9110,M,0.0000,M,0.0000,0000*6c
$GPRMC,205246.44,A,3726.6268180,N,12215.2849760,W,42.8479,290.7062,190721,,,,A*57
$GPGGA,205247.44,3726.6308560,N,12215.2989740,W,1,0,0.0,113.7686,M,0.0000,M,0.0000,0000*68
$GPRMC,205247.44,A,3726.6308560,N,12215.2989740,W,42.3144,289.3744,190721,,,,A*5b
$GPGGA,205248.44,3726.6346120,N,12215.3128460,W,1,0,0.0,114.6178,M,0.0000,M,0.0000,0000*6e
$GPRMC,205248.44,A,3726.6346120,N,12215.3128460,W,41.8544,288.2630,190721,,,,A*53
$GPGGA,205249.44,3726.6381280,N,12215.3267720,W,1,0,0.0,115.4954,M,0.0000,M,0.0000,0000*67
$GPRMC,205249.44,A,3726.6381280,N,12215.3267720,W,41.8822,287.0942,190721,,,,A*55
$GPGGA,205250.44,3726.6414040,N,12215.3407700,W,1,0,0.0,116.3222,M,0.0000,M,0.0000,0000*66
$GPRMC,205250.44,A,3726.6414040,N,12215.3407700,W,41.7294,285.7692,190721,,,,A*55
$GPGGA,205251.44,3726.6443920,N,12215.3548040,W,1,0,0.0,117.1661,M,0.0000,M,0.0000,0000*63
$GPRMC,205251.44,A,3726.6443920,N,12215.3548040,W,41.5470,284.3599,190721,,,,A*53
$GPGGA,205252.44,3726.6470980,N,12215.3688620,W,1,0,0.0,117.9987,M,0.0000,M,0.0000,0000*6a
$GPRMC,205252.44,A,3726.6470980,N,12215.3688620,W,41.3816,282.9725,190721,,,,A*56
$GPGGA,205253.44,3726.6495160,N,12215.3829440,W,1,0,0.0,118.8063,M,0.0000,M,0.0000,0000*6a
$GPRMC,205253.44,A,3726.6495160,N,12215.3829440,W,41.2201,281.5788,190721,,,,A*5e
$GPGGA,205254.44,3726.6516640,N,12215.3970320,W,1,0,0.0,119.5600,M,0.0000,M,0.0000,0000*61
$GPRMC,205254.44,A,3726.6516640,N,12215.3970320,W,41.0749,280.3517,190721,,,,A*52
$GPGGA,205255.44,3726.6535840,N,12215.4111440,W,1,0,0.0,120.2722,M,0.0000,M,0.0000,0000*6a
$GPRMC,205255.44,A,3726.6535840,N,12215.4111440,W,40.9676,279.2189,190721,,,,A*54
$GPGGA,205256.44,3726.6552760,N,12215.4252680,W,1,0,0.0,120.9475,M,0.0000,M,0.0000,0000*65
$GPRMC,205256.44,A,3726.6552760,N,12215.4252680,W,40.9726,278.0786,190721,,,,A*5f
$GPGGA,205257.44,3726.6567280,N,12215.4394460,W,1,0,0.0,121.5956,M,0.0000,M,0.0000,0000*6f
$GPRMC,205257.44,A,3726.6567280,N,12215.4394460,W,40.9757,276.6627,190721,,,,A*50
$GPGGA,205258.44,3726.6578860,N,12215.4536600,W,1,0,0.0,122.2258,M,0.0000,M,0.0000,0000*61
$GPRMC,205258.44,A,3726.6578860,N,12215.4536600,W,40.9631,275.2718,190721,,,,A*54
$GPGGA,205259.44,3726.6587620,N,12215.4679100,W,1,0,0.0,122.8250,M,0.0000,M,0.0000,0000*67
$GPRMC,205259.44,A,3726.6587620,N,12215.4679100,W,41.0040,273.8170,190721,,,,A*5c
$GPGGA,205300.44,3726.6593620,N,12215.4822140,W,1,0,0.0,123.3534,M,0.0000,M,0.0000,0000*64
$GPRMC,205300.44,A,3726.6593620,N,12215.4822140,W,41.1171,272.4533,190721,,,,A*5c
$GPGGA,205301.44,3726.6596980,N,12215.4965720,W,1,0,0.0,123.8668,M,0.0000,M,0.0000,0000*66
$GPRMC,205301.44,A,3726.6596980,N,12215.4965720,W,41.2451,271.2015,190721,,,,A*5f
$GPGGA,205302.44,3726.6597880,N,12215.5109840,W,1,0,0.0,124.3525,M,0.0000,M,0.0000,0000*69
$GPRMC,205302.44,A,3726.6597880,N,12215.5109840,W,41.4036,269.8494,190721,,,,A*5b
$GPGGA,205303.44,3726.6595960,N,12215.5254740,W,1,0,0.0,124.7985,M,0.0000,M,0.0000,0000*63
$GPRMC,205303.44,A,3726.6595960,N,12215.5254740,W,41.7082,268.3784,190721,,,,A*57
$GPGGA,205304.44,3726.6591160,N,12215.5400720,W,1,0,0.0,125.1716,M,0.0000,M,0.0000,0000*6a
$GPRMC,205304.44,A,3726.6591160,N,12215.5400720,W,42.0579,267.1642,190721,,,,A*5e
$GPGGA,205305.44,3726.6584080,N,12215.5547900,W,1,0,0.0,125.4835,M,0.0000,M,0.0000,0000*65
$GPRMC,205305.44,A,3726.6584080,N,12215.5547900,W,42.5108,266.0508,190721,,,,A*50
$GPGGA,205306.44,3726.6574660,N,12215.5696580,W,1,0,0.0,125.7353,M,0.0000,M,0.0000,0000*62
$GPRMC,205306.44,A,3726.6574660,N,12215.5696580,W,43.0179,265.0313,190721,,,,A*52
$GPGGA,205307.44,3726.6563260,N,12215.5847420,W,1,0,0.0,125.9568,M,0.0000,M,0.0000,0000*68
$GPRMC,205307.44,A,3726.6563260,N,12215.5847420,W,43.9021,264.2714,190721,,,,A*5d
$GPGGA,205308.44,3726.6551080,N,12215.6000780,W,1,0,0.0,126.1348,M,0.0000,M,0.0000,0000*64
$GPRMC,205308.44,A,3726.6551080,N,12215.6000780,W,44.4329,264.3853,190721,,,,A*52
$GPGGA,205309.44,3726.6539020,N,12215.6155760,W,1,0,0.0,126.2744,M,0.0000,M,0.0000,0000*65
$GPRMC,205309.44,A,3726.6539020,N,12215.6155760,W,44.8771,264.3948,190721,,,,A*56
$GPGGA,205310.44,3726.6526720,N,12215.6312480,W,1,0,0.0,126.3656,M,0.0000,M,0.0000,0000*6b
$GPRMC,205310.44,A,3726.6526720,N,12215.6312480,W,45.5076,264.3371,190721,,,,A*57
$GPGGA,205311.44,3726.6514000,N,12215.6472020,W,1,0,0.0,126.4643,M,0.0000,M,0.0000,0000*62
$GPRMC,205311.44,A,3726.6514000,N,12215.6472020,W,46.2238,264.1413,190721,,,,A*50
$GPGGA,205312.44,3726.6500980,N,12215.6631680,W,1,0,0.0,126.5955,M,0.0000,M,0.0000,0000*65
$GPRMC,205312.44,A,3726.6500980,N,12215.6631680,W,45.7301,264.1289,190721,,,,A*56
$GPGGA,205313.44,3726.6487960,N,12215.6789180,W,1,0,0.0,126.7666,M,0.0000,M,0.0000,0000*6c
$GPRMC,205313.44,A,3726.6487960,N,12215.6789180,W,45.0286,264.0013,190721,,,,A*5b
$GPGGA,205314.44,3726.6475000,N,12215.6944100,W,1,0,0.0,126.9408,M,0.0000,M,0.0000,0000*6a
$GPRMC,205314.44,A,3726.6475000,N,12215.6944100,W,44.3031,263.9249,190721,,,,A*56
$GPGGA,205315.44,3726.6462160,N,12215.7096500,W,1,0,0.0,127.0830,M,0.0000,M,0.0000,0000*66
$GPRMC,205315.44,A,3726.6462160,N,12215.7096500,W,43.5937,264.0991,190721,,,,A*5b
$GPGGA,205316.44,3726.6450220,N,12215.7246560,W,1,0,0.0,127.2118,M,0.0000,M,0.0000,0000*6b
$GPRMC,205316.44,A,3726.6450220,N,12215.7246560,W,42.8942,264.3508,190721,,,,A*56
$GPGGA,205317.44,3726.6438640,N,12215.7394280,W,1,0,0.0,127.3387,M,0.0000,M,0.0000,0000*64
$GPRMC,205317.44,A,3726.6438640,N,12215.7394280,W,42.2028,264.3236,190721,,,,A*59
$GPGGA,205318.44,3726.6427300,N,12215.7539600,W,1,0,0.0,127.4583,M,0.0000,M,0.0000,0000*6c
$GPRMC,205318.44,A,3726.6427300,N,12215.7539600,W,41.5361,264.4358,190721,,,,A*50
$GPGGA,205319.44,3726.6416500,N,12215.7682760,W,1,0,0.0,127.5197,M,0.0000,M,0.0000,0000*6d
$GPRMC,205319.44,A,3726.6416500,N,12215.7682760,W,40.9006,264.6541,190721,,,,A*52
$GPGGA,205320.44,3726.6406180,N,12215.7823700,W,1,0,0.0,127.5868,M,0.0000,M,0.0000,0000*60
$GPRMC,205320.44,A,3726.6406180,N,12215.7823700,W,40.2737,264.7775,190721,,,,A*5c
$GPGGA,205321.44,3726.6396100,N,12215.7962480,W,1,0,0.0,127.7019,M,0.0000,M,0.0000,0000*64
$GPRMC,205321.44,A,3726.6396100,N,12215.7962480,W,39.6315,264.7284,190721,,,,A*51
$GPGGA,205322.44,3726.6385840,N,12215.8099160,W,1,0,0.0,127.7751,M,0.0000,M,0.0000,0000*6a
$GPRMC,205322.44,A,3726.6385840,N,12215.8099160,W,39.0862,264.4623,190721,,,,A*53
$GPGGA,205323.44,3726.6375340,N,12215.8233860,W,1,0,0.0,127.8442,M,0.0000,M,0.0000,0000*6a
$GPRMC,205323.44,A,3726.6375340,N,12215.8233860,W,38.4576,264.3994,190721,,,,A*54
$GPGGA,205324.44,3726.6365500,N,12215.8367240,W,1,0,0.0,127.8838,M,0.0000,M,0.0000,0000*67
$GPRMC,205324.44,A,3726.6365500,N,12215.8367240,W,38.5439,264.8624,190721,,,,A*5c
$GPGGA,205325.44,3726.6356860,N,12215.8502840,W,1,0,0.0,127.9179,M,0.0000,M,0.0000,0000*6f
$GPRMC,205325.44,A,3726.6356860,N,12215.8502840,W,39.4039,265.9185,190721,,,,A*51
$GPGGA,205326.44,3726.6350680,N,12215.8641500,W,1,0,0.0,127.9055,M,0.0000,M,0.0000,0000*68
$GPRMC,205326.44,A,3726.6350680,N,12215.8641500,W,40.2718,267.5517,190721,,,,A*54
$GPGGA,205327.44,3726.6347800,N,12215.8783220,W,1,0,0.0,127.8742,M,0.0000,M,0.0000,0000*63
$GPRMC,205327.44,A,3726.6347800,N,12215.8783220,W,41.0009,268.9805,190721,,,,A*56
$GPGGA,205328.44,3726.6347080,N,12215.8926380,W,1,0,0.0,127.8239,M,0.0000,M,0.0000,0000*6f
$GPRMC,205328.44,A,3726.6347080,N,12215.8926380,W,41.1231,270.1411,190721,,,,A*53
$GPGGA,205329.44,3726.6348760,N,12215.9071100,W,1,0,0.0,127.7567,M,0.0000,M,0.0000,0000*6b
$GPRMC,205329.44,A,3726.6348760,N,12215.9071100,W,41.8890,271.2458,190721,,,,A*53
$GPGGA,205330.44,3726.6352660,N,12215.9218580,W,1,0,0.0,127.6576,M,0.0000,M,0.0000,0000*69
$GPRMC,205330.44,A,3726.6352660,N,12215.9218580,W,42.7443,272.3582,190721,,,,A*5a
$GPGGA,205331.44,3726.6359080,N,12215.9368940,W,1,0,0.0,127.5302,M,0.0000,M,0.0000,0000*6b
$GPRMC,205331.44,A,3726.6359080,N,12215.9368940,W,43.5616,273.6269,190721,,,,A*59
$GPGGA,205332.44,3726.6368680,N,12215.9521820,W,1,0,0.0,127.3684,M,0.0000,M,0.0000,0000*6d
$GPRMC,205332.44,A,3726.6368680,N,12215.9521820,W,44.3701,275.1044,190721,,,,A*58
$GPGGA,205333.44,3726.6381520,N,12215.9677160,W,1,0,0.0,127.1515,M,0.0000,M,0.0000,0000*66
$GPRMC,205333.44,A,3726.6381520,N,12215.9677160,W,45.2196,276.4626,190721,,,,A*56
$GPGGA,205334.44,3726.6397540,N,12215.9835200,W,1,0,0.0,126.9038,M,0.0000,M,0.0000,0000*6e
$GPRMC,205334.44,A,3726.6397540,N,12215.9835200,W,46.1153,277.8505,190721,,,,A*5b
$GPGGA,205335.44,3726.6416800,N,12215.9996300,W,1,0,0.0,126.6062,M,0.0000,M,0.0000,0000*61
$GPRMC,205335.44,A,3726.6416800,N,12215.9996300,W,47.3314,278.9519,190721,,,,A*55
$GPGGA,205336.44,3726.6439000,N,12216.0160940,W,1,0,0.0,126.2742,M,0.0000,M,0.0000,0000*63
$GPRMC,205336.44,A,3726.6439000,N,12216.0160940,W,48.3913,280.1139,190721,,,,A*5d
$GPGGA,205337.44,3726.6464500,N,12216.0328220,W,1,0,0.0,125.9400,M,0.0000,M,0.0000,0000*61
$GPRMC,205337.44,A,3726.6464500,N,12216.0328220,W,49.2791,281.4763,190721,,,,A*5b
$GPGGA,205338.44,3726.6494140,N,12216.0497420,W,1,0,0.0,125.5685,M,0.0000,M,0.0000,0000*67
$GPRMC,205338.44,A,3726.6494140,N,12216.0497420,W,50.0048,283.1256,190721,,,,A*53
$GPGGA,205339.44,3726.6528160,N,12216.0666980,W,1,0,0.0,125.2105,M,0.0000,M,0.0000,0000*61
$GPRMC,205339.44,A,3726.6528160,N,12216.0666980,W,50.1149,284.9813,190721,,,,A*58
$GPGGA,205340.44,3726.6566020,N,12216.0834740,W,1,0,0.0,124.8523,M,0.0000,M,0.0000,0000*60
$GPRMC,205340.44,A,3726.6566020,N,12216.0834740,W,49.7827,286.5248,190721,,,,A*57
$GPGGA,205341.44,3726.6607180,N,12216.0999860,W,1,0,0.0,124.4643,M,0.0000,M,0.0000,0000*6c
$GPRMC,205341.44,A,3726.6607180,N,12216.0999860,W,49.4263,288.0254,190721,,,,A*5d
$GPGGA,205342.44,3726.6651520,N,12216.1162340,W,1,0,0.0,124.1024,M,0.0000,M,0.0000,0000*64
$GPRMC,205342.44,A,3726.6651520,N,12216.1162340,W,49.0600,289.5573,190721,,,,A*54
$GPGGA,205343.44,3726.6698740,N,12216.1322120,W,1,0,0.0,123.7409,M,0.0000,M,0.0000,0000*6c
$GPRMC,205343.44,A,3726.6698740,N,12216.1322120,W,48.6878,290.9884,190721,,,,A*51
$GPGGA,205344.44,3726.6749020,N,12216.1479560,W,1,0,0.0,123.3659,M,0.0000,M,0.0000,0000*6d
$GPRMC,205344.44,A,3726.6749020,N,12216.1479560,W,48.6349,292.4849,190721,,,,A*54
$GPGGA,205345.44,3726.6802540,N,12216.1636340,W,1,0,0.0,122.9283,M,0.0000,M,0.0000,0000*6a
$GPRMC,205345.44,A,3726.6802540,N,12216.1636340,W,49.2160,293.7745,190721,,,,A*56
$GPGGA,205346.44,3726.6859240,N,12216.1793540,W,1,0,0.0,122.5566,M,0.0000,M,0.0000,0000*68
$GPRMC,205346.44,A,3726.6859240,N,12216.1793540,W,49.6460,294.7831,190721,,,,A*5e
$GPGGA,205347.44,3726.6918880,N,12216.1950260,W,1,0,0.0,122.2014,M,0.0000,M,0.0000,0000*68
$GPRMC,205347.44,A,3726.6918880,N,12216.1950260,W,49.9194,296.0181,190721,,,,A*5f
$GPGGA,205348.44,3726.6981760,N,12216.2106260,W,1,0,0.0,121.8920,M,0.0000,M,0.0000,0000*69
$GPRMC,205348.44,A,3726.6981760,N,12216.2106260,W,50.2995,297.4084,190721,,,,A*52
$GPGGA,205349.44,3726.7048120,N,12216.2261480,W,1,0,0.0,121.5638,M,0.0000,M,0.0000,0000*66
$GPRMC,205349.44,A,3726.7048120,N,12216.2261480,W,50.7053,298.8210,190721,,,,A*5c
$GPGGA,205350.44,3726.7118380,N,12216.2415500,W,1,0,0.0,121.2753,M,0.0000,M,0.0000,0000*65
$GPRMC,205350.44,A,3726.7118380,N,12216.2415500,W,51.0081,300.6953,190721,,,,A*5f
$GPGGA,205351.44,3726.7192720,N,12216.2567540,W,1,0,0.0,121.0604,M,0.0000,M,0.0000,0000*69
$GPRMC,205351.44,A,3726.7192720,N,12216.2567540,W,51.2849,302.1346,190721,,,,A*57
$GPGGA,205352.44,3726.7270720,N,12216.2717960,W,1,0,0.0,120.9266,M,0.0000,M,0.0000,0000*66
$GPRMC,205352.44,A,3726.7270720,N,12216.2717960,W,51.5791,303.8168,190721,,,,A*5b
$GPGGA,205353.44,3726.7352560,N,12216.2866220,W,1,0,0.0,120.8054,M,0.0000,M,0.0000,0000*64
$GPRMC,205353.44,A,3726.7352560,N,12216.2866220,W,51.8391,305.4530,190721,,,,A*51
$GPGGA,205354.44,3726.7438240,N,12216.3012140,W,1,0,0.0,120.7899,M,0.0000,M,0.0000,0000*64
$GPRMC,205354.44,A,3726.7438240,N,12216.3012140,W,52.0293,307.1170,190721,,,,A*58
$GPGGA,205355.44,3726.7527100,N,12216.3155660,W,1,0,0.0,120.8477,M,0.0000,M,0.0000,0000*69
$GPRMC,205355.44,A,3726.7527100,N,12216.3155660,W,52.1642,308.3502,190721,,,,A*53
$GPGGA,205356.44,3726.7618540,N,12216.3297020,W,1,0,0.0,121.0432,M,0.0000,M,0.0000,0000*62
$GPRMC,205356.44,A,3726.7618540,N,12216.3297020,W,52.1916,309.6454,190721,,,,A*58
$GPGGA,205357.44,3726.7712260,N,12216.3435860,W,1,0,0.0,121.2847,M,0.0000,M,0.0000,0000*63
$GPRMC,205357.44,A,3726.7712260,N,12216.3435860,W,52.0952,310.6691,190721,,,,A*57
$GPGGA,205358.44,3726.7807360,N,12216.3572600,W,1,0,0.0,121.5880,M,0.0000,M,0.0000,0000*60
$GPRMC,205358.44,A,3726.7807360,N,12216.3572600,W,51.9701,311.1846,190721,,,,A*58
$GPGGA,205359.44,3726.7902280,N,12216.3708980,W,1,0,0.0,121.9582,M,0.0000,M,0.0000,0000*61
$GPRMC,205359.44,A,3726.7902280,N,12216.3708980,W,51.8360,311.1265,190721,,,,A*53
$GPGGA,205400.44,3726.7997140,N,12216.3844940,W,1,0,0.0,122.3278,M,0.0000,M,0.0000,0000*69
$GPRMC,205400.44,A,3726.7997140,N,12216.3844940,W,51.6926,311.1938,190721,,,,A*55
$GPGGA,205401.44,3726.8091760,N,12216.3980240,W,1,0,0.0,122.7489,M,0.0000,M,0.0000,0000*62
$GPRMC,205401.44,A,3726.8091760,N,12216.3980240,W,51.5339,311.2381,190721,,,,A*5e
$GPGGA,205402.44,3726.8186260,N,12216.4115060,W,1,0,0.0,123.2402,M,0.0000,M,0.0000,0000*67
$GPRMC,205402.44,A,3726.8186260,N,12216.4115060,W,51.3188,311.3195,190721,,,,A*54
$GPGGA,205403.44,3726.8280100,N,12216.4249280,W,1,0,0.0,123.7660,M,0.0000,M,0.0000,0000*63
$GPRMC,205403.44,A,3726.8280100,N,12216.4249280,W,51.0620,311.0779,190721,,,,A*52
$GPGGA,205404.44,3726.8373100,N,12216.4383320,W,1,0,0.0,124.3559,M,0.0000,M,0.0000,0000*6f
$GPRMC,205404.44,A,3726.8373100,N,12216.4383320,W,50.7956,311.0121,190721,,,,A*57
$GPGGA,205405.44,3726.8465740,N,12216.4516340,W,1,0,0.0,125.0173,M,0.0000,M,0.0000,0000*6e
$GPRMC,205405.44,A,3726.8465740,N,12216.4516340,W,50.5276,311.1514,190721,,,,A*50
$GPGGA,205406.44,3726.8558140,N,12216.4648580,W,1,0,0.0,125.7274,M,0.0000,M,0.0000,0000*65
$GPRMC,205406.44,A,3726.8558140,N,12216.4648580,W,50.2498,311.1983,190721,,,,A*5b
$GPGGA,205407.44,3726.8650000,N,12216.4780040,W,1,0,0.0,126.4582,M,0.0000,M,0.0000,0000*68
$GPRMC,205407.44,A,3726.8650000,N,12216.4780040,W,49.9874,311.2244,190721,,,,A*56
$GPGGA,205408.44,3726.8741500,N,12216.4910780,W,1,0,0.0,127.1741,M,0.0000,M,0.0000,0000*66
$GPRMC,205408.44,A,3726.8741500,N,12216.4910780,W,49.7485,311.2282,190721,,,,A*57
$GPGGA,205409.44,3726.8832520,N,12216.5040800,W,1,0,0.0,127.9171,M,0.0000,M,0.0000,0000*69
$GPRMC,205409.44,A,3726.8832520,N,12216.5040800,W,49.4362,311.3018,190721,,,,A*58
$GPGGA,205410.44,3726.8923420,N,12216.5170100,W,1,0,0.0,128.6417,M,0.0000,M,0.0000,0000*6f
$GPRMC,205410.44,A,3726.8923420,N,12216.5170100,W,49.4676,311.3499,190721,,,,A*56
$GPGGA,205411.44,3726.9014560,N,12216.5299640,W,1,0,0.0,129.3976,M,0.0000,M,0.0000,0000*6e
$GPRMC,205411.44,A,3726.9014560,N,12216.5299640,W,49.5949,311.5114,190721,,,,A*5d
$GPGGA,205412.44,3726.9106780,N,12216.5429240,W,1,0,0.0,130.1160,M,0.0000,M,0.0000,0000*6f
$GPRMC,205412.44,A,3726.9106780,N,12216.5429240,W,50.0304,311.8219,190721,,,,A*54
$GPGGA,205413.44,3726.9200020,N,12216.5559680,W,1,0,0.0,130.8410,M,0.0000,M,0.0000,0000*63
$GPRMC,205413.44,A,3726.9200020,N,12216.5559680,W,50.3846,311.7971,190721,,,,A*57
$GPGGA,205414.44,3726.9293620,N,12216.5690840,W,1,0,0.0,131.5762,M,0.0000,M,0.0000,0000*66
$GPRMC,205414.44,A,3726.9293620,N,12216.5690840,W,50.4733,311.6534,190721,,,,A*5e
$GPGGA,205415.44,3726.9385900,N,12216.5822960,W,1,0,0.0,132.3263,M,0.0000,M,0.0000,0000*69
$GPRMC,205415.44,A,3726.9385900,N,12216.5822960,W,50.2555,310.7982,190721,,,,A*55
$GPGGA,205416.44,3726.9476680,N,12216.5956100,W,1,0,0.0,133.0474,M,0.0000,M,0.0000,0000*68
$GPRMC,205416.44,A,3726.9476680,N,12216.5956100,W,50.1968,310.1626,190721,,,,A*50
$GPGGA,205417.44,3726.9566680,N,12216.6090380,W,1,0,0.0,133.7541,M,0.0000,M,0.0000,0000*63
$GPRMC,205417.44,A,3726.9566680,N,12216.6090380,W,50.4144,309.9145,190721,,,,A*5a
$GPGGA,205418.44,3726.9656980,N,12216.6225380,W,1,0,0.0,134.4090,M,0.0000,M,0.0000,0000*62
$GPRMC,205418.44,A,3726.9656980,N,12216.6225380,W,50.5432,309.9578,190721,,,,A*59
$GPGGA,205419.44,3726.9746740,N,12216.6359540,W,1,0,0.0,135.0355,M,0.0000,M,0.0000,0000*6e
$GPRMC,205419.44,A,3726.9746740,N,12216.6359540,W,49.7901,309.8749,190721,,,,A*5c
$GPGGA,205420.44,3726.9834400,N,12216.6492140,W,1,0,0.0,135.5465,M,0.0000,M,0.0000,0000*6c
$GPRMC,205420.44,A,3726.9834400,N,12216.6492140,W,49.0010,309.4457,190721,,,,A*51
$GPGGA,205421.44,3726.9920320,N,12216.6623120,W,1,0,0.0,135.9877,M,0.0000,M,0.0000,0000*61
$GPRMC,205421.44,A,3726.9920320,N,12216.6623120,W,48.2733,309.3943,190721,,,,A*55
$GPGGA,205422.44,3727.0005160,N,12216.6752540,W,1,0,0.0,136.4189,M,0.0000,M,0.0000,0000*61
$GPRMC,205422.44,A,3727.0005160,N,12216.6752540,W,47.8906,309.4229,190721,,,,A*5e
$GPGGA,205423.44,3727.0089880,N,12216.6881660,W,1,0,0.0,136.8049,M,0.0000,M,0.0000,0000*62
$GPRMC,205423.44,A,3727.0089880,N,12216.6881660,W,48.0097,309.3457,190721,,,,A*52
$GPGGA,205424.44,3727.0174720,N,12216.7011200,W,1,0,0.0,137.2014,M,0.0000,M,0.0000,0000*62
$GPRMC,205424.44,A,3727.0174720,N,12216.7011200,W,48.0466,309.5400,190721,,,,A*5f
$GPGGA,205425.44,3727.0259860,N,12216.7139840,W,1,0,0.0,137.6125,M,0.0000,M,0.0000,0000*66
$GPRMC,205425.44,A,3727.0259860,N,12216.7139840,W,47.8239,309.8130,190721,,,,A*5c
$GPGGA,205426.44,3727.0344880,N,12216.7267700,W,1,0,0.0,137.8963,M,0.0000,M,0.0000,0000*61
$GPRMC,205426.44,A,3727.0344880,N,12216.7267700,W,47.6632,309.7101,190721,,,,A*53
$GPGGA,205427.44,3727.0430020,N,12216.7395740,W,1,0,0.0,138.1143,M,0.0000,M,0.0000,0000*62
$GPRMC,205427.44,A,3727.0430020,N,12216.7395740,W,47.9474,309.7892,190721,,,,A*50
$GPGGA,205428.44,3727.0515400,N,12216.7524980,W,1,0,0.0,138.2681,M,0.0000,M,0.0000,0000*69
$GPRMC,205428.44,A,3727.0515400,N,12216.7524980,W,48.2809,309.4605,190721,,,,A*50
$GPGGA,205429.44,3727.0601140,N,12216.7655300,W,1,0,0.0,138.3627,M,0.0000,M,0.0000,0000*65
$GPRMC,205429.44,A,3727.0601140,N,12216.7655300,W,48.6173,309.5523,190721,,,,A*57
$GPGGA,205430.44,3727.0687960,N,12216.7786100,W,1,0,0.0,138.3862,M,0.0000,M,0.0000,0000*6b
$GPRMC,205430.44,A,3727.0687960,N,12216.7786100,W,48.9196,309.7825,190721,,,,A*5b
$GPGGA,205431.44,3727.0775260,N,12216.7917320,W,1,0,0.0,138.4148,M,0.0000,M,0.0000,0000*6d
$GPRMC,205431.44,A,3727.0775260,N,12216.7917320,W,49.1090,309.6187,190721,,,,A*55
$GPGGA,205432.44,3727.0862380,N,12216.8049680,W,1,0,0.0,138.4279,M,0.0000,M,0.0000,0000*6b
$GPRMC,205432.44,A,3727.0862380,N,12216.8049680,W,49.2806,309.4644,190721,,,,A*5c
$GPGGA,205433.44,3727.0949680,N,12216.8182580,W,1,0,0.0,138.4023,M,0.0000,M,0.0000,0000*6f
$GPRMC,205433.44,A,3727.0949680,N,12216.8182580,W,49.4585,309.2993,190721,,,,A*56
$GPGGA,205434.44,3727.1036560,N,12216.8316740,W,1,0,0.0,138.3510,M,0.0000,M,0.0000,0000*66
$GPRMC,205434.44,A,3727.1036560,N,12216.8316740,W,49.5421,308.7721,190721,,,,A*50
$GPGGA,205435.44,3727.1122780,N,12216.8451140,W,1,0,0.0,138.2284,M,0.0000,M,0.0000,0000*66
$GPRMC,205435.44,A,3727.1122780,N,12216.8451140,W,49.4507,308.8341,190721,,,,A*52
$GPGGA,205436.44,3727.1209480,N,12216.8585180,W,1,0,0.0,138.0886,M,0.0000,M,0.0000,0000*62
$GPRMC,205436.44,A,3727.1209480,N,12216.8585180,W,49.5255,309.2404,190721,,,,A*50
$GPGGA,205437.44,3727.1297140,N,12216.8718680,W,1,0,0.0,137.8707,M,0.0000,M,0.0000,0000*6d
$GPRMC,205437.44,A,3727.1297140,N,12216.8718680,W,49.6550,309.5969,190721,,,,A*5e
$GPGGA,205438.44,3727.1385700,N,12216.8852300,W,1,0,0.0,137.6075,M,0.0000,M,0.0000,0000*62
$GPRMC,205438.44,A,3727.1385700,N,12216.8852300,W,49.9877,309.7961,190721,,,,A*50
$GPGGA,205439.44,3727.1474920,N,12216.8987000,W,1,0,0.0,137.2816,M,0.0000,M,0.0000,0000*65
$GPRMC,205439.44,A,3727.1474920,N,12216.8987000,W,50.4599,309.5143,190721,,,,A*5c
$GPGGA,205440.44,3727.1564500,N,12216.9123620,W,1,0,0.0,136.9247,M,0.0000,M,0.0000,0000*62
$GPRMC,205440.44,A,3727.1564500,N,12216.9123620,W,50.9980,309.2835,190721,,,,A*59
$GPGGA,205441.44,3727.1654800,N,12216.9262160,W,1,0,0.0,136.5353,M,0.0000,M,0.0000,0000*63
$GPRMC,205441.44,A,3727.1654800,N,12216.9262160,W,51.6236,309.2206,190721,,,,A*52
$GPGGA,205442.44,3727.1746540,N,12216.9402440,W,1,0,0.0,136.0872,M,0.0000,M,0.0000,0000*61
$GPRMC,205442.44,A,3727.1746540,N,12216.9402440,W,52.3961,309.3818,190721,,,,A*56
$GPGGA,205443.44,3727.1839960,N,12216.9544580,W,1,0,0.0,135.5868,M,0.0000,M,0.0000,0000*6a
$GPRMC,205443.44,A,3727.1839960,N,12216.9544580,W,53.2347,309.5504,190721,,,,A*58
$GPGGA,205444.44,3727.1935300,N,12216.9688700,W,1,0,0.0,135.0286,M,0.0000,M,0.0000,0000*6a
$GPRMC,205444.44,A,3727.1935300,N,12216.9688700,W,54.1737,309.6278,190721,,,,A*5f
$GPGGA,205445.44,3727.2032440,N,12216.9835340,W,1,0,0.0,134.3954,M,0.0000,M,0.0000,0000*6b
$GPRMC,205445.44,A,3727.2032440,N,12216.9835340,W,55.1155,309.6826,190721,,,,A*5a
$GPGGA,205446.44,3727.2131200,N,12216.9984320,W,1,0,0.0,133.7719,M,0.0000,M,0.0000,0000*61
$GPRMC,205446.44,A,3727.2131200,N,12216.9984320,W,55.9376,309.5777,190721,,,,A*57
$GPGGA,205447.44,3727.2230680,N,12217.0136360,W,1,0,0.0,133.1262,M,0.0000,M,0.0000,0000*6c
$GPRMC,205447.44,A,3727.2230680,N,12217.0136360,W,56.8128,309.2313,190721,,,,A*5f
$GPGGA,205448.44,3727.2331420,N,12217.0290680,W,1,0,0.0,132.5008,M,0.0000,M,0.0000,0000*64
$GPRMC,205448.44,A,3727.2331420,N,12217.0290680,W,57.4203,309.3494,190721,,,,A*52
$GPGGA,205449.44,3727.2432520,N,12217.0445240,W,1,0,0.0,131.8754,M,0.0000,M,0.0000,0000*66
$GPRMC,205449.44,A,3727.2432520,N,12217.0445240,W,57.1673,309.2933,190721,,,,A*57
$GPGGA,205450.44,3727.2533320,N,12217.0598900,W,1,0,0.0,131.1982,M,0.0000,M,0.0000,0000*6a
$GPRMC,205450.44,A,3727.2533320,N,12217.0598900,W,56.9444,309.6050,190721,,,,A*50
$GPGGA,205451.44,3727.2634480,N,12217.0751660,W,1,0,0.0,130.5662,M,0.0000,M,0.0000,0000*68
$GPRMC,205451.44,A,3727.2634480,N,12217.0751660,W,56.9122,309.7444,190721,,,,A*53
$GPGGA,205452.44,3727.2735760,N,12217.0904300,W,1,0,0.0,129.9175,M,0.0000,M,0.0000,0000*6e
$GPRMC,205452.44,A,3727.2735760,N,12217.0904300,W,56.9521,309.7293,190721,,,,A*5b
$GPGGA,205453.44,3727.2837100,N,12217.1057000,W,1,0,0.0,129.2610,M,0.0000,M,0.0000,0000*60
$GPRMC,205453.44,A,3727.2837100,N,12217.1057000,W,56.9687,309.6068,190721,,,,A*52
$GPGGA,205454.44,3727.2937900,N,12217.1210360,W,1,0,0.0,128.6243,M,0.0000,M,0.0000,0000*6d
$GPRMC,205454.44,A,3727.2937900,N,12217.1210360,W,57.0190,309.3321,190721,,,,A*5a
$GPGGA,205455.44,3727.3038400,N,12217.1364440,W,1,0,0.0,127.9677,M,0.0000,M,0.0000,0000*62
$GPRMC,205455.44,A,3727.3038400,N,12217.1364440,W,57.1036,309.2328,190721,,,,A*52
$GPGGA,205456.44,3727.3139140,N,12217.1518700,W,1,0,0.0,127.2860,M,0.0000,M,0.0000,0000*69
$GPRMC,205456.44,A,3727.3139140,N,12217.1518700,W,57.2273,309.3723,190721,,,,A*54
$GPGGA,205457.44,3727.3240600,N,12217.1672780,W,1,0,0.0,126.6222,M,0.0000,M,0.0000,0000*68
$GPRMC,205457.44,A,3727.3240600,N,12217.1672780,W,57.2961,309.4571,190721,,,,A*56
$GPGGA,205458.44,3727.3341820,N,12217.1827220,W,1,0,0.0,125.9225,M,0.0000,M,0.0000,0000*61
$GPRMC,205458.44,A,3727.3341820,N,12217.1827220,W,57.3687,309.2216,190721,,,,A*52
$GPGGA,205459.44,3727.3443220,N,12217.1982200,W,1,0,0.0,125.1620,M,0.0000,M,0.0000,0000*6a
$GPRMC,205459.44,A,3727.3443220,N,12217.1982200,W,57.5960,309.4180,190721,,,,A*5a
$GPGGA,205500.44,3727.3546180,N,12217.2136760,W,1,0,0.0,124.4095,M,0.0000,M,0.0000,0000*61
$GPRMC,205500.44,A,3727.3546180,N,12217.2136760,W,57.8591,310.1839,190721,,,,A*54
$GPGGA,205501.44,3727.3651360,N,12217.2290120,W,1,0,0.0,123.7387,M,0.0000,M,0.0000,0000*60
$GPRMC,205501.44,A,3727.3651360,N,12217.2290120,W,58.0536,311.2458,190721,,,,A*52
$GPGGA,205502.44,3727.3759660,N,12217.2440300,W,1,0,0.0,123.2806,M,0.0000,M,0.0000,0000*63
$GPRMC,205502.44,A,3727.3759660,N,12217.2440300,W,58.0893,313.0597,190721,,,,A*56
$GPGGA,205503.44,3727.3872160,N,12217.2586040,W,1,0,0.0,122.9142,M,0.0000,M,0.0000,0000*6c
$GPRMC,205503.44,A,3727.3872160,N,12217.2586040,W,58.2657,315.2416,190721,,,,A*52
$GPGGA,205504.44,3727.3989640,N,12217.2726620,W,1,0,0.0,122.6984,M,0.0000,M,0.0000,0000*6e
$GPRMC,205504.44,A,3727.3989640,N,12217.2726620,W,58.5079,317.3101,190721,,,,A*50
$GPGGA,205505.44,3727.4111620,N,12217.2862280,W,1,0,0.0,122.5815,M,0.0000,M,0.0000,0000*6c
$GPRMC,205505.44,A,3727.4111620,N,12217.2862280,W,58.7370,319.3122,190721,,,,A*5f
$GPGGA,205506.44,3727.4237320,N,12217.2993740,W,1,0,0.0,122.5949,M,0.0000,M,0.0000,0000*63
$GPRMC,205506.44,A,3727.4237320,N,12217.2993740,W,58.9338,321.0193,190721,,,,A*58
