# 
# Header Description:
# 
# Version: Not Available Platform:  Manufacturer: null Model: null
# 
# Raw,utcTimeMillis,TimeNanos,LeapSecond,TimeUncertaintyNanos,FullBiasNanos,BiasNanos,BiasUncertaintyNanos,DriftNanosPerSecond,DriftUncertaintyNanosPerSecond,HardwareClockDiscontinuityCount,Svid,TimeOffsetNanos,State,ReceivedSvTimeNanos,ReceivedSvTimeUncertaintyNanos,Cn0DbHz,PseudorangeRateMetersPerSecond,PseudorangeRateUncertaintyMetersPerSecond,AccumulatedDeltaRangeState,AccumulatedDeltaRangeMeters,AccumulatedDeltaRangeUncertaintyMeters,CarrierFrequencyHz,CarrierCycles,CarrierPhase,CarrierPhaseUncertainty,MultipathIndicator,SnrInDb,ConstellationType,AgcDb,BasebandCn0DbHz,FullInterSignalBiasNanos,FullInterSignalBiasUncertaintyNanos,SatelliteInterSignalBiasNanos,SatelliteInterSignalBiasUncertaintyNanos,CodeType,ChipsetElapsedRealtimeNanos
# 
# UncalAccel,utcTimeMillis,elapsedRealtimeNanos,UncalAccelXMps2,UncalAccelYMps2,UncalAccelZMps2,BiasXMps2,BiasYMps2,BiasZMps2
# 
# Accel,utcTimeMillis,elapsedRealtimeNanos,AccelXMps2,AccelYMps2,AccelZMps2
# 
# UncalGyro,utcTimeMillis,elapsedRealtimeNanos,UncalGyroXRadPerSec,UncalGyroYRadPerSec,UncalGyroZRadPerSec,DriftXRadPerSec,DriftYRadPerSec,DriftZRadPerSec
# 
# Gyro,utcTimeMillis,elapsedRealtimeNanos,GyroXRadPerSec,GyroYRadPerSec,GyroZRadPerSec
# 
# UncalMag,utcTimeMillis,elapsedRealtimeNanos,UncalMagXMicroT,UncalMagYMicroT,UncalMagZMicroT,BiasXMicroT,BiasYMicroT,BiasZMicroT
# 
# Mag,utcTimeMillis,elapsedRealtimeNanos,MagXMicroT,MagYMicroT,MagZMicroT
# 
# OrientationDeg,utcTimeMillis,elapsedRealtimeNanos,yawDeg,rollDeg,pitchDeg
# 
# Fix,Provider,LatitudeDegrees,LongitudeDegrees,AltitudeMeters,SpeedMps,AccuracyMeters,BearingDegrees,UnixTimeMillis,SpeedAccuracyMps,BearingAccuracyDegrees,elapsedRealtimeNanos,VerticalAccuracyMeters,MockLocation,NumberOfUsedSignals,VerticalSpeedAccuracyMps,SolutionType
# 
# Nav,Svid,Type,Status,MessageId,Sub-messageId,Data(Bytes)
# 
# Status,UnixTimeMillis,SignalCount,SignalIndex,ConstellationType,Svid,CarrierFrequencyHz,Cn0DbHz,AzimuthDegrees,ElevationDegrees,UsedInFix,HasAlmanacData,HasEphemerisData,BasebandCn0DbHz
# 
# Agc,utcTimeMillis,TimeNanos,LeapSecond,TimeUncertaintyNanos,FullBiasNanos,BiasNanos,BiasUncertaintyNanos,DriftNanosPerSecond,DriftUncertaintyNanosPerSecond,HardwareClockDiscontinuityCount,AgcDb,CarrierFrequencyHz,ConstellationType
# 
Raw,1717850610431,2073606222000000,18,,-1399812222209029245,-0.8739131689071655,36049.582064151764,97.65625095687943,256.6639459027618,562,12,0.0,16399,564228352941064,24,28.5,-227.53414916992188,0.7155000567436218,16,0.0,0.0,1575420030,,,,0,,1,-0.48,25.0,0.0,0.0,,,C,3904242113422327
Raw,1717850611431,2073607222000000,18,,-1399812222209029148,-0.21729063987731934,36299.00515079498,97.65625095687943,252.75768924776716,562,12,0.0,16399,564229352941845,21,29.7,-226.69969177246094,0.20000000298023224,16,0.0,1902.9177342976868,1575420030,,,,0,,1,0.09,26.2,0.0,0.0,,,C,3904243052875556
Raw,1717850611431,2073607222000000,18,,-1399812222209029148,-0.21729063987731934,36299.00515079498,97.65625095687943,252.75768924776716,562,24,0.0,16399,564229355088920,748,21.5,655.9613037109375,1.74399995803833,16,0.0,0.0,1575420030,,,,0,,1,0.09,18.0,0.0,0.0,,,C,3904243052875556
Raw,1717850611431,2073607222000000,18,,-1399812222209029148,-0.21729063987731934,36299.00515079498,97.65625095687943,252.75768924776716,562,25,0.0,16399,564229355433319,648,22.7,-425.3254089355469,1.409000039100647,16,0.0,0.0,1575420030,,,,0,,1,0.09,19.2,0.0,0.0,,,C,3904243052875556
Raw,1717850611431,2073607222000000,18,,-1399812222209029148,-0.21729063987731934,36299.00515079498,97.65625095687943,252.75768924776716,562,19,0.0,16399,564215344718110,24,30.2,265.63861083984375,0.7124999761581421,16,0.0,0.0,1561097980,,,,0,,5,-0.22,25.9,-1579.282470703125,20.876562118530273,,,I,3904243052875556
Raw,1717850612430,2073608222000000,18,,-1399812222208992239,0.5096233785152435,14401.810243725777,95.46504797494956,68.17470048597585,562,12,0.0,16399,564230352942547,27,28.3,-224.6892547607422,0.6345000267028809,16,0.0,0.0,1575420030,,,,0,,1,-0.14,24.8,0.0,0.0,,,C,3904244114880035
Raw,1717850612430,2073608222000000,18,,-1399812222208992239,0.5096233785152435,14401.810243725777,95.46504797494956,68.17470048597585,562,24,0.0,16399,564230355086713,753,21.1,656.4465942382812,2.49399995803833,16,0.0,0.0,1575420030,,,,0,,1,-0.14,17.6,0.0,0.0,,,C,3904244114880035
Raw,1717850612430,2073608222000000,18,,-1399812222208992239,0.5096233785152435,14401.810243725777,95.46504797494956,68.17470048597585,562,25,0.0,16399,564230355434749,566,23.0,-424.8116149902344,2.0789999961853027,16,0.0,0.0,1575420030,,,,0,,1,-0.14,19.5,0.0,0.0,,,C,3904244114880035
Raw,1717850612430,2073608222000000,18,,-1399812222208992239,0.5096233785152435,14401.810243725777,95.46504797494956,68.17470048597585,562,19,0.0,16399,564216344717223,27,28.4,266.6756286621094,0.7125000357627869,16,0.0,0.0,1561097980,,,,0,,5,-0.39,24.099999999999998,-1579.282470703125,20.876562118530273,,,I,3904244114880035
Raw,1717850613430,2073609222000000,18,,-1399812222208992615,0.8043178915977478,11633.777990937233,93.45861052052841,38.67686906796663,562,12,0.0,16399,564231352943321,19,30.6,-224.1242218017578,0.20000000298023224,16,0.0,1902.9177342976868,1575420030,,,,0,,1,0.09,27.1,0.0,0.0,,,C,3904245114641180
Raw,1717850613430,2073609222000000,18,,-1399812222208992615,0.8043178915977478,11633.777990937233,93.45861052052841,38.67686906796663,562,18,0.0,16399,564231357839124,1009,19.2,591.3946533203125,3.5470001697540283,16,0.0,0.0,1575420030,,,,0,,1,0.09,15.7,0.0,0.0,,,C,3904245114641180
Raw,1717850613430,2073609222000000,18,,-1399812222208992615,0.8043178915977478,11633.777990937233,93.45861052052841,38.67686906796663,562,24,0.0,16399,564231355084421,875,20.6,658.520751953125,3.3340001106262207,16,0.0,0.0,1575420030,,,,0,,1,0.09,17.1,0.0,0.0,,,C,3904245114641180
Raw,1717850613430,2073609222000000,18,,-1399812222208992615,0.8043178915977478,11633.777990937233,93.45861052052841,38.67686906796663,562,25,0.0,16399,564231355436121,573,23.8,-424.3834533691406,2.8289999961853027,16,0.0,0.0,1575420030,,,,0,,1,0.09,20.3,0.0,0.0,,,C,3904245114641180
Raw,1717850613430,2073609222000000,18,,-1399812222208992615,0.8043178915977478,11633.777990937233,93.45861052052841,38.67686906796663,562,22,0.0,16399,564217354470986,1004,19.4,23.784090042114258,3.182500123977661,16,0.0,0.0,1561097980,,,,0,,5,-0.24,15.099999999999998,-1579.282470703125,20.876562118530273,,,I,3904245114641180
Raw,1717850613430,2073609222000000,18,,-1399812222208992615,0.8043178915977478,11633.777990937233,93.45861052052841,38.67686906796663,562,19,0.0,16399,564217344716324,27,28.9,267.4822082519531,0.6225000023841858,16,0.0,0.0,1561097980,,,,0,,5,-0.24,24.599999999999998,-1579.282470703125,20.876562118530273,,,I,3904245114641180
Raw,1717850614430,2073610222000000,18,,-1399812222208992422,0.13267409801483154,10787.26164996624,95.71298408620657,35.53108342766129,562,12,0.0,16399,564232352944118,19,30.8,-223.04478454589844,0.20000000298023224,16,0.0,1902.9177342976868,1575420030,,,,0,,1,0.25,27.3,0.0,0.0,,,C,3904246115412221
Raw,1717850614430,2073610222000000,18,,-1399812222208992422,0.13267409801483154,10787.26164996624,95.71298408620657,35.53108342766129,562,18,0.0,16399,564232357837192,1014,19.4,592.2224731445312,3.9220001697540283,16,0.0,0.0,1575420030,,,,0,,1,0.25,15.899999999999999,0.0,0.0,,,C,3904246115412221
Raw,1717850614430,2073610222000000,18,,-1399812222208992422,0.13267409801483154,10787.26164996624,95.71298408620657,35.53108342766129,562,24,0.0,16399,564232355082219,886,20.7,658.88232421875,4.084000110626221,16,0.0,0.0,1575420030,,,,0,,1,0.25,17.2,0.0,0.0,,,C,3904246115412221
Raw,1717850614430,2073610222000000,18,,-1399812222208992422,0.13267409801483154,10787.26164996624,95.71298408620657,35.53108342766129,562,25,0.0,16399,564232355437499,46,24.1,-424.0409240722656,3.883999824523926,16,0.0,0.0,1575420030,,,,0,,1,0.25,20.6,0.0,0.0,,,C,3904246115412221
Raw,1717850614430,2073610222000000,18,,-1399812222208992422,0.13267409801483154,10787.26164996624,95.71298408620657,35.53108342766129,562,14,0.0,49359,56614363602572,870,20.0,-131.47767639160156,3.0510001182556152,16,0.0,0.0,1598062460,,,,0,,3,-1.01,16.0,3782.17529296875,22.17367935180664,,,C,3904246115412221
Raw,1717850614430,2073610222000000,18,,-1399812222208992422,0.13267409801483154,10787.26164996624,95.71298408620657,35.53108342766129,562,22,0.0,16399,564218354470894,768,21.1,25.17637825012207,3.752500057220459,16,0.0,0.0,1561097980,,,,0,,5,0.22,16.8,-1579.282470703125,20.876562118530273,,,I,3904246115412221
Raw,1717850614430,2073610222000000,18,,-1399812222208992422,0.13267409801483154,10787.26164996624,95.71298408620657,35.53108342766129,562,19,0.0,16399,564218344715443,35,26.4,268.3847961425781,0.7324999570846558,16,0.0,0.0,1561097980,,,,0,,5,0.22,22.099999999999998,-1579.282470703125,20.876562118530273,,,I,3904246115412221
Raw,1717850615430,2073611222000000,18,,-1399812222208992196,0.5963309705257416,7617.225870490074,99.5713840455667,33.7584070355908,562,12,0.0,16399,564233352944862,24,28.6,-222.74740600585938,0.20000000298023224,16,0.0,1902.9177342976868,1575420030,,,,0,,1,0.19,25.1,0.0,0.0,,,C,3904247115411995
Raw,1717850615430,2073611222000000,18,,-1399812222208992196,0.5963309705257416,7617.225870490074,99.5713840455667,33.7584070355908,562,18,0.0,16399,564233357835243,1178,18.8,592.7647705078125,4.772000312805176,16,0.0,0.0,1575420030,,,,0,,1,0.19,15.3,0.0,0.0,,,C,3904247115411995
Raw,1717850615430,2073611222000000,18,,-1399812222208992196,0.5963309705257416,7617.225870490074,99.5713840455667,33.7584070355908,562,24,0.0,16399,564233355080049,899,20.2,659.243896484375,4.834000110626221,16,0.0,0.0,1575420030,,,,0,,1,0.19,16.7,0.0,0.0,,,C,3904247115411995
Raw,1717850615430,2073611222000000,18,,-1399812222208992196,0.5963309705257416,7617.225870490074,99.5713840455667,33.7584070355908,562,25,0.0,16399,564233355438975,35,25.8,-421.73834228515625,1.1689999103546143,16,0.0,0.0,1575420030,,,,0,,1,0.19,22.3,0.0,0.0,,,C,3904247115411995
Raw,1717850615430,2073611222000000,18,,-1399812222208992196,0.5963309705257416,7617.225870490074,99.5713840455667,33.7584070355908,562,14,0.0,49359,56615363603014,1011,19.3,-131.3463592529297,3.891000270843506,16,0.0,0.0,1598062460,,,,0,,3,-1.13,15.3,3782.17529296875,22.17367935180664,,,C,3904247115411995
Raw,1717850616430,2073612222000000,18,,-1399812222208992131,0.23151463270187378,6317.321211099625,100.28873186389721,33.37369569929392,562,12,0.0,16399,564234352945573,19,30.9,-222.833984375,0.20000000298023224,16,0.0,1902.9177342976868,1575420030,,,,0,,1,0.45,27.4,0.0,0.0,,,C,3904248115411930
Raw,1717850616430,2073612222000000,18,,-1399812222208992131,0.23151463270187378,6317.321211099625,100.28873186389721,33.37369569929392,562,18,0.0,16399,564234357833271,1193,18.2,592.612548828125,5.522000312805176,16,0.0,0.0,1575420030,,,,0,,1,0.45,14.7,0.0,0.0,,,C,3904248115411930
Raw,1717850616430,2073612222000000,18,,-1399812222208992131,0.23151463270187378,6317.321211099625,100.28873186389721,33.37369569929392,562,24,0.0,16399,564234355077875,914,20.1,659.3104858398438,5.584000110626221,16,0.0,0.0,1575420030,,,,0,,1,0.45,16.6,0.0,0.0,,,C,3904248115411930
Raw,1717850616430,2073612222000000,18,,-1399812222208992131,0.23151463270187378,6317.321211099625,100.28873186389721,33.37369569929392,562,25,0.0,16399,564234355440347,46,24.3,-421.1579284667969,0.8689999580383301,16,0.0,0.0,1575420030,,,,0,,1,0.45,20.8,0.0,0.0,,,C,3904248115411930
Raw,1717850616430,2073612222000000,18,,-1399812222208992131,0.23151463270187378,6317.321211099625,100.28873186389721,33.37369569929392,562,14,0.0,49359,56616363603406,890,20.0,-130.9242706298828,4.551000118255615,16,0.0,0.0,1598062460,,,,0,,3,-1.16,16.0,3782.17529296875,22.17367935180664,,,C,3904248115411930
Raw,1717850616430,2073612222000000,18,,-1399812222208992131,0.23151463270187378,6317.321211099625,100.28873186389721,33.37369569929392,562,22,0.0,16399,564220354470714,794,21.2,25.99254608154297,5.252500057220459,16,0.0,0.0,1561097980,,,,0,,5,0.36,16.9,-1579.282470703125,20.876562118530273,,,I,3904248115411930
Raw,1717850616430,2073612222000000,18,,-1399812222208992131,0.23151463270187378,6317.321211099625,100.28873186389721,33.37369569929392,562,19,0.0,16399,564220344713671,24,30.1,268.5637512207031,0.20000000298023224,16,0.0,1920.3757538518662,1561097980,,,,0,,5,0.36,25.8,-1579.282470703125,20.876562118530273,,,I,3904248115411930
Raw,1717850617430,2073613222000000,18,,-1399812222208992022,0.4272238612174988,5255.02348318696,100.8815453881106,32.07974213820826,562,12,0.0,16399,564235352946357,35,25.7,-223.03370666503906,0.8044999837875366,16,0.0,0.0,1575420030,,,,0,,1,0.45,22.2,0.0,0.0,,,C,3904249115411821
Raw,1717850617430,2073613222000000,18,,-1399812222208992022,0.4272238612174988,5255.02348318696,100.8815453881106,32.07974213820826,562,18,0.0,16399,564235357831289,1386,17.9,592.4888916015625,6.392000198364258,16,0.0,0.0,1575420030,,,,0,,1,0.45,14.399999999999999,0.0,0.0,,,C,3904249115411821
Raw,1717850617430,2073613222000000,18,,-1399812222208992022,0.4272238612174988,5255.02348318696,100.8815453881106,32.07974213820826,562,24,0.0,16399,564235355075682,932,20.1,659.4912719726562,6.334000110626221,16,0.0,0.0,1575420030,,,,0,,1,0.45,16.6,0.0,0.0,,,C,3904249115411821
Raw,1717850617430,2073613222000000,18,,-1399812222208992022,0.4272238612174988,5255.02348318696,100.8815453881106,32.07974213820826,562,32,0.0,16399,564235355723758,1386,17.0,-93.35807800292969,6.389000415802002,16,0.0,0.0,1575420030,,,,0,,1,0.45,13.5,0.0,0.0,,,C,3904249115411821
Raw,1717850617430,2073613222000000,18,,-1399812222208992022,0.4272238612174988,5255.02348318696,100.8815453881106,32.07974213820826,562,14,0.0,49359,56617363603829,1036,19.4,-130.83984375,5.390999794006348,16,0.0,0.0,1598062460,,,,0,,3,-1.09,15.399999999999999,3782.17529296875,22.17367935180664,,,C,3904249115411821
Raw,1717850617430,2073613222000000,18,,-1399812222208992022,0.4272238612174988,5255.02348318696,100.8815453881106,32.07974213820826,562,22,0.0,16399,564221354470616,811,21.1,26.059757232666016,6.002500057220459,16,0.0,0.0,1561097980,,,,0,,5,0.36,16.8,-1579.282470703125,20.876562118530273,,,I,3904249115411821
Raw,1717850617430,2073613222000000,18,,-1399812222208992022,0.4272238612174988,5255.02348318696,100.8815453881106,32.07974213820826,562,19,0.0,16399,564221344712768,27,28.8,268.5000305175781,0.6225000023841858,16,0.0,0.0,1561097980,,,,0,,5,0.36,24.5,-1579.282470703125,20.876562118530273,,,I,3904249115411821
Raw,1717850618430,2073614222000000,18,,-1399812222208991875,0.09190291166305542,3818.1976415216923,102.39731492432892,26.106336447020123,562,12,0.0,16399,564236352946986,31,27.1,-224.34674072265625,0.684499979019165,16,0.0,0.0,1575420030,,,,0,,1,0.27,23.6,0.0,0.0,,,C,3904250115411674
Raw,1717850618430,2073614222000000,18,,-1399812222208991875,0.09190291166305542,3818.1976415216923,102.39731492432892,26.106336447020123,562,18,0.0,16399,564236357829297,1230,18.6,592.8028564453125,7.022000312805176,16,0.0,0.0,1575420030,,,,0,,1,0.27,15.100000000000001,0.0,0.0,,,C,3904250115411674
Raw,1717850618430,2073614222000000,18,,-1399812222208991875,0.09190291166305542,3818.1976415216923,102.39731492432892,26.106336447020123,562,24,0.0,16399,564236355073487,1085,19.9,659.5388793945312,7.173999786376953,16,0.0,0.0,1575420030,,,,0,,1,0.27,16.4,0.0,0.0,,,C,3904250115411674
Raw,1717850618430,2073614222000000,18,,-1399812222208991875,0.09190291166305542,3818.1976415216923,102.39731492432892,26.106336447020123,562,32,0.0,16399,564236355724074,1609,16.6,-93.36758422851562,7.259000301361084,16,0.0,0.0,1575420030,,,,0,,1,0.27,13.100000000000001,0.0,0.0,,,C,3904250115411674
Raw,1717850618430,2073614222000000,18,,-1399812222208991875,0.09190291166305542,3818.1976415216923,102.39731492432892,26.106336447020123,562,14,0.0,49359,56618363604303,1205,18.5,-131.0743408203125,6.241000175476074,16,0.0,0.0,1598062460,,,,0,,3,-1.27,14.5,3782.17529296875,22.17367935180664,,,C,3904250115411674
Raw,1717850618430,2073614222000000,18,,-1399812222208991875,0.09190291166305542,3818.1976415216923,102.39731492432892,26.106336447020123,562,3,0.0,49359,56618356593635,1381,17.2,171.58352661132812,6.380499839782715,16,0.0,0.0,1604812540,,,,0,,3,-1.27,13.2,3782.17529296875,22.17367935180664,,,C,3904250115411674
Raw,1717850618430,2073614222000000,18,,-1399812222208991875,0.09190291166305542,3818.1976415216923,102.39731492432892,26.106336447020123,562,22,0.0,16399,564222354470527,946,20.9,26.069360733032227,6.84250020980835,16,0.0,0.0,1561097980,,,,0,,5,0.32,16.599999999999998,-1579.282470703125,20.876562118530273,,,I,3904250115411674
Raw,1717850618430,2073614222000000,18,,-1399812222208991875,0.09190291166305542,3818.1976415216923,102.39731492432892,26.106336447020123,562,19,0.0,16399,564222344711874,31,27.6,267.626220703125,0.67249995470047,16,0.0,0.0,1561097980,,,,0,,5,0.32,23.3,-1579.282470703125,20.876562118530273,,,I,3904250115411674
Raw,1717850619430,2073615222000000,18,,-1399812222208991754,0.24300003051757812,3070.1756477355957,100.6074668729235,24.08631244998698,562,12,0.0,16399,564237352947849,19,30.6,-224.1422882080078,0.20000000298023224,16,0.0,1902.9177342976868,1575420030,,,,0,,1,0.88,27.1,0.0,0.0,,,C,3904251115411553
Raw,1717850619430,2073615222000000,18,,-1399812222208991754,0.24300003051757812,3070.1756477355957,100.6074668729235,24.08631244998698,562,18,0.0,16399,564237357827301,1253,18.9,593.0882568359375,7.772000312805176,16,0.0,0.0,1575420030,,,,0,,1,0.88,15.399999999999999,0.0,0.0,,,C,3904251115411553
Raw,1717850619430,2073615222000000,18,,-1399812222208991754,0.24300003051757812,3070.1756477355957,100.6074668729235,24.08631244998698,562,24,0.0,16399,564237355071286,1108,19.5,659.6530151367188,7.9240007400512695,16,0.0,0.0,1575420030,,,,0,,1,0.88,16.0,0.0,0.0,,,C,3904251115411553
Raw,1717850619430,2073615222000000,18,,-1399812222208991754,0.24300003051757812,3070.1756477355957,100.6074668729235,24.08631244998698,562,25,0.0,16399,564237355444643,70,20.9,-422.5375671386719,2.689000129699707,16,0.0,0.0,1575420030,,,,0,,1,0.88,17.4,0.0,0.0,,,C,3904251115411553
Raw,1717850619430,2073615222000000,18,,-1399812222208991754,0.24300003051757812,3070.1756477355957,100.6074668729235,24.08631244998698,562,32,0.0,16399,564237355724405,1631,16.3,-93.6244888305664,8.009000778198242,16,0.0,0.0,1575420030,,,,0,,1,0.88,12.8,0.0,0.0,,,C,3904251115411553
Raw,1717850619430,2073615222000000,18,,-1399812222208991754,0.24300003051757812,3070.1756477355957,100.6074668729235,24.08631244998698,562,14,0.0,49359,56619363604729,1072,19.4,-130.8679962158203,6.890999794006348,16,0.0,0.0,1598062460,,,,0,,3,-1.06,15.399999999999999,3782.17529296875,22.17367935180664,,,C,3904251115411553
Raw,1717850619430,2073615222000000,18,,-1399812222208991754,0.24300003051757812,3070.1756477355957,100.6074668729235,24.08631244998698,562,3,0.0,49359,56619356593096,1225,18.3,171.4154052734375,7.010499954223633,16,0.0,0.0,1604812540,,,,0,,3,-1.06,14.3,3782.17529296875,22.17367935180664,,,C,3904251115411553
Raw,1717850619430,2073615222000000,18,,-1399812222208991754,0.24300003051757812,3070.1756477355957,100.6074668729235,24.08631244998698,562,22,0.0,16399,564223354470442,968,20.3,26.021350860595703,7.59250020980835,16,0.0,0.0,1561097980,,,,0,,5,0.6,16.0,-1579.282470703125,20.876562118530273,,,I,3904251115411553
Raw,1717850619430,2073615222000000,18,,-1399812222208991754,0.24300003051757812,3070.1756477355957,100.6074668729235,24.08631244998698,562,19,0.0,16399,564223344710968,24,29.7,267.4207458496094,0.20000000298023224,16,0.0,1920.3757538518662,1561097980,,,,0,,5,0.6,25.4,-1579.282470703125,20.876562118530273,,,I,3904251115411553
Raw,1717850620430,2073616222000000,18,,-1399812222208991664,0.4574238657951355,2476.743422448635,100.34403873110679,25.3957453171719,562,12,0.0,16399,564238352948612,31,26.7,-225.1364288330078,0.7444999814033508,16,0.0,0.0,1575420030,,,,0,,1,0.93,23.2,0.0,0.0,,,C,3904252115411463
Raw,1717850620430,2073616222000000,18,,-1399812222208991664,0.4574238657951355,2476.743422448635,100.34403873110679,25.3957453171719,562,18,0.0,16399,564238357825305,1125,19.3,593.2214965820312,8.42199993133545,16,0.0,0.0,1575420030,,,,0,,1,0.93,15.8,0.0,0.0,,,C,3904252115411463
Raw,1717850620430,2073616222000000,18,,-1399812222208991664,0.4574238657951355,2476.743422448635,100.34403873110679,25.3957453171719,562,24,0.0,16399,564238355069092,1134,19.5,659.3580322265625,8.67400074005127,16,0.0,0.0,1575420030,,,,0,,1,0.93,16.0,0.0,0.0,,,C,3904252115411463
Raw,1717850620430,2073616222000000,18,,-1399812222208991664,0.4574238657951355,2476.743422448635,100.34403873110679,25.3957453171719,562,25,0.0,16399,564238355445989,35,25.8,-423.8315734863281,0.8089999556541443,16,0.0,0.0,1575420030,,,,0,,1,0.93,22.3,0.0,0.0,,,C,3904252115411463
Raw,1717850620430,2073616222000000,18,,-1399812222208991664,0.4574238657951355,2476.743422448635,100.34403873110679,25.3957453171719,562,32,0.0,16399,564238355724721,1657,16.5,-93.90992736816406,8.759000778198242,16,0.0,0.0,1575420030,,,,0,,1,0.93,13.0,0.0,0.0,,,C,3904252115411463
Raw,1717850620430,2073616222000000,18,,-1399812222208991664,0.4574238657951355,2476.743422448635,100.34403873110679,25.3957453171719,562,14,0.0,49359,56620363605174,961,20.2,-130.9336395263672,7.551000118255615,16,0.0,0.0,1598062460,,,,0,,3,-1.17,16.2,3782.17529296875,22.17367935180664,,,C,3904252115411463
Raw,1717850620430,2073616222000000,18,,-1399812222208991664,0.4574238657951355,2476.743422448635,100.34403873110679,25.3957453171719,562,15,0.0,49359,56620358691964,1422,17.6,-685.8922119140625,7.883500099182129,16,0.0,0.0,1602000000,,,,0,,3,-1.17,13.600000000000001,3782.17529296875,22.17367935180664,,,C,3904252115411463
Raw,1717850620430,2073616222000000,18,,-1399812222208991664,0.4574238657951355,2476.743422448635,100.34403873110679,25.3957453171719,562,3,0.0,49359,56620356592523,1094,19.2,170.9763946533203,7.660500526428223,16,0.0,0.0,1604812540,,,,0,,3,-1.17,15.2,3782.17529296875,22.17367935180664,,,C,3904252115411463
Raw,1717850620430,2073616222000000,18,,-1399812222208991664,0.4574238657951355,2476.743422448635,100.34403873110679,25.3957453171719,562,19,0.0,16399,564224344710067,40,25.3,266.166748046875,0.7924999594688416,16,0.0,0.0,1561097980,,,,0,,5,0.8,21.0,-1579.282470703125,20.876562118530273,,,I,3904252115411463
Raw,1717850620430,2073616222000000,18,,-1399812222208991664,0.4574238657951355,2476.743422448635,100.34403873110679,25.3957453171719,562,10,0.0,16399,564224296868987,1434,17.6,84.48777770996094,8.055500030517578,16,0.0,0.0,1561097980,,,,0,,5,0.8,13.3,-1579.282470703125,20.876562118530273,,,I,3904252115411463
Raw,1717850621430,2073617222000000,18,,-1399812222208991547,0.7938237190246582,1796.4221769943833,99.69667544507875,22.650213941564797,562,12,0.0,16399,564239352949313,27,27.7,-224.4894561767578,0.684499979019165,16,0.0,0.0,1575420030,,,,0,,1,0.82,24.2,0.0,0.0,,,C,3904253115411346
Raw,1717850621430,2073617222000000,18,,-1399812222208991547,0.7938237190246582,1796.4221769943833,99.69667544507875,22.650213941564797,562,18,0.0,16399,564239357823337,1152,19.2,593.1644287109375,9.17199993133545,16,0.0,0.0,1575420030,,,,0,,1,0.82,15.7,0.0,0.0,,,C,3904253115411346
Raw,1717850621430,2073617222000000,18,,-1399812222208991547,0.7938237190246582,1796.4221769943833,99.69667544507875,22.650213941564797,562,24,0.0,16399,564239355066890,1162,19.5,659.17724609375,9.423999786376953,16,0.0,0.0,1575420030,,,,0,,1,0.82,16.0,0.0,0.0,,,C,3904253115411346
Raw,1717850621430,2073617222000000,18,,-1399812222208991547,0.7938237190246582,1796.4221769943833,99.69667544507875,22.650213941564797,562,25,0.0,16399,564239355447333,53,22.7,-423.98382568359375,1.0190000534057617,16,0.0,0.0,1575420030,,,,0,,1,0.82,19.2,0.0,0.0,,,C,3904253115411346
Raw,1717850621430,2073617222000000,18,,-1399812222208991547,0.7938237190246582,1796.4221769943833,99.69667544507875,22.650213941564797,562,32,0.0,16399,564239355725013,1685,16.6,-94.09070587158203,9.509000778198242,16,0.0,0.0,1575420030,,,,0,,1,0.82,13.100000000000001,0.0,0.0,,,C,3904253115411346
Raw,1717850621430,2073617222000000,18,,-1399812222208991547,0.7938237190246582,1796.4221769943833,99.69667544507875,22.650213941564797,562,14,0.0,49359,56621363605630,985,20.2,-130.9617919921875,8.300999641418457,16,0.0,0.0,1598062460,,,,0,,3,-0.95,16.2,3782.17529296875,22.17367935180664,,,C,3904253115411346
Raw,1717850621430,2073617222000000,18,,-1399812222208991547,0.7938237190246582,1796.4221769943833,99.69667544507875,22.650213941564797,562,15,0.0,49359,56621358694198,1447,17.6,-685.8173828125,8.633500099182129,16,0.0,0.0,1602000000,,,,0,,3,-0.95,13.600000000000001,3782.17529296875,22.17367935180664,,,C,3904253115411346
Raw,1717850621430,2073617222000000,18,,-1399812222208991547,0.7938237190246582,1796.4221769943833,99.69667544507875,22.650213941564797,562,3,0.0,49359,56621356591939,1118,19.2,170.88299560546875,8.410500526428223,16,0.0,0.0,1604812540,,,,0,,3,-0.95,15.2,3782.17529296875,22.17367935180664,,,C,3904253115411346
Raw,1717850621430,2073617222000000,18,,-1399812222208991547,0.7938237190246582,1796.4221769943833,99.69667544507875,22.650213941564797,562,22,0.0,16399,564225354470293,565,23.2,25.30120277404785,1.8975000381469727,16,0.0,0.0,1561097980,,,,0,,5,0.41,18.9,-1579.282470703125,20.876562118530273,,,I,3904253115411346
Raw,1717850621430,2073617222000000,18,,-1399812222208991547,0.7938237190246582,1796.4221769943833,99.69667544507875,22.650213941564797,562,19,0.0,16399,564225344709193,12,36.6,266.2470703125,0.20000000298023224,16,0.0,1920.3757538518662,1561097980,,,,0,,5,0.41,32.300000000000004,-1579.282470703125,20.876562118530273,,,I,3904253115411346
Raw,1717850621430,2073617222000000,18,,-1399812222208991547,0.7938237190246582,1796.4221769943833,99.69667544507875,22.650213941564797,562,10,0.0,16399,564225296868699,1447,17.6,84.63180541992188,8.430500030517578,16,0.0,0.0,1561097980,,,,0,,5,0.41,13.3,-1579.282470703125,20.876562118530273,,,I,3904253115411346
Raw,1717850622430,2073618222000000,18,,-1399812222208991440,0.7524961233139038,1436.3699592649937,100.66479692933963,22.283860820536898,562,12,0.0,16399,564240352950066,19,30.9,-225.85025024414062,0.20000000298023224,16,0.0,1902.9177342976868,1575420030,,,,0,,1,0.99,27.4,0.0,0.0,,,C,3904254115411239
Raw,1717850622430,2073618222000000,18,,-1399812222208991440,0.7524961233139038,1436.3699592649937,100.66479692933963,22.283860820536898,562,18,0.0,16399,564240357821368,92,19.0,593.1263427734375,10.29699993133545,16,0.0,0.0,1575420030,,,,0,,1,0.99,15.5,0.0,0.0,,,C,3904254115411239
Raw,1717850622430,2073618222000000,18,,-1399812222208991440,0.7524961233139038,1436.3699592649937,100.66479692933963,22.283860820536898,562,23,0.0,16399,564240362505120,159,15.4,-109.00021362304688,10.624500274658203,16,0.0,0.0,1575420030,,,,0,,1,0.99,11.9,0.0,0.0,,,C,3904254115411239
Raw,1717850622430,2073618222000000,18,,-1399812222208991440,0.7524961233139038,1436.3699592649937,100.66479692933963,22.283860820536898,562,24,0.0,16399,564240355064684,92,19.3,659.243896484375,10.173999786376953,16,0.0,0.0,1575420030,,,,0,,1,0.99,15.8,0.0,0.0,,,C,3904254115411239
Raw,1717850622430,2073618222000000,18,,-1399812222208991440,0.7524961233139038,1436.3699592649937,100.66479692933963,22.283860820536898,562,25,0.0,16399,564240355448824,35,25.5,-424.5832214355469,0.8089999556541443,16,0.0,0.0,1575420030,,,,0,,1,0.99,22.0,0.0,0.0,,,C,3904254115411239
Raw,1717850622430,2073618222000000,18,,-1399812222208991440,0.7524961233139038,1436.3699592649937,100.66479692933963,22.283860820536898,562,32,0.0,16399,564240355725317,122,16.7,-94.15731048583984,10.634000778198242,16,0.0,0.0,1575420030,,,,0,,1,0.99,13.2,0.0,0.0,,,C,3904254115411239
Raw,1717850622430,2073618222000000,18,,-1399812222208991440,0.7524961233139038,1436.3699592649937,100.66479692933963,22.283860820536898,562,14,0.0,49359,56622363606070,1011,20.8,-131.3463592529297,9.050999641418457,16,0.0,0.0,1598062460,,,,0,,3,-0.84,16.8,3782.17529296875,22.17367935180664,,,C,3904254115411239
Raw,1717850622430,2073618222000000,18,,-1399812222208991440,0.7524961233139038,1436.3699592649937,100.66479692933963,22.283860820536898,562,15,0.0,49359,56622358696466,1297,18.6,-685.7425537109375,9.263500213623047,16,0.0,0.0,1602000000,,,,0,,3,-0.84,14.600000000000001,3782.17529296875,22.17367935180664,,,C,3904254115411239
Raw,1717850622430,2073618222000000,18,,-1399812222208991440,0.7524961233139038,1436.3699592649937,100.66479692933963,22.283860820536898,562,3,0.0,49359,56622356591418,1144,19.3,170.83628845214844,9.160500526428223,16,0.0,0.0,1604812540,,,,0,,3,-0.84,15.3,3782.17529296875,22.17367935180664,,,C,3904254115411239
Raw,1717850622430,2073618222000000,18,,-1399812222208991440,0.7524961233139038,1436.3699592649937,100.66479692933963,22.283860820536898,562,22,0.0,16399,564226354470190,571,23.1,24.801902770996094,2.6475000381469727,16,0.0,0.0,1561097980,,,,0,,5,0.6,18.8,-1579.282470703125,20.876562118530273,,,I,3904254115411239
Raw,1717850622430,2073618222000000,18,,-1399812222208991440,0.7524961233139038,1436.3699592649937,100.66479692933963,22.283860820536898,562,19,0.0,16399,564226344708312,11,38.1,265.28887939453125,0.20000000298023224,16,0.0,1920.3757538518662,1561097980,,,,0,,5,0.6,33.800000000000004,-1579.282470703125,20.876562118530273,,,I,3904254115411239
Raw,1717850622430,2073618222000000,18,,-1399812222208991440,0.7524961233139038,1436.3699592649937,100.66479692933963,22.283860820536898,562,10,0.0,16399,564226296868434,1474,17.5,84.9102554321289,9.180500030517578,16,0.0,0.0,1561097980,,,,0,,5,0.6,13.2,-1579.282470703125,20.876562118530273,,,I,3904254115411239
Raw,1717850623430,2073619222000000,18,,-1399812222208991379,0.9971999526023865,628.9667217060924,97.85868439767943,23.82648533046875,562,12,0.0,16399,564241352950833,14,33.8,-225.13584899902344,0.20000000298023224,16,0.0,1902.9177342976868,1575420030,,,,0,,1,1.1,30.299999999999997,0.0,0.0,,,C,3904255115411178
Raw,1717850623430,2073619222000000,18,,-1399812222208991379,0.9971999526023865,628.9667217060924,97.85868439767943,23.82648533046875,562,18,0.0,16399,564241357819459,61,21.6,590.9189453125,1.4619998931884766,16,0.0,0.0,1575420030,,,,0,,1,1.1,18.1,0.0,0.0,,,C,3904255115411178
Raw,1717850623430,2073619222000000,18,,-1399812222208991379,0.9971999526023865,628.9667217060924,97.85868439767943,23.82648533046875,562,23,0.0,16399,564241362505527,70,21.3,-110.18954467773438,1.379499912261963,16,0.0,0.0,1575420030,,,,0,,1,1.1,17.8,0.0,0.0,,,C,3904255115411178
Raw,1717850623430,2073619222000000,18,,-1399812222208991379,0.9971999526023865,628.9667217060924,97.85868439767943,23.82648533046875,562,24,0.0,16399,564241355062472,35,25.7,658.0355224609375,1.1089999675750732,16,0.0,0.0,1575420030,,,,0,,1,1.1,22.2,0.0,0.0,,,C,3904255115411178
Raw,1717850623430,2073619222000000,18,,-1399812222208991379,0.9971999526023865,628.9667217060924,97.85868439767943,23.82648533046875,562,25,0.0,16399,564241355450283,17,32.0,-424.25445556640625,0.20000000298023224,16,0.0,1902.9177342976868,1575420030,,,,0,,1,1.1,28.5,0.0,0.0,,,C,3904255115411178
Raw,1717850623430,2073619222000000,18,,-1399812222208991379,0.9971999526023865,628.9667217060924,97.85868439767943,23.82648533046875,562,14,0.0,49359,56623363606559,1040,20.8,-131.46829223632812,9.800999641418457,16,0.0,0.0,1598062460,,,,0,,3,-0.78,16.8,3782.17529296875,22.17367935180664,,,C,3904255115411178
Raw,1717850623430,2073619222000000,18,,-1399812222208991379,0.9971999526023865,628.9667217060924,97.85868439767943,23.82648533046875,562,18,0.0,49359,56623356621694,1706,16.7,736.1746215820312,10.250500679016113,16,0.0,0.0,1600312450,,,,0,,3,-0.78,12.7,3782.17529296875,22.17367935180664,,,C,3904255115411178
Raw,1717850623430,2073619222000000,18,,-1399812222208991379,0.9971999526023865,628.9667217060924,97.85868439767943,23.82648533046875,562,15,0.0,49359,56623358698755,1041,20.7,-685.8828735351562,9.82349967956543,16,0.0,0.0,1602000000,,,,0,,3,-0.78,16.7,3782.17529296875,22.17367935180664,,,C,3904255115411178
Raw,1717850623430,2073619222000000,18,,-1399812222208991379,0.9971999526023865,628.9667217060924,97.85868439767943,23.82648533046875,562,3,0.0,49359,56623356590920,1041,20.0,170.46267700195312,9.820500373840332,16,0.0,0.0,1604812540,,,,0,,3,-0.78,16.0,3782.17529296875,22.17367935180664,,,C,3904255115411178
Raw,1717850623430,2073619222000000,18,,-1399812222208991379,0.9971999526023865,628.9667217060924,97.85868439767943,23.82648533046875,562,22,0.0,16399,564227354470090,580,23.7,24.465831756591797,3.3975000381469727,16,0.0,0.0,1561097980,,,,0,,5,1.0,19.4,-1579.282470703125,20.876562118530273,,,I,3904255115411178
Raw,1717850623430,2073619222000000,18,,-1399812222208991379,0.9971999526023865,628.9667217060924,97.85868439767943,23.82648533046875,562,19,0.0,16399,564227344707424,16,33.5,266.01007080078125,0.20000000298023224,16,0.0,1920.3757538518662,1561097980,,,,0,,5,1.0,29.2,-1579.282470703125,20.876562118530273,,,I,3904255115411178
Raw,1717850623430,2073619222000000,18,,-1399812222208991379,0.9971999526023865,628.9667217060924,97.85868439767943,23.82648533046875,562,10,0.0,16399,564227296868158,1503,17.0,84.81423950195312,9.930500984191895,16,0.0,0.0,1561097980,,,,0,,5,1.0,12.7,-1579.282470703125,20.876562118530273,,,I,3904255115411178
Raw,1717850623430,2073619222000000,18,,-1399812222208991379,0.9971999526023865,628.9667217060924,97.85868439767943,23.82648533046875,562,8,0.0,16399,564227310720294,1706,16.8,-68.77893829345703,10.041500091552734,16,0.0,0.0,1561097980,,,,0,,5,1.0,12.5,-1579.282470703125,20.876562118530273,,,I,3904255115411178
Raw,1717850623430,2073619222000000,18,,-1399812222208991379,0.9971999526023865,628.9667217060924,97.85868439767943,23.82648533046875,562,4,0.0,16399,564227300206907,950,22.5,46.6559944152832,16.076801300048828,16,0.0,0.0,1561097980,,,,0,,5,1.0,18.2,-1579.282470703125,20.876562118530273,,,I,3904255115411178
Raw,1717850624430,2073620222000000,18,,-1399812222208991308,0.6417425274848938,339.61096778512,98.42678065752962,17.051747201072033,562,12,0.0,16399,564242352951585,14,33.6,-223.69371032714844,0.20000000298023224,16,0.0,1902.9177342976868,1575420030,,,,0,,1,1.27,30.1,0.0,0.0,,,C,3904256115411107
Raw,1717850624430,2073620222000000,18,,-1399812222208991308,0.6417425274848938,339.61096778512,98.42678065752962,17.051747201072033,562,23,0.0,16399,564242362505932,40,25.2,-108.1343765258789,0.7894999980926514,16,0.0,0.0,1575420030,,,,0,,1,1.27,21.7,0.0,0.0,,,C,3904256115411107
Raw,1717850624430,2073620222000000,18,,-1399812222208991308,0.6417425274848938,339.61096778512,98.42678065752962,17.051747201072033,562,24,0.0,16399,564242355060278,27,28.3,659.7481689453125,0.6389999985694885,16,0.0,0.0,1575420030,,,,0,,1,1.27,24.8,0.0,0.0,,,C,3904256115411107
Raw,1717850624430,2073620222000000,18,,-1399812222208991308,0.6417425274848938,339.61096778512,98.42678065752962,17.051747201072033,562,25,0.0,16399,564242355451649,21,30.0,-422.7154541015625,0.20000000298023224,16,0.0,1902.9177342976868,1575420030,,,,0,,1,1.27,26.5,0.0,0.0,,,C,3904256115411107
Raw,1717850624430,2073620222000000,18,,-1399812222208991308,0.6417425274848938,339.61096778512,98.42678065752962,17.051747201072033,562,32,0.0,16399,564242355725934,61,21.9,-93.97653198242188,2.2090001106262207,16,0.0,0.0,1575420030,,,,0,,1,1.27,18.4,0.0,0.0,,,C,3904256115411107
Raw,1717850624430,2073620222000000,18,,-1399812222208991308,0.6417425274848938,339.61096778512,98.42678065752962,17.051747201072033,562,19,0.0,16399,564228344706524,24,30.1,267.45977783203125,0.20000000298023224,16,0.0,1920.3757538518662,1561097980,,,,0,,5,1.05,25.8,-1579.282470703125,20.876562118530273,,,I,3904256115411107
Raw,1717850625430,2073621222000000,18,,-1399812222208991129,0.33181095123291016,167.48750931583345,104.06622970391568,15.235968289890986,562,12,0.0,16399,564243352952354,14,33.5,-223.58511352539062,0.20000000298023224,16,0.0,1902.9177342976868,1575420030,,,,0,,1,2.5,30.0,0.0,0.0,,,C,3904257115410928
Raw,1717850625430,2073621222000000,18,,-1399812222208991129,0.33181095123291016,167.48750931583345,104.06622970391568,15.235968289890986,562,24,0.0,16399,564243355058130,17,31.5,659.4981079101562,0.20000000298023224,16,0.0,1902.9177342976868,1575420030,,,,0,,1,2.5,28.0,0.0,0.0,,,C,3904257115410928
Raw,1717850625430,2073621222000000,18,,-1399812222208991129,0.33181095123291016,167.48750931583345,104.06622970391568,15.235968289890986,562,25,0.0,16399,564243355453069,17,32.4,-422.8644104003906,0.20000000298023224,16,0.0,1902.9177342976868,1575420030,,,,0,,1,2.5,28.9,0.0,0.0,,,C,3904257115410928
Raw,1717850625430,2073621222000000,18,,-1399812222208991129,0.33181095123291016,167.48750931583345,104.06622970391568,15.235968289890986,562,28,0.0,16399,564243355541007,61,22.2,-519.0735473632812,1.0460000038146973,16,0.0,0.0,1575420030,,,,0,,1,2.5,18.7,0.0,0.0,,,C,3904257115410928
Raw,1717850625430,2073621222000000,18,,-1399812222208991129,0.33181095123291016,167.48750931583345,104.06622970391568,15.235968289890986,562,14,0.0,49359,56625363607565,13,35.6,-129.6486053466797,0.6340000033378601,16,0.0,0.0,1598062460,,,,0,,3,0.37,31.6,3782.17529296875,22.17367935180664,,,C,3904257115410928
Raw,1717850625430,2073621222000000,18,,-1399812222208991129,0.33181095123291016,167.48750931583345,104.06622970391568,15.235968289890986,562,15,0.0,49359,56625358703323,21,30.2,-685.0220336914062,0.7714999914169312,16,0.0,0.0,1602000000,,,,0,,3,0.37,26.2,3782.17529296875,22.17367935180664,,,C,3904257115410928
Raw,1717850625430,2073621222000000,18,,-1399812222208991129,0.33181095123291016,167.48750931583345,104.06622970391568,15.235968289890986,562,3,0.0,49359,56625356589827,27,28.8,170.73355102539062,0.8644999861717224,16,0.0,0.0,1604812540,,,,0,,3,0.37,24.8,3782.17529296875,22.17367935180664,,,C,3904257115410928
Raw,1717850625430,2073621222000000,18,,-1399812222208991129,0.33181095123291016,167.48750931583345,104.06622970391568,15.235968289890986,562,22,0.0,16399,564229354469954,53,23.5,26.040555953979492,0.9674999713897705,16,0.0,0.0,1561097980,,,,0,,5,2.27,19.2,-1579.282470703125,20.876562118530273,,,I,3904257115410928
Raw,1717850625430,2073621222000000,18,,-1399812222208991129,0.33181095123291016,167.48750931583345,104.06622970391568,15.235968289890986,562,19,0.0,16399,564229344705626,21,30.3,267.8199157714844,0.20000000298023224,16,0.0,1920.3757538518662,1561097980,,,,0,,5,2.27,26.0,-1579.282470703125,20.876562118530273,,,I,3904257115410928
Raw,1717850625430,2073621222000000,18,,-1399812222208991129,0.33181095123291016,167.48750931583345,104.06622970391568,15.235968289890986,562,13,0.0,16399,564229311246692,31,27.4,-96.73029327392578,0.722000002861023,16,0.0,0.0,1561097980,,,,0,,5,2.27,23.099999999999998,-1579.282470703125,20.876562118530273,,,I,3904257115410928
Raw,1717850625430,2073621222000000,18,,-1399812222208991129,0.33181095123291016,167.48750931583345,104.06622970391568,15.235968289890986,562,8,0.0,16399,564229310720819,40,26.0,-67.62670135498047,0.7834999561309814,16,0.0,0.0,1561097980,,,,0,,5,2.27,21.7,-1579.282470703125,20.876562118530273,,,I,3904257115410928
Raw,1717850625430,2073621222000000,18,,-1399812222208991129,0.33181095123291016,167.48750931583345,104.06622970391568,15.235968289890986,562,4,0.0,16399,564229300206856,14,35.2,34.931983947753906,1.4071999788284302,16,0.0,0.0,1561097980,,,,0,,5,2.27,30.900000000000002,-1579.282470703125,20.876562118530273,,,I,3904257115410928
Raw,1717850625430,2073621222000000,18,,-1399812222208991129,0.33181095123291016,167.48750931583345,104.06622970391568,15.235968289890986,562,1,0.0,16399,564229306068818,16,33.5,35.06641387939453,1.7038999795913696,16,0.0,0.0,1561097980,,,,0,,5,2.27,29.2,-1579.282470703125,20.876562118530273,,,I,3904257115410928
Raw,1717850626430,2073622222000000,18,,-1399812222208991010,0.23655802011489868,97.91066986508667,103.86412709908657,14.45227354438018,562,12,0.0,16399,564244352953106,17,31.5,-224.55758666992188,0.20000000298023224,16,0.0,1902.9177342976868,1575420030,,,,0,,1,1.06,28.0,0.0,0.0,,,C,3904258115410809
Raw,1717850626430,2073622222000000,18,,-1399812222208991010,0.23655802011489868,97.91066986508667,103.86412709908657,14.45227354438018,562,18,0.0,16399,564244357813424,80,19.8,593.2595825195312,2.7820000648498535,16,0.0,0.0,1575420030,,,,0,,1,1.06,16.3,0.0,0.0,,,C,3904258115410809
Raw,1717850626430,2073622222000000,18,,-1399812222208991010,0.23655802011489868,97.91066986508667,103.86412709908657,14.45227354438018,562,23,0.0,16399,564244362506676,46,23.6,-108.97167205810547,1.684499979019165,16,0.0,0.0,1575420030,,,,0,,1,1.06,20.1,0.0,0.0,,,C,3904258115410809
Raw,1717850626430,2073622222000000,18,,-1399812222208991010,0.23655802011489868,97.91066986508667,103.86412709908657,14.45227354438018,562,24,0.0,16399,564244355055919,24,29.1,658.581298828125,0.20000000298023224,16,0.0,1902.9177342976868,1575420030,,,,0,,1,1.06,25.6,0.0,0.0,,,C,3904258115410809
Raw,1717850626430,2073622222000000,18,,-1399812222208991010,0.23655802011489868,97.91066986508667,103.86412709908657,14.45227354438018,562,25,0.0,16399,564244355454502,24,28.6,-423.8624267578125,0.20000000298023224,16,0.0,1902.9177342976868,1575420030,,,,0,,1,1.06,25.1,0.0,0.0,,,C,3904258115410809
Raw,1717850626430,2073622222000000,18,,-1399812222208991010,0.23655802011489868,97.91066986508667,103.86412709908657,14.45227354438018,562,32,0.0,16399,564244355726553,61,21.7,-93.54837036132812,1.8639999628067017,16,0.0,0.0,1575420030,,,,0,,1,1.06,18.2,0.0,0.0,,,C,3904258115410809
Raw,1717850626430,2073622222000000,18,,-1399812222208991010,0.23655802011489868,97.91066986508667,103.86412709908657,14.45227354438018,562,14,0.0,49359,56626363607929,11,37.1,-130.86947631835938,0.22770000994205475,16,0.0,1875.955906227098,1598062460,,,,0,,3,-0.9,33.1,3782.17529296875,22.17367935180664,,,C,3904258115410809
Raw,1717850626430,2073622222000000,18,,-1399812222208991010,0.23655802011489868,97.91066986508667,103.86412709908657,14.45227354438018,562,15,0.0,49359,56626358705667,21,30.6,-686.2618408203125,0.28760001063346863,16,0.0,1871.3450173911542,1602000000,,,,0,,3,-0.9,26.6,3782.17529296875,22.17367935180664,,,C,3904258115410809
Raw,1717850626430,2073622222000000,18,,-1399812222208991010,0.23655802011489868,97.91066986508667,103.86412709908657,14.45227354438018,562,3,0.0,49359,56626356589106,40,25.0,169.1456756591797,1.0104999542236328,16,0.0,0.0,1604812540,,,,0,,3,-0.9,21.0,3782.17529296875,22.17367935180664,,,C,3904258115410809
Raw,1717850626430,2073622222000000,18,,-1399812222208991010,0.23655802011489868,97.91066986508667,103.86412709908657,14.45227354438018,562,22,0.0,16399,564230354469857,46,25.1,25.358816146850586,0.8075000047683716,16,0.0,0.0,1561097980,,,,0,,5,0.82,20.8,-1579.282470703125,20.876562118530273,,,I,3904258115410809
Raw,1717850626430,2073622222000000,18,,-1399812222208991010,0.23655802011489868,97.91066986508667,103.86412709908657,14.45227354438018,562,19,0.0,16399,564230344704751,11,38.1,266.3952941894531,0.20000000298023224,16,0.0,1920.3757538518662,1561097980,,,,0,,5,0.82,33.800000000000004,-1579.282470703125,20.876562118530273,,,I,3904258115410809
Raw,1717850626430,2073622222000000,18,,-1399812222208991010,0.23655802011489868,97.91066986508667,103.86412709908657,14.45227354438018,562,16,0.0,16399,564230309886264,749,21.6,80.33012390136719,1.9600000381469727,16,0.0,0.0,1561097980,,,,0,,5,0.82,17.3,-1579.282470703125,20.876562118530273,,,I,3904258115410809
Raw,1717850626430,2073622222000000,18,,-1399812222208991010,0.23655802011489868,97.91066986508667,103.86412709908657,14.45227354438018,562,12,0.0,16399,564230349696361,70,21.6,253.87620544433594,1.7349998950958252,16,0.0,0.0,1561097980,,,,0,,5,0.82,17.3,-1579.282470703125,20.876562118530273,,,I,3904258115410809
Raw,1717850626430,2073622222000000,18,,-1399812222208991010,0.23655802011489868,97.91066986508667,103.86412709908657,14.45227354438018,562,8,0.0,16399,564230310721050,24,29.7,-68.02597045898438,0.20000000298023224,16,0.0,1920.3757538518662,1561097980,,,,0,,5,0.82,25.4,-1579.282470703125,20.876562118530273,,,I,3904258115410809
Raw,1717850626430,2073622222000000,18,,-1399812222208991010,0.23655802011489868,97.91066986508667,103.86412709908657,14.45227354438018,562,7,0.0,16399,564230295754258,70,21.9,14.643011093139648,1.74399995803833,16,0.0,0.0,1561097980,,,,0,,5,0.82,17.599999999999998,-1579.282470703125,20.876562118530273,,,I,3904258115410809
Raw,1717850626430,2073622222000000,18,,-1399812222208991010,0.23655802011489868,97.91066986508667,103.86412709908657,14.45227354438018,562,6,0.0,16399,564230311281991,749,21.3,52.263545989990234,1.9630000591278076,16,0.0,0.0,1561097980,,,,0,,5,0.82,17.0,-1579.282470703125,20.876562118530273,,,I,3904258115410809
Raw,1717850626430,2073622222000000,18,,-1399812222208991010,0.23655802011489868,97.91066986508667,103.86412709908657,14.45227354438018,562,4,0.0,16399,564230300206719,16,34.1,37.342079162597656,1.5151000022888184,16,0.0,0.0,1561097980,,,,0,,5,0.82,29.8,-1579.282470703125,20.876562118530273,,,I,3904258115410809
Raw,1717850627430,2073623222000000,18,,-1399812222208990938,0.786586582660675,79.41661169752479,101.068003268855,12.253197302566274,562,12,0.0,16399,564245352953822,13,35.4,-224.8284149169922,0.20000000298023224,16,0.0,1902.9177342976868,1575420030,,,,0,,1,0.97,31.9,0.0,0.0,,,C,3904259115410737
Raw,1717850627430,2073623222000000,18,,-1399812222208990938,0.786586582660675,79.41661169752479,101.068003268855,12.253197302566274,562,18,0.0,16399,564245357811549,40,24.6,592.0797729492188,0.871999979019165,16,0.0,0.0,1575420030,,,,0,,1,0.97,21.1,0.0,0.0,,,C,3904259115410737
Raw,1717850627430,2073623222000000,18,,-1399812222208990938,0.786586582660675,79.41661169752479,101.068003268855,12.253197302566274,562,23,0.0,16399,564245362506962,31,27.4,-109.61866760253906,0.6694999933242798,16,0.0,0.0,1575420030,,,,0,,1,0.97,23.9,0.0,0.0,,,C,3904259115410737
Raw,1717850627430,2073623222000000,18,,-1399812222208990938,0.786586582660675,79.41661169752479,101.068003268855,12.253197302566274,562,24,0.0,16399,564245355053685,13,34.6,658.3582763671875,0.20000000298023224,16,0.0,1902.9177342976868,1575420030,,,,0,,1,0.97,31.1,0.0,0.0,,,C,3904259115410737
Raw,1717850627430,2073623222000000,18,,-1399812222208990938,0.786586582660675,79.41661169752479,101.068003268855,12.253197302566274,562,25,0.0,16399,564245355455900,14,33.5,-424.0846252441406,0.20000000298023224,16,0.0,1902.9177342976868,1575420030,,,,0,,1,0.97,30.0,0.0,0.0,,,C,3904259115410737
Raw,1717850627430,2073623222000000,18,,-1399812222208990938,0.786586582660675,79.41661169752479,101.068003268855,12.253197302566274,562,32,0.0,16399,564245355726854,53,22.6,-94.03361511230469,1.0190000534057617,16,0.0,0.0,1575420030,,,,0,,1,0.97,19.1,0.0,0.0,,,C,3904259115410737
Raw,1717850627430,2073623222000000,18,,-1399812222208990938,0.786586582660675,79.41661169752479,101.068003268855,12.253197302566274,562,14,0.0,49359,56627363608406,13,35.3,-130.8331756591797,0.22940000891685486,16,0.0,1875.955906227098,1598062460,,,,0,,3,-0.87,31.299999999999997,3791.1083984375,21.141576766967773,,,C,3904259115410737
Raw,1717850627430,2073623222000000,18,,-1399812222208990938,0.786586582660675,79.41661169752479,101.068003268855,12.253197302566274,562,13,0.0,49359,56627354118013,70,21.7,574.3037109375,2.692500114440918,16,0.0,0.0,1600875010,,,,0,,3,-0.87,17.7,3791.1083984375,21.141576766967773,,,C,3904259115410737
Raw,1717850627430,2073623222000000,18,,-1399812222208990938,0.786586582660675,79.41661169752479,101.068003268855,12.253197302566274,562,15,0.0,49359,56627358707970,27,28.3,-686.0325317382812,0.843500018119812,16,0.0,0.0,1602000000,,,,0,,3,-0.87,24.3,3791.1083984375,21.141576766967773,,,C,3904259115410737
Raw,1717850627430,2073623222000000,18,,-1399812222208990938,0.786586582660675,79.41661169752479,101.068003268855,12.253197302566274,562,3,0.0,49359,56627356588572,46,24.9,169.90225219726562,1.0705000162124634,16,0.0,0.0,1604812540,,,,0,,3,-0.87,20.9,3791.1083984375,21.141576766967773,,,C,3904259115410737
Raw,1717850627430,2073623222000000,18,,-1399812222208990938,0.786586582660675,79.41661169752479,101.068003268855,12.253197302566274,562,22,0.0,16399,564231354469808,24,29.3,24.540733337402344,0.20000000298023224,16,0.0,1920.3757538518662,1561097980,,,,0,,5,0.78,25.0,-1580.60400390625,19.992382049560547,,,I,3904259115410737
Raw,1717850627430,2073623222000000,18,,-1399812222208990938,0.786586582660675,79.41661169752479,101.068003268855,12.253197302566274,562,19,0.0,16399,564231344703864,13,35.5,265.9463806152344,0.20000000298023224,16,0.0,1920.3757538518662,1561097980,,,,0,,5,0.78,31.2,-1580.60400390625,19.992382049560547,,,I,3904259115410737
Raw,1717850627430,2073623222000000,18,,-1399812222208990938,0.786586582660675,79.41661169752479,101.068003268855,12.253197302566274,562,16,0.0,16399,564231309886008,755,21.4,80.0804672241211,2.7100000381469727,16,0.0,0.0,1561097980,,,,0,,5,0.78,17.099999999999998,-1580.60400390625,19.992382049560547,,,I,3904259115410737
Raw,1717850627430,2073623222000000,18,,-1399812222208990938,0.786586582660675,79.41661169752479,101.068003268855,12.253197302566274,562,13,0.0,16399,564231311247309,80,21.2,-96.26940155029297,1.8429999351501465,16,0.0,0.0,1561097980,,,,0,,5,0.78,16.9,-1580.60400390625,19.992382049560547,,,I,3904259115410737
Raw,1717850627430,2073623222000000,18,,-1399812222208990938,0.786586582660675,79.41661169752479,101.068003268855,12.253197302566274,562,10,0.0,16399,564231296867075,80,20.5,82.12568664550781,2.5855000019073486,16,0.0,0.0,1561097980,,,,0,,5,0.78,16.2,-1580.60400390625,19.992382049560547,,,I,3904259115410737
Raw,1717850627430,2073623222000000,18,,-1399812222208990938,0.786586582660675,79.41661169752479,101.068003268855,12.253197302566274,562,8,0.0,16399,564231310721261,31,27.7,-68.08760833740234,0.6814999580383301,16,0.0,0.0,1561097980,,,,0,,5,0.78,23.4,-1580.60400390625,19.992382049560547,,,I,3904259115410737
Raw,1717850627430,2073623222000000,18,,-1399812222208990938,0.786586582660675,79.41661169752479,101.068003268855,12.253197302566274,562,6,0.0,16399,564231311281813,656,22.1,51.917877197265625,2.632999897003174,16,0.0,0.0,1561097980,,,,0,,5,0.78,17.8,-1580.60400390625,19.992382049560547,,,I,3904259115410737
Raw,1717850627430,2073623222000000,18,,-1399812222208990938,0.786586582660675,79.41661169752479,101.068003268855,12.253197302566274,562,3,0.0,16399,564231310426503,53,23.8,52.426780700683594,8.280799865722656,16,0.0,0.0,1561097980,,,,0,,5,0.78,19.5,-1580.60400390625,19.992382049560547,,,I,3904259115410737
Raw,1717850628430,2073624222000000,18,,-1399812222208990841,0.6106067299842834,66.31152064073831,100.08202936662677,12.531175069592903,562,12,0.0,16399,564246352954565,8,40.1,-224.83656311035156,0.20000000298023224,16,0.0,1902.9177342976868,1575420030,,,,0,,1,0.97,36.6,0.0,0.0,,,C,3904260115410640
Raw,1717850628430,2073624222000000,18,,-1399812222208990841,0.6106067299842834,66.31152064073831,100.08202936662677,12.531175069592903,562,18,0.0,16399,564246357809549,40,25.3,592.7362670898438,0.8119999766349792,16,0.0,0.0,1575420030,,,,0,,1,0.97,21.8,0.0,0.0,,,C,3904260115410640
Raw,1717850628430,2073624222000000,18,,-1399812222208990841,0.6106067299842834,66.31152064073831,100.08202936662677,12.531175069592903,562,23,0.0,16399,564246362507376,35,25.9,-109.43789672851562,0.7894999980926514,16,0.0,0.0,1575420030,,,,0,,1,0.97,22.4,0.0,0.0,,,C,3904260115410640
Raw,1717850628430,2073624222000000,18,,-1399812222208990841,0.6106067299842834,66.31152064073831,100.08202936662677,12.531175069592903,562,24,0.0,16399,564246355051516,11,37.1,658.2201538085938,0.20000000298023224,16,0.0,1902.9177342976868,1575420030,,,,0,,1,0.97,33.6,0.0,0.0,,,C,3904260115410640
Raw,1717850628430,2073624222000000,18,,-1399812222208990841,0.6106067299842834,66.31152064073831,100.08202936662677,12.531175069592903,562,25,0.0,16399,564246355457327,10,37.9,-424.1927490234375,0.20000000298023224,16,0.0,1902.9177342976868,1575420030,,,,0,,1,0.97,34.4,0.0,0.0,,,C,3904260115410640
Raw,1717850628430,2073624222000000,18,,-1399812222208990841,0.6106067299842834,66.31152064073831,100.08202936662677,12.531175069592903,562,32,0.0,16399,564246355727196,46,24.4,-94.87091064453125,0.8689999580383301,16,0.0,0.0,1575420030,,,,0,,1,0.97,20.9,0.0,0.0,,,C,3904260115410640
Raw,1717850628430,2073624222000000,18,,-1399812222208990841,0.6106067299842834,66.31152064073831,100.08202936662677,12.531175069592903,562,14,0.0,49359,56628363608936,24,29.0,-130.979736328125,0.296999990940094,16,0.0,1875.955906227098,1598062460,,,,0,,3,-0.9,25.0,3790.727783203125,19.694316864013672,,,C,3904260115410640
Raw,1717850628430,2073624222000000,18,,-1399812222208990841,0.6106067299842834,66.31152064073831,100.08202936662677,12.531175069592903,562,13,0.0,49359,56628354115867,46,24.2,573.4329833984375,1.0674999952316284,16,0.0,0.0,1600875010,,,,0,,3,-0.9,20.2,3790.727783203125,19.694316864013672,,,C,3904260115410640
Raw,1717850628430,2073624222000000,18,,-1399812222208990841,0.6106067299842834,66.31152064073831,100.08202936662677,12.531175069592903,562,15,0.0,49359,56628358710183,70,21.9,-686.2290649414062,1.3034999370574951,16,0.0,0.0,1602000000,,,,0,,3,-0.9,17.9,3790.727783203125,19.694316864013672,,,C,3904260115410640
Raw,1717850628430,2073624222000000,18,,-1399812222208990841,0.6106067299842834,66.31152064073831,100.08202936662677,12.531175069592903,562,3,0.0,49359,56628356587973,21,30.1,169.39244079589844,0.28460001945495605,16,0.0,1868.0653569596157,1604812540,,,,0,,3,-0.9,26.1,3790.727783203125,19.694316864013672,,,C,3904260115410640
Raw,1717850628430,2073624222000000,18,,-1399812222208990841,0.6106067299842834,66.31152064073831,100.08202936662677,12.531175069592903,562,4,0.0,49359,56628359662730,92,19.2,-57.18069076538086,3.6000001430511475,16,0.0,0.0,1605374980,,,,0,,3,-0.9,15.2,3790.727783203125,19.694316864013672,,,C,3904260115410640
Raw,1717850628430,2073624222000000,18,,-1399812222208990841,0.6106067299842834,66.31152064073831,100.08202936662677,12.531175069592903,562,26,0.0,16399,564232347851024,878,20.5,-579.3543701171875,3.546999931335449,16,0.0,0.0,1561097980,,,,0,,5,0.86,16.2,-1580.4051513671875,18.6524715423584,,,I,3904260115410640
Raw,1717850628430,2073624222000000,18,,-1399812222208990841,0.6106067299842834,66.31152064073831,100.08202936662677,12.531175069592903,562,22,0.0,16399,564232354469740,16,34.0,24.399002075195312,0.20000000298023224,16,0.0,1920.3757538518662,1561097980,,,,0,,5,0.86,29.7,-1580.4051513671875,18.6524715423584,,,I,3904260115410640
Raw,1717850628430,2073624222000000,18,,-1399812222208990841,0.6106067299842834,66.31152064073831,100.08202936662677,12.531175069592903,562,19,0.0,16399,564232344702984,7,41.6,266.0467529296875,0.20000000298023224,16,0.0,1920.3757538518662,1561097980,,,,0,,5,0.86,37.300000000000004,-1580.4051513671875,18.6524715423584,,,I,3904260115410640
Raw,1717850628430,2073624222000000,18,,-1399812222208990841,0.6106067299842834,66.31152064073831,100.08202936662677,12.531175069592903,562,13,0.0,16399,564232311247736,61,22.8,-98.1321792602539,1.0130000114440918,16,0.0,0.0,1561097980,,,,0,,5,0.86,18.5,-1580.4051513671875,18.6524715423584,,,I,3904260115410640
Raw,1717850628430,2073624222000000,18,,-1399812222208990841,0.6106067299842834,66.31152064073831,100.08202936662677,12.531175069592903,562,8,0.0,16399,564232310721507,19,32.2,-68.41764068603516,0.20000000298023224,16,0.0,1920.3757538518662,1561097980,,,,0,,5,0.86,27.900000000000002,-1580.4051513671875,18.6524715423584,,,I,3904260115410640
Raw,1717850628430,2073624222000000,18,,-1399812222208990841,0.6106067299842834,66.31152064073831,100.08202936662677,12.531175069592903,562,7,0.0,16399,564232295754119,53,23.7,13.673213005065918,1.6890000104904175,16,0.0,0.0,1561097980,,,,0,,5,0.86,19.4,-1580.4051513671875,18.6524715423584,,,I,3904260115410640
Raw,1717850628430,2073624222000000,18,,-1399812222208990841,0.6106067299842834,66.31152064073831,100.08202936662677,12.531175069592903,562,6,0.0,16399,564232311281663,665,22.0,52.27315139770508,3.383000135421753,16,0.0,0.0,1561097980,,,,0,,5,0.86,17.7,-1580.4051513671875,18.6524715423584,,,I,3904260115410640
Raw,1717850628430,2073624222000000,18,,-1399812222208990841,0.6106067299842834,66.31152064073831,100.08202936662677,12.531175069592903,562,4,0.0,16399,564232300206487,17,32.9,35.36407470703125,2.606800079345703,16,0.0,0.0,1561097980,,,,0,,5,0.86,28.599999999999998,-1580.4051513671875,18.6524715423584,,,I,3904260115410640
Raw,1717850628430,2073624222000000,18,,-1399812222208990841,0.6106067299842834,66.31152064073831,100.08202936662677,12.531175069592903,562,1,0.0,16399,564232306068468,21,31.2,35.73855209350586,3.5562000274658203,16,0.0,0.0,1561097980,,,,0,,5,0.86,26.9,-1580.4051513671875,18.6524715423584,,,I,3904260115410640
Raw,1717850629430,2073625222000000,18,,-1399812222208990732,0.349967896938324,67.87256279494613,99.40244774681875,13.433459400369019,562,12,0.0,16399,564247352955319,9,38.5,-225.3762969970703,0.20000000298023224,16,0.0,1902.9177342976868,1575420030,,,,0,,1,0.97,35.0,0.0,0.0,,,C,3904261115410531
Raw,1717850629430,2073625222000000,18,,-1399812222208990732,0.349967896938324,67.87256279494613,99.40244774681875,13.433459400369019,562,18,0.0,16399,564247357807610,27,27.5,591.5088500976562,0.6919999718666077,16,0.0,0.0,1575420030,,,,0,,1,0.97,24.0,0.0,0.0,,,C,3904261115410531
Raw,1717850629430,2073625222000000,18,,-1399812222208990732,0.349967896938324,67.87256279494613,99.40244774681875,13.433459400369019,562,23,0.0,16399,564247362507753,21,29.7,-110.03678131103516,0.20000000298023224,16,0.0,1902.9177342976868,1575420030,,,,0,,1,0.97,26.2,0.0,0.0,,,C,3904261115410531
Raw,1717850629430,2073625222000000,18,,-1399812222208990732,0.349967896938324,67.87256279494613,99.40244774681875,13.433459400369019,562,24,0.0,16399,564247355049324,13,34.8,657.6530151367188,0.20000000298023224,16,0.0,1902.9177342976868,1575420030,,,,0,,1,0.97,31.299999999999997,0.0,0.0,,,C,3904261115410531
Raw,1717850629430,2073625222000000,18,,-1399812222208990732,0.349967896938324,67.87256279494613,99.40244774681875,13.433459400369019,562,25,0.0,16399,564247355458731,11,37.0,-424.7498779296875,0.20000000298023224,16,0.0,1902.9177342976868,1575420030,,,,0,,1,0.97,33.5,0.0,0.0,,,C,3904261115410531
Raw,1717850629430,2073625222000000,18,,-1399812222208990732,0.349967896938324,67.87256279494613,99.40244774681875,13.433459400369019,562,32,0.0,16399,564247355727528,31,27.4,-95.23246765136719,0.6889999508857727,16,0.0,0.0,1575420030,,,,0,,1,0.97,23.9,0.0,0.0,,,C,3904261115410531
Raw,1717850629430,2073625222000000,18,,-1399812222208990732,0.349967896938324,67.87256279494613,99.40244774681875,13.433459400369019,562,14,0.0,49359,56629363609299,16,33.1,-131.3189697265625,0.2354000061750412,16,0.0,1875.955906227098,1598062460,,,,0,,3,-0.88,29.1,3790.71923828125,19.705965042114258,,,C,3904261115410531
Raw,1717850629430,2073625222000000,18,,-1399812222208990732,0.349967896938324,67.87256279494613,99.40244774681875,13.433459400369019,562,18,0.0,49359,56629356607448,92,19.1,734.3949584960938,4.375499725341797,16,0.0,0.0,1600312450,,,,0,,3,-0.88,15.100000000000001,3790.71923828125,19.705965042114258,,,C,3904261115410531
Raw,1717850629430,2073625222000000,18,,-1399812222208990732,0.349967896938324,67.87256279494613,99.40244774681875,13.433459400369019,562,13,0.0,49359,56629354114128,53,23.5,573.4142456054688,1.1375000476837158,16,0.0,0.0,1600875010,,,,0,,3,-0.88,19.5,3790.71923828125,19.705965042114258,,,C,3904261115410531
Raw,1717850629430,2073625222000000,18,,-1399812222208990732,0.349967896938324,67.87256279494613,99.40244774681875,13.433459400369019,562,15,0.0,49359,56629358712574,24,29.6,-686.9900512695312,0.31949999928474426,16,0.0,1871.3450173911542,1602000000,,,,0,,3,-0.88,25.6,3790.71923828125,19.705965042114258,,,C,3904261115410531
Raw,1717850629430,2073625222000000,18,,-1399812222208990732,0.349967896938324,67.87256279494613,99.40244774681875,13.433459400369019,562,3,0.0,49359,56629356587496,21,30.4,168.81114196777344,0.28460001945495605,16,0.0,1868.0653569596157,1604812540,,,,0,,3,-0.88,26.4,3790.71923828125,19.705965042114258,,,C,3904261115410531
