% program   : RTKLIB ver.demo5 gdsc_2022
% inp file  : supplemental\gnss_log.obs
% inp file  : ..\slac2500.23o
% inp file  : ..\BRDM00DLR_S_20232500000_01D_MN.rnx
% obs start : 2023/09/07 19:33:45.4 GPST (week2278 416025.4s)
% obs end   : 2023/09/07 19:51:49.4 GPST (week2278 417109.4s)
% pos mode  : Kinematic
% freqs     : L1+L2/E5b+L5
% solution  : Combined-No Phase Reset
% elev mask : 5.0 deg
% dynamics  : on
% tidecorr  : off
% ionos opt : Broadcast
% tropo opt : Saastamoinen
% ephemeris : Broadcast
% navi sys  : GPS GLONASS Galileo
% amb res   : OFF
% amb glo   : OFF
% val thres : 3.0
% antenna1  :                       ( 0.0000  0.0000  0.0000)
% antenna2  :                       ( 0.0000  0.0000  0.0000)
% ref pos   : 37.416519040-122.204268280   63.7780
%
% (lat/lon/height=WGS84/ellipsoidal,Q=1:fix,2:float,3:sbas,4:dgps,5:single,6:ppp,ns=# of satellites)
%  GPST          latitude(deg) longitude(deg)  height(m)   Q  ns   sdn(m)   sde(m)   sdu(m)  sdne(m)  sdeu(m)  sdun(m) age(s)  ratio
2278 416025.449   37.692198871 -122.088430758    19.4153   2  11   0.0750   0.0773   0.1613   0.0254  -0.0336   0.0557 -14.55    0.0
2278 416026.449   37.692198966 -122.088430552    19.4256   2  12   0.0749   0.0772   0.1611   0.0258  -0.0330   0.0555 -13.55    0.0
2278 416027.449   37.692198891 -122.088430820    19.4563   2  14   0.0740   0.0766   0.1597   0.0269  -0.0309   0.0532 -12.55    0.0
2278 416028.449   37.692198806 -122.088430724    19.4283   2  13   0.0743   0.0767   0.1596   0.0275  -0.0304   0.0531 -11.55    0.0
2278 416029.449   37.692198909 -122.088430894    19.4636   2  14   0.0752   0.0773   0.1598   0.0292  -0.0306   0.0529 -10.55    0.0
2278 416030.449   37.692198828 -122.088430631    19.4324   2  13   0.0737   0.0757   0.1593   0.0258  -0.0314   0.0528  -9.55    0.0
2278 416031.449   37.692198750 -122.088431163    19.5027   2  14   0.0737   0.0759   0.1593   0.0265  -0.0318   0.0529  -8.55    0.0
2278 416032.449   37.692198868 -122.088430723    19.3952   2  13   0.0736   0.0755   0.1592   0.0258  -0.0323   0.0531  -7.55    0.0
2278 416033.449   37.692198815 -122.088431036    19.4430   2  14   0.0736   0.0755   0.1592   0.0261  -0.0324   0.0527  -6.55    0.0
2278 416034.449   37.692198932 -122.088430591    19.3864   2  11   0.0738   0.0756   0.1594   0.0259  -0.0322   0.0527  -5.55    0.0
2278 416035.449   37.692198808 -122.088430451    19.3596   2  14   0.0736   0.0757   0.1593   0.0270  -0.0331   0.0531  -4.55    0.0
2278 416036.449   37.692198191 -122.088426900    19.2804   2  13   0.0731   0.0754   0.1590   0.0265  -0.0326   0.0534  -3.55    0.0
2278 416037.449   37.692196834 -122.088421072    19.3665   2  13   0.0731   0.0753   0.1589   0.0265  -0.0324   0.0533  -2.55    0.0
2278 416038.449   37.692196706 -122.088410922    19.4812   2  19   0.0731   0.0752   0.1588   0.0265  -0.0321   0.0533  -1.55    0.0
2278 416039.449   37.692194405 -122.088398740    19.5335   2  14   0.0731   0.0752   0.1591   0.0264  -0.0323   0.0533  -0.55    0.0
2278 416040.449   37.692193173 -122.088395752    19.4977   2  13   0.0733   0.0752   0.1593   0.0265  -0.0324   0.0533   0.45    0.0
2278 416041.449   37.692193130 -122.088395370    19.4912   2  12   0.0733   0.0752   0.1591   0.0263  -0.0323   0.0537   1.45    0.0
2278 416042.449   37.692195811 -122.088398574    19.4755   2  15   0.0732   0.0751   0.1589   0.0263  -0.0319   0.0538   2.45    0.0
2278 416043.449   37.692207034 -122.088409344    19.4363   2  15   0.0735   0.0751   0.1592   0.0262  -0.0320   0.0543   3.45    0.0
2278 416044.449   37.692230013 -122.088426150    19.3138   2  15   0.0736   0.0753   0.1595   0.0261  -0.0326   0.0544   4.45    0.0
2278 416045.449   37.692265054 -122.088443464    19.2200   2  14   0.0738   0.0754   0.1596   0.0261  -0.0327   0.0547   5.45    0.0
2278 416046.449   37.692310208 -122.088455192    19.0845   2  14   0.0742   0.0753   0.1598   0.0259  -0.0327   0.0553   6.45    0.0
2278 416047.449   37.692358900 -122.088464283    18.9379   2  18   0.0750   0.0754   0.1607   0.0260  -0.0333   0.0565   7.45    0.0
2278 416048.449   37.692414583 -122.088480034    18.5827   2  13   0.0740   0.0757   0.1590   0.0263  -0.0331   0.0533   8.45    0.0
2278 416049.449   37.692477013 -122.088510016    18.3355   2  14   0.0727   0.0753   0.1571   0.0276  -0.0302   0.0508   9.45    0.0
2278 416050.449   37.692538926 -122.088548398    18.0570   2  13   0.0733   0.0753   0.1573   0.0279  -0.0301   0.0512  10.45    0.0
2278 416051.449   37.692600057 -122.088591306    17.8738   2  13   0.0726   0.0752   0.1574   0.0275  -0.0300   0.0510  11.45    0.0
2278 416052.449   37.692661322 -122.088635531    17.6544   2  14   0.0728   0.0753   0.1574   0.0276  -0.0299   0.0513  12.45    0.0
2278 416053.449   37.692722329 -122.088680606    17.4642   2  15   0.0727   0.0753   0.1574   0.0278  -0.0299   0.0510  13.45    0.0
2278 416054.449   37.692781371 -122.088724925    17.2459   2  12   0.0724   0.0754   0.1575   0.0277  -0.0303   0.0506  14.45    0.0
2278 416055.449   37.692834033 -122.088763581    17.1275   2  17   0.0724   0.0753   0.1574   0.0273  -0.0309   0.0505 -14.55    0.0
2278 416056.449   37.692881810 -122.088791917    17.2262   2  16   0.0722   0.0755   0.1575   0.0274  -0.0319   0.0500 -13.55    0.0
2278 416057.449   37.692926542 -122.088804251    17.3004   2  14   0.0722   0.0753   0.1570   0.0273  -0.0309   0.0503 -12.55    0.0
2278 416058.449   37.692969957 -122.088804109    17.2936   2  15   0.0725   0.0755   0.1572   0.0275  -0.0308   0.0509 -11.55    0.0
2278 416059.449   37.693006016 -122.088806353    17.2102   2  14   0.0727   0.0755   0.1577   0.0270  -0.0316   0.0515 -10.55    0.0
2278 416060.449   37.693030762 -122.088810142    16.9416   2  13   0.0725   0.0755   0.1579   0.0268  -0.0324   0.0511  -9.55    0.0
2278 416061.449   37.693045489 -122.088814763    16.6892   2  16   0.0718   0.0755   0.1561   0.0280  -0.0308   0.0483  -8.55    0.0
2278 416062.449   37.693053329 -122.088816804    16.6089   2  14   0.0714   0.0752   0.1553   0.0281  -0.0297   0.0471  -7.55    0.0
2278 416063.449   37.693055261 -122.088817504    16.5788   2  15   0.0715   0.0752   0.1554   0.0282  -0.0300   0.0468  -6.55    0.0
2278 416064.449   37.693055605 -122.088817157    16.4984   2  13   0.0714   0.0750   0.1550   0.0279  -0.0287   0.0475  -5.55    0.0
2278 416065.449   37.693055810 -122.088817140    16.4950   2  13   0.0715   0.0750   0.1550   0.0278  -0.0288   0.0478  -4.55    0.0
2278 416066.449   37.693060878 -122.088818542    16.4006   2  12   0.0715   0.0750   0.1550   0.0276  -0.0288   0.0476  -3.55    0.0
2278 416067.449   37.693071984 -122.088822668    16.1837   2  17   0.0718   0.0751   0.1551   0.0274  -0.0288   0.0481  -2.55    0.0
2278 416068.449   37.693087437 -122.088829971    16.3818   2  13   0.0715   0.0751   0.1548   0.0279  -0.0282   0.0473  -1.55    0.0
2278 416069.449   37.693100058 -122.088837383    16.2268   2  15   0.0711   0.0750   0.1544   0.0282  -0.0276   0.0467  -0.55    0.0
2278 416070.449   37.693112920 -122.088846193    16.3502   2  18   0.0709   0.0749   0.1543   0.0281  -0.0277   0.0465   0.45    0.0
2278 416071.449   37.693124893 -122.088860666    16.4293   2  18   0.0709   0.0748   0.1542   0.0280  -0.0277   0.0462   1.45    0.0
2278 416072.449   37.693133557 -122.088878460    16.4857   2  19   0.0710   0.0748   0.1543   0.0280  -0.0281   0.0462   2.45    0.0
2278 416073.449   37.693137257 -122.088893935    16.4804   2  18   0.0713   0.0751   0.1548   0.0281  -0.0289   0.0466   3.45    0.0
2278 416074.449   37.693139124 -122.088910291    16.3412   2  17   0.0704   0.0751   0.1544   0.0277  -0.0293   0.0448   4.45    0.0
2278 416075.449   37.693142614 -122.088943687    16.3860   2  17   0.0705   0.0750   0.1540   0.0279  -0.0286   0.0444   5.45    0.0
2278 416076.449   37.693146101 -122.088990287    16.3785   2  13   0.0706   0.0749   0.1533   0.0279  -0.0271   0.0447   6.45    0.0
2278 416077.449   37.693145527 -122.089040145    16.3056   2  17   0.0703   0.0749   0.1531   0.0279  -0.0271   0.0445   7.45    0.0
2278 416078.449   37.693140272 -122.089089212    16.2796   2  19   0.0702   0.0747   0.1526   0.0281  -0.0258   0.0439   8.45    0.0
2278 416079.449   37.693130105 -122.089138034    16.3145   2  19   0.0702   0.0746   0.1522   0.0280  -0.0250   0.0443   9.45    0.0
2278 416080.449   37.693116687 -122.089182013    16.3173   2  18   0.0704   0.0747   0.1525   0.0279  -0.0248   0.0443  10.45    0.0
2278 416081.449   37.693104964 -122.089214284    16.4328   2  21   0.0706   0.0748   0.1528   0.0277  -0.0249   0.0449  11.45    0.0
2278 416082.449   37.693096546 -122.089235933    16.4782   2  18   0.0709   0.0750   0.1534   0.0274  -0.0265   0.0467  12.45    0.0
2278 416083.449   37.693090141 -122.089249184    16.3418   2  16   0.0699   0.0740   0.1513   0.0290  -0.0204   0.0439  13.45    0.0
2278 416084.449   37.693086204 -122.089258601    16.2639   2  10   0.0700   0.0740   0.1517   0.0291  -0.0202   0.0442  14.45    0.0
2278 416085.449   37.693084864 -122.089263057    16.1400   2  13   0.0703   0.0742   0.1515   0.0290  -0.0205   0.0451 -14.55    0.0
2278 416086.449   37.693084097 -122.089265123    16.1595   2  14   0.0707   0.0742   0.1512   0.0293  -0.0197   0.0455 -13.55    0.0
2278 416087.449   37.693083758 -122.089265800    16.1707   2  12   0.0702   0.0742   0.1508   0.0290  -0.0200   0.0444 -12.55    0.0
2278 416088.449   37.693083862 -122.089265537    16.1743   2  15   0.0705   0.0744   0.1509   0.0290  -0.0194   0.0448 -11.55    0.0
2278 416089.449   37.693083888 -122.089265604    16.1789   2   9   0.0702   0.0741   0.1507   0.0296  -0.0207   0.0452 -10.55    0.0
2278 416090.449   37.693084147 -122.089265611    16.1798   2  12   0.0707   0.0746   0.1511   0.0297  -0.0195   0.0462  -9.55    0.0
2278 416091.449   37.693083716 -122.089265496    16.1153   2  13   0.0691   0.0734   0.1500   0.0292  -0.0220   0.0432  -8.55    0.0
2278 416092.449   37.693083772 -122.089265593    16.1402   2  12   0.0691   0.0733   0.1497   0.0291  -0.0223   0.0432  -7.55    0.0
2278 416093.449   37.693083759 -122.089265530    16.1508   2  13   0.0692   0.0735   0.1499   0.0292  -0.0221   0.0435  -6.55    0.0
2278 416094.449   37.693083803 -122.089265647    16.1557   2   9   0.0694   0.0736   0.1500   0.0291  -0.0227   0.0437  -5.55    0.0
2278 416095.449   37.693083812 -122.089265467    16.1430   2   8   0.0687   0.0731   0.1492   0.0288  -0.0226   0.0421  -4.55    0.0
2278 416096.449   37.693083843 -122.089265591    16.1559   2  14   0.0688   0.0732   0.1493   0.0288  -0.0227   0.0419  -3.55    0.0
2278 416097.449   37.693083955 -122.089265354    16.1521   2   7   0.0684   0.0732   0.1492   0.0288  -0.0226   0.0424  -2.55    0.0
2278 416098.449   37.693083894 -122.089265582    16.1627   2  10   0.0685   0.0729   0.1490   0.0282  -0.0238   0.0422  -1.55    0.0
2278 416099.449   37.693083891 -122.089265262    16.1637   2  10   0.0680   0.0731   0.1487   0.0283  -0.0243   0.0410  -0.55    0.0
2278 416100.449   37.693083929 -122.089265210    16.1429   2  15   0.0680   0.0728   0.1486   0.0280  -0.0238   0.0411   0.45    0.0
2278 416101.449   37.693084040 -122.089265208    16.1581   2  13   0.0680   0.0728   0.1485   0.0280  -0.0236   0.0410   1.45    0.0
2278 416102.449   37.693083942 -122.089265278    16.1753   2   9   0.0677   0.0728   0.1485   0.0282  -0.0238   0.0408   2.45    0.0
2278 416103.449   37.693083961 -122.089265085    16.1540   2  15   0.0677   0.0727   0.1486   0.0282  -0.0240   0.0407   3.45    0.0
2278 416104.449   37.693083598 -122.089266223    16.2024   2  15   0.0677   0.0727   0.1485   0.0282  -0.0238   0.0407   4.45    0.0
2278 416105.449   37.693080794 -122.089273082    16.2371   2  16   0.0677   0.0723   0.1480   0.0284  -0.0218   0.0403   5.45    0.0
2278 416106.449   37.693074546 -122.089287823    16.1702   2  15   0.0677   0.0723   0.1481   0.0284  -0.0215   0.0399   6.45    0.0
2278 416107.449   37.693063703 -122.089314878    16.2042   2  13   0.0676   0.0723   0.1477   0.0285  -0.0217   0.0406   7.45    0.0
2278 416108.449   37.693047944 -122.089354216    16.1609   2  16   0.0676   0.0723   0.1475   0.0284  -0.0215   0.0405   8.45    0.0
2278 416109.449   37.693028982 -122.089402306    16.2730   2  15   0.0676   0.0723   0.1476   0.0284  -0.0217   0.0406   9.45    0.0
2278 416110.449   37.693006428 -122.089462395    16.4638   2  16   0.0675   0.0723   0.1474   0.0284  -0.0216   0.0403  10.45    0.0
2278 416111.449   37.692981411 -122.089535024    16.5938   2  16   0.0676   0.0723   0.1476   0.0283  -0.0220   0.0405  11.45    0.0
2278 416112.449   37.692956516 -122.089615099    16.8043   2  17   0.0675   0.0723   0.1473   0.0284  -0.0213   0.0402  12.45    0.0
2278 416113.449   37.692928363 -122.089703181    17.0279   2  17   0.0674   0.0722   0.1471   0.0285  -0.0210   0.0400  13.45    0.0
2278 416114.449   37.692893249 -122.089800678    17.3461   2  16   0.0674   0.0723   0.1470   0.0286  -0.0208   0.0400  14.45    0.0
2278 416115.449   37.692850784 -122.089908746    17.6544   2  15   0.0674   0.0724   0.1470   0.0287  -0.0208   0.0398 -14.55    0.0
2278 416116.449   37.692803686 -122.090031883    18.0513   2  17   0.0674   0.0723   0.1470   0.0286  -0.0213   0.0395 -13.55    0.0
2278 416117.449   37.692751268 -122.090171189    18.6346   2  16   0.0673   0.0724   0.1469   0.0288  -0.0210   0.0392 -12.55    0.0
2278 416118.449   37.692688937 -122.090321671    19.3669   2  19   0.0673   0.0725   0.1469   0.0289  -0.0206   0.0390 -11.55    0.0
2278 416119.449   37.692617511 -122.090481409    19.9588   2  11   0.0674   0.0726   0.1470   0.0289  -0.0209   0.0394 -10.55    0.0
2278 416120.449   37.692540330 -122.090646419    20.5441   2  19   0.0674   0.0726   0.1472   0.0289  -0.0210   0.0395  -9.55    0.0
2278 416121.449   37.692459742 -122.090810657    21.0803   2  17   0.0675   0.0728   0.1474   0.0293  -0.0207   0.0396  -8.55    0.0
2278 416122.449   37.692378888 -122.090968044    21.6928   2  19   0.0677   0.0733   0.1477   0.0297  -0.0209   0.0398  -7.55    0.0
2278 416123.449   37.692295689 -122.091117807    22.2440   2  13   0.0670   0.0722   0.1469   0.0283  -0.0207   0.0388  -6.55    0.0
2278 416124.449   37.692211027 -122.091271658    22.6623   2  17   0.0670   0.0722   0.1469   0.0283  -0.0206   0.0386  -5.55    0.0
2278 416125.449   37.692123764 -122.091428829    22.8173   2  17   0.0671   0.0722   0.1469   0.0282  -0.0205   0.0387  -4.55    0.0
2278 416126.449   37.692032056 -122.091590301    22.9730   2  17   0.0671   0.0722   0.1469   0.0283  -0.0208   0.0387  -3.55    0.0
2278 416127.449   37.691937100 -122.091754206    23.0663   2  16   0.0671   0.0722   0.1469   0.0283  -0.0210   0.0387  -2.55    0.0
2278 416128.449   37.691838590 -122.091921885    23.2978   2  17   0.0672   0.0722   0.1469   0.0284  -0.0210   0.0387  -1.55    0.0
2278 416129.449   37.691737923 -122.092093024    23.3310   2  14   0.0672   0.0723   0.1469   0.0284  -0.0210   0.0387  -0.55    0.0
2278 416130.449   37.691635371 -122.092269785    23.0970   2  18   0.0672   0.0721   0.1468   0.0283  -0.0203   0.0386   0.45    0.0
2278 416131.449   37.691534264 -122.092450248    22.6991   2  17   0.0672   0.0721   0.1468   0.0282  -0.0201   0.0385   1.45    0.0
2278 416132.449   37.691435121 -122.092632073    21.9676   2  15   0.0673   0.0721   0.1467   0.0282  -0.0200   0.0384   2.45    0.0
2278 416133.449   37.691336940 -122.092818129    20.9903   2  16   0.0672   0.0720   0.1467   0.0282  -0.0200   0.0384   3.45    0.0
2278 416134.449   37.691238070 -122.093012775    20.4244   2  17   0.0671   0.0720   0.1467   0.0281  -0.0199   0.0386   4.45    0.0
2278 416135.449   37.691142546 -122.093216839    20.3149   2  17   0.0672   0.0720   0.1469   0.0280  -0.0204   0.0388   5.45    0.0
2278 416136.449   37.691059242 -122.093429018    20.5754   2  18   0.0673   0.0720   0.1469   0.0281  -0.0204   0.0387   6.45    0.0
2278 416137.449   37.690992314 -122.093646309    20.8399   2  17   0.0673   0.0720   0.1468   0.0282  -0.0202   0.0384   7.45    0.0
2278 416138.449   37.690937184 -122.093869206    20.9346   2  15   0.0672   0.0721   0.1469   0.0283  -0.0204   0.0385   8.45    0.0
2278 416139.449   37.690894174 -122.094097833    20.8800   2  15   0.0673   0.0722   0.1470   0.0284  -0.0209   0.0383   9.45    0.0
2278 416140.449   37.690862489 -122.094333771    20.7213   2  16   0.0674   0.0722   0.1469   0.0285  -0.0210   0.0378  10.45    0.0
2278 416141.449   37.690838341 -122.094576676    20.3037   2  16   0.0672   0.0723   0.1466   0.0285  -0.0214   0.0380  11.45    0.0
2278 416142.449   37.690817440 -122.094826502    19.8866   2  18   0.0672   0.0722   0.1465   0.0284  -0.0212   0.0380  12.45    0.0
2278 416143.449   37.690798531 -122.095082427    19.3157   2  16   0.0672   0.0722   0.1467   0.0284  -0.0217   0.0379  13.45    0.0
2278 416144.449   37.690782148 -122.095344380    18.7415   2  16   0.0673   0.0723   0.1469   0.0284  -0.0220   0.0378  14.45    0.0
2278 416145.449   37.690768889 -122.095608877    18.1251   2  14   0.0673   0.0723   0.1469   0.0284  -0.0222   0.0380 -14.55    0.0
2278 416146.449   37.690757604 -122.095879635    17.5106   2  15   0.0674   0.0725   0.1470   0.0286  -0.0226   0.0380 -13.55    0.0
2278 416147.449   37.690748738 -122.096160079    17.0404   2  13   0.0674   0.0726   0.1472   0.0285  -0.0232   0.0382 -12.55    0.0
2278 416148.449   37.690745401 -122.096444200    16.8137   2  14   0.0675   0.0727   0.1473   0.0285  -0.0238   0.0383 -11.55    0.0
2278 416149.449   37.690752827 -122.096725711    16.6321   2  13   0.0676   0.0728   0.1474   0.0286  -0.0240   0.0384 -10.55    0.0
2278 416150.449   37.690771716 -122.097003122    16.5313   2  15   0.0675   0.0728   0.1475   0.0285  -0.0242   0.0384  -9.55    0.0
2278 416151.449   37.690802095 -122.097276334    16.4906   2  14   0.0676   0.0727   0.1478   0.0282  -0.0250   0.0383  -8.55    0.0
2278 416152.449   37.690842180 -122.097549631    16.5071   2  15   0.0675   0.0725   0.1473   0.0283  -0.0236   0.0383  -7.55    0.0
2278 416153.449   37.690891489 -122.097825102    16.5590   2  15   0.0675   0.0726   0.1472   0.0284  -0.0235   0.0380  -6.55    0.0
2278 416154.449   37.690951078 -122.098102411    16.6345   2  15   0.0675   0.0728   0.1476   0.0282  -0.0244   0.0381  -5.55    0.0
2278 416155.449   37.691018050 -122.098382454    16.6789   2  13   0.0676   0.0731   0.1479   0.0280  -0.0257   0.0387  -4.55    0.0
2278 416156.449   37.691091268 -122.098668141    16.6725   2  16   0.0671   0.0719   0.1460   0.0289  -0.0199   0.0365  -3.55    0.0
2278 416157.449   37.691174189 -122.098956774    16.7253   2  14   0.0671   0.0718   0.1460   0.0288  -0.0198   0.0364  -2.55    0.0
2278 416158.449   37.691269702 -122.099240339    16.6494   2  17   0.0671   0.0717   0.1455   0.0290  -0.0188   0.0361  -1.55    0.0
2278 416159.449   37.691377358 -122.099518215    16.5166   2  16   0.0669   0.0717   0.1453   0.0291  -0.0182   0.0355  -0.55    0.0
2278 416160.449   37.691496380 -122.099789223    16.2946   2  13   0.0669   0.0716   0.1450   0.0292  -0.0174   0.0353   0.45    0.0
2278 416161.449   37.691625016 -122.100054697    16.1754   2  19   0.0669   0.0715   0.1451   0.0291  -0.0176   0.0353   1.45    0.0
2278 416162.449   37.691762526 -122.100314720    16.1962   2  17   0.0669   0.0716   0.1451   0.0292  -0.0176   0.0351   2.45    0.0
2278 416163.449   37.691910928 -122.100564905    16.0441   2  15   0.0669   0.0715   0.1448   0.0294  -0.0166   0.0350   3.45    0.0
2278 416164.449   37.692069800 -122.100806422    15.9323   2  14   0.0669   0.0714   0.1447   0.0294  -0.0165   0.0346   4.45    0.0
2278 416165.449   37.692236752 -122.101039724    15.6892   2  16   0.0669   0.0712   0.1443   0.0293  -0.0149   0.0350   5.45    0.0
2278 416166.449   37.692410993 -122.101266761    15.5261   2  18   0.0670   0.0712   0.1443   0.0293  -0.0147   0.0352   6.45    0.0
2278 416167.449   37.692591004 -122.101488067    15.2339   2  18   0.0669   0.0711   0.1442   0.0292  -0.0146   0.0350   7.45    0.0
2278 416168.449   37.692781656 -122.101703679    15.0785   2  18   0.0668   0.0711   0.1440   0.0293  -0.0142   0.0347   8.45    0.0
2278 416169.449   37.692984523 -122.101913649    14.8703   2  18   0.0669   0.0711   0.1442   0.0293  -0.0138   0.0349   9.45    0.0
2278 416170.449   37.693202511 -122.102119689    14.7045   2  16   0.0669   0.0711   0.1442   0.0294  -0.0137   0.0346  10.45    0.0
2278 416171.449   37.693428649 -122.102323804    14.5097   2  16   0.0670   0.0712   0.1444   0.0295  -0.0138   0.0347  11.45    0.0
2278 416172.449   37.693654532 -122.102524877    14.3369   2  16   0.0670   0.0712   0.1446   0.0295  -0.0141   0.0347  12.45    0.0
2278 416173.449   37.693878426 -122.102723869    14.1000   2  16   0.0670   0.0712   0.1446   0.0295  -0.0142   0.0347  13.45    0.0
2278 416174.449   37.694099902 -122.102920111    13.8551   2  18   0.0671   0.0712   0.1448   0.0295  -0.0147   0.0346  14.45    0.0
2278 416175.449   37.694319315 -122.103114499    13.6441   2  17   0.0671   0.0712   0.1448   0.0294  -0.0140   0.0347 -14.55    0.0
2278 416176.449   37.694535426 -122.103306671    13.4807   2  18   0.0671   0.0712   0.1448   0.0295  -0.0142   0.0347 -13.55    0.0
2278 416177.449   37.694748752 -122.103497377    13.3981   2  15   0.0671   0.0712   0.1448   0.0294  -0.0141   0.0347 -12.55    0.0
2278 416178.449   37.694959120 -122.103686185    13.2575   2  18   0.0671   0.0711   0.1449   0.0293  -0.0135   0.0348 -11.55    0.0
2278 416179.449   37.695166879 -122.103873233    13.1194   2  18   0.0672   0.0711   0.1449   0.0293  -0.0136   0.0349 -10.55    0.0
2278 416180.449   37.695373208 -122.104058216    13.0103   2  15   0.0672   0.0711   0.1449   0.0294  -0.0135   0.0349  -9.55    0.0
2278 416181.449   37.695577936 -122.104242373    12.8635   2  17   0.0672   0.0710   0.1449   0.0294  -0.0131   0.0349  -8.55    0.0
2278 416182.449   37.695780976 -122.104424504    12.6715   2  19   0.0672   0.0710   0.1449   0.0293  -0.0130   0.0350  -7.55    0.0
2278 416183.449   37.695984207 -122.104603923    12.4697   2  17   0.0671   0.0710   0.1448   0.0292  -0.0128   0.0347  -6.55    0.0
2278 416184.449   37.696188001 -122.104784890    12.3113   2  18   0.0671   0.0710   0.1449   0.0293  -0.0130   0.0346  -5.55    0.0
2278 416185.449   37.696393424 -122.104966861    12.1449   2  17   0.0671   0.0710   0.1449   0.0293  -0.0130   0.0345  -4.55    0.0
2278 416186.449   37.696600396 -122.105151314    12.0546   2  17   0.0671   0.0710   0.1449   0.0293  -0.0129   0.0345  -3.55    0.0
2278 416187.449   37.696809654 -122.105336340    11.7822   2  16   0.0671   0.0711   0.1450   0.0293  -0.0137   0.0343  -2.55    0.0
2278 416188.449   37.697020337 -122.105524225    11.5397   2  18   0.0671   0.0710   0.1449   0.0293  -0.0130   0.0343  -1.55    0.0
2278 416189.449   37.697232431 -122.105713086    11.4005   2  17   0.0671   0.0709   0.1449   0.0292  -0.0127   0.0344  -0.55    0.0
2278 416190.449   37.697444136 -122.105900601    11.2244   2  18   0.0671   0.0709   0.1449   0.0291  -0.0126   0.0345   0.45    0.0
2278 416191.449   37.697653641 -122.106087169    11.0753   2  19   0.0671   0.0709   0.1450   0.0291  -0.0125   0.0344   1.45    0.0
2278 416192.449   37.697862649 -122.106273243    10.8750   2  18   0.0671   0.0709   0.1449   0.0291  -0.0124   0.0343   2.45    0.0
2278 416193.449   37.698070035 -122.106458239    10.7078   2  17   0.0671   0.0709   0.1450   0.0292  -0.0130   0.0341   3.45    0.0
2278 416194.449   37.698275660 -122.106641323    10.6864   2  19   0.0671   0.0709   0.1449   0.0291  -0.0126   0.0341   4.45    0.0
2278 416195.449   37.698479274 -122.106822538    10.5483   2  17   0.0671   0.0710   0.1450   0.0292  -0.0133   0.0341   5.45    0.0
2278 416196.449   37.698683150 -122.107003494    10.3385   2  16   0.0671   0.0709   0.1449   0.0292  -0.0131   0.0338   6.45    0.0
2278 416197.449   37.698886543 -122.107185581    10.2978   2  19   0.0671   0.0709   0.1449   0.0290  -0.0129   0.0339   7.45    0.0
2278 416198.449   37.699087366 -122.107366543    10.3698   2  18   0.0670   0.0709   0.1448   0.0290  -0.0132   0.0337   8.45    0.0
2278 416199.449   37.699284372 -122.107547329    10.4490   2  19   0.0670   0.0708   0.1447   0.0289  -0.0126   0.0337   9.45    0.0
2278 416200.449   37.699476077 -122.107730201    10.3130   2  16   0.0669   0.0708   0.1446   0.0289  -0.0127   0.0334  10.45    0.0
2278 416201.449   37.699665729 -122.107918694    10.1633   2  17   0.0669   0.0709   0.1446   0.0290  -0.0131   0.0332  11.45    0.0
2278 416202.449   37.699854568 -122.108115364     9.9610   2  17   0.0669   0.0708   0.1446   0.0290  -0.0134   0.0328  12.45    0.0
2278 416203.449   37.700042011 -122.108320444     9.7703   2  14   0.0668   0.0709   0.1446   0.0289  -0.0142   0.0328  13.45    0.0
2278 416204.449   37.700227257 -122.108533747     9.5165   2  17   0.0668   0.0708   0.1445   0.0289  -0.0139   0.0327  14.45    0.0
2278 416205.449   37.700408277 -122.108755819     9.2101   2  14   0.0669   0.0708   0.1445   0.0289  -0.0138   0.0327 -14.55    0.0
2278 416206.449   37.700585380 -122.108985237     8.7599   2  14   0.0668   0.0708   0.1443   0.0288  -0.0141   0.0324 -13.55    0.0
2278 416207.449   37.700758717 -122.109220558     8.1767   2  17   0.0666   0.0708   0.1441   0.0287  -0.0139   0.0320 -12.55    0.0
2278 416208.449   37.700927983 -122.109461578     7.6369   2  15   0.0666   0.0708   0.1441   0.0288  -0.0142   0.0316 -11.55    0.0
2278 416209.449   37.701090646 -122.109707985     7.0383   2  15   0.0665   0.0709   0.1440   0.0289  -0.0146   0.0313 -10.55    0.0
2278 416210.449   37.701247625 -122.109958430     6.2031   2  17   0.0665   0.0708   0.1439   0.0287  -0.0142   0.0313  -9.55    0.0
2278 416211.449   37.701404171 -122.110212270     5.2313   2  14   0.0665   0.0708   0.1439   0.0287  -0.0142   0.0312  -8.55    0.0
2278 416212.449   37.701562878 -122.110469919     4.3280   2  17   0.0665   0.0708   0.1439   0.0287  -0.0143   0.0310  -7.55    0.0
2278 416213.449   37.701723565 -122.110731093     3.6050   2  15   0.0665   0.0709   0.1439   0.0287  -0.0147   0.0309  -6.55    0.0
2278 416214.449   37.701885897 -122.110995417     3.0520   2  12   0.0665   0.0710   0.1440   0.0288  -0.0155   0.0306  -5.55    0.0
2278 416215.449   37.702049120 -122.111260607     2.7295   2  16   0.0664   0.0710   0.1438   0.0288  -0.0150   0.0304  -4.55    0.0
2278 416216.449   37.702212150 -122.111526475     2.6005   2  16   0.0663   0.0709   0.1437   0.0288  -0.0148   0.0302  -3.55    0.0
2278 416217.449   37.702375830 -122.111791559     2.5236   2  16   0.0663   0.0709   0.1437   0.0287  -0.0144   0.0301  -2.55    0.0
2278 416218.449   37.702540455 -122.112057556     2.4647   2  16   0.0663   0.0710   0.1436   0.0287  -0.0149   0.0299  -1.55    0.0
2278 416219.449   37.702705534 -122.112325436     2.3868   2  16   0.0662   0.0709   0.1436   0.0287  -0.0151   0.0298  -0.55    0.0
2278 416220.449   37.702871497 -122.112595782     2.3088   2  16   0.0662   0.0709   0.1435   0.0287  -0.0152   0.0296   0.45    0.0
2278 416221.449   37.703038433 -122.112868740     2.2409   2  15   0.0661   0.0709   0.1435   0.0287  -0.0152   0.0294   1.45    0.0
2278 416222.449   37.703207267 -122.113144813     2.1975   2  15   0.0661   0.0710   0.1435   0.0287  -0.0154   0.0292   2.45    0.0
2278 416223.449   37.703377634 -122.113423948     2.0858   2  16   0.0660   0.0709   0.1434   0.0286  -0.0152   0.0291   3.45    0.0
2278 416224.449   37.703548827 -122.113705763     2.0640   2  15   0.0660   0.0710   0.1434   0.0286  -0.0154   0.0288   4.45    0.0
2278 416225.449   37.703720626 -122.113988795     2.0081   2  17   0.0659   0.0709   0.1433   0.0286  -0.0151   0.0287   5.45    0.0
2278 416226.449   37.703892917 -122.114272661     1.9218   2  14   0.0658   0.0709   0.1433   0.0284  -0.0154   0.0285   6.45    0.0
2278 416227.449   37.704066554 -122.114555319     1.9501   2  16   0.0658   0.0709   0.1432   0.0284  -0.0157   0.0282   7.45    0.0
2278 416228.449   37.704240892 -122.114837461     2.0435   2  16   0.0657   0.0709   0.1432   0.0284  -0.0158   0.0280   8.45    0.0
2278 416229.449   37.704413965 -122.115119613     2.1052   2  17   0.0656   0.0708   0.1431   0.0282  -0.0157   0.0279   9.45    0.0
2278 416230.449   37.704584627 -122.115400971     2.0215   2  17   0.0656   0.0708   0.1432   0.0282  -0.0158   0.0279  10.45    0.0
2278 416231.449   37.704752338 -122.115685313     1.6965   2  18   0.0655   0.0708   0.1431   0.0281  -0.0158   0.0278  11.45    0.0
2278 416232.449   37.704917427 -122.115973932     1.3701   2  15   0.0655   0.0708   0.1433   0.0280  -0.0164   0.0278  12.45    0.0
2278 416233.449   37.705079268 -122.116263990     0.8818   2  16   0.0655   0.0708   0.1432   0.0280  -0.0164   0.0279  13.45    0.0
2278 416234.449   37.705236862 -122.116555774     0.4853   2  16   0.0656   0.0709   0.1433   0.0280  -0.0164   0.0276  14.45    0.0
2278 416235.449   37.705390082 -122.116848496     0.6397   2  16   0.0655   0.0708   0.1432   0.0277  -0.0166   0.0282 -14.55    0.0
2278 416236.449   37.705543892 -122.117147977    -0.4168   2  18   0.0653   0.0707   0.1429   0.0277  -0.0159   0.0278 -13.55    0.0
2278 416237.449   37.705694235 -122.117449394    -1.5566   2  17   0.0653   0.0706   0.1428   0.0277  -0.0157   0.0277 -12.55    0.0
2278 416238.449   37.705841369 -122.117751383    -2.6246   2  18   0.0653   0.0706   0.1428   0.0276  -0.0157   0.0277 -11.55    0.0
2278 416239.449   37.705984871 -122.118054434    -3.7967   2  18   0.0652   0.0706   0.1428   0.0276  -0.0156   0.0276 -10.55    0.0
2278 416240.449   37.706124560 -122.118358769    -4.8217   2  16   0.0652   0.0706   0.1427   0.0276  -0.0155   0.0276  -9.55    0.0
2278 416241.449   37.706261644 -122.118663186    -6.0189   2  18   0.0651   0.0707   0.1427   0.0276  -0.0157   0.0273  -8.55    0.0
2278 416242.449   37.706396251 -122.118968732    -7.2560   2  19   0.0651   0.0706   0.1427   0.0276  -0.0156   0.0271  -7.55    0.0
2278 416243.449   37.706530333 -122.119276515    -8.4902   2  17   0.0651   0.0707   0.1427   0.0277  -0.0161   0.0269  -6.55    0.0
2278 416244.449   37.706666036 -122.119585949    -9.6747   2  17   0.0650   0.0707   0.1426   0.0276  -0.0160   0.0269  -5.55    0.0
2278 416245.449   37.706803196 -122.119896205   -10.8823   2  18   0.0650   0.0706   0.1425   0.0276  -0.0158   0.0268  -4.55    0.0
2278 416246.449   37.706941482 -122.120205467   -12.3594   2  17   0.0649   0.0707   0.1425   0.0275  -0.0162   0.0269  -3.55    0.0
2278 416247.449   37.707085406 -122.120510285   -13.6934   2  16   0.0649   0.0707   0.1426   0.0274  -0.0165   0.0270  -2.55    0.0
2278 416248.449   37.707240619 -122.120804841   -14.7539   2  15   0.0649   0.0707   0.1425   0.0275  -0.0165   0.0268  -1.55    0.0
2278 416249.449   37.707406006 -122.121088376   -15.7385   2  15   0.0649   0.0707   0.1423   0.0275  -0.0161   0.0265  -0.55    0.0
2278 416250.449   37.707582185 -122.121360140   -16.7045   2  16   0.0649   0.0707   0.1423   0.0275  -0.0160   0.0265   0.45    0.0
2278 416251.449   37.707769485 -122.121621370   -17.5023   2  14   0.0650   0.0706   0.1424   0.0273  -0.0162   0.0269   1.45    0.0
2278 416252.449   37.707964376 -122.121873897   -17.9436   2  15   0.0650   0.0706   0.1427   0.0270  -0.0171   0.0275   2.45    0.0
2278 416253.449   37.708161036 -122.122123499   -18.3552   2  15   0.0652   0.0708   0.1433   0.0266  -0.0187   0.0283   3.45    0.0
2278 416254.449   37.708356912 -122.122372391   -18.9399   2  10   0.0656   0.0709   0.1440   0.0263  -0.0201   0.0294   4.45    0.0
2278 416255.449   37.708537523 -122.122617939   -21.3174   2   7   0.0677   0.0721   0.1486   0.0273  -0.0260   0.0292   5.45    0.0
2278 416256.449   37.708731696 -122.122859605   -25.5160   2   7   0.0658   0.0714   0.1449   0.0258  -0.0236   0.0295   6.45    0.0
2278 416257.449   37.708930832 -122.123104756   -25.0017   2  15   0.0664   0.0712   0.1449   0.0264  -0.0217   0.0311   7.45    0.0
2278 416258.449   37.709126321 -122.123353270   -24.5055   2  15   0.0661   0.0710   0.1438   0.0268  -0.0193   0.0298   8.45    0.0
2278 416259.449   37.709320917 -122.123602195   -23.9984   2  14   0.0660   0.0709   0.1434   0.0269  -0.0184   0.0293   9.45    0.0
2278 416260.449   37.709515601 -122.123852199   -23.3994   2  14   0.0661   0.0708   0.1434   0.0270  -0.0178   0.0294  10.45    0.0
2278 416261.449   37.709708601 -122.124105242   -22.9625   2  10   0.0662   0.0709   0.1435   0.0271  -0.0177   0.0294  11.45    0.0
2278 416262.449   37.709912144 -122.124372476   -20.9627   2  11   0.0704   0.0713   0.1495   0.0256  -0.0232   0.0424  12.45    0.0
2278 416263.449   37.710092457 -122.124635871   -20.4353   2  15   0.0685   0.0710   0.1474   0.0258  -0.0215   0.0380  13.45    0.0
2278 416264.449   37.710264123 -122.124904317   -20.2576   2  13   0.0672   0.0708   0.1449   0.0266  -0.0187   0.0331  14.45    0.0
2278 416265.449   37.710430362 -122.125179914   -19.8388   2  16   0.0671   0.0710   0.1452   0.0266  -0.0194   0.0327 -14.55    0.0
2278 416266.449   37.710589294 -122.125460577   -19.2041   2  15   0.0670   0.0708   0.1451   0.0265  -0.0188   0.0327 -13.55    0.0
2278 416267.449   37.710742055 -122.125746108   -18.7820   2  19   0.0669   0.0707   0.1448   0.0265  -0.0179   0.0326 -12.55    0.0
2278 416268.449   37.710890423 -122.126035368   -18.3892   2  18   0.0669   0.0706   0.1447   0.0265  -0.0174   0.0325 -11.55    0.0
2278 416269.449   37.711036181 -122.126324347   -17.7410   2  18   0.0669   0.0706   0.1448   0.0266  -0.0175   0.0324 -10.55    0.0
2278 416270.449   37.711180190 -122.126608851   -16.6583   2  16   0.0669   0.0706   0.1448   0.0266  -0.0173   0.0324  -9.55    0.0
2278 416271.449   37.711321303 -122.126886223   -15.6967   2  18   0.0669   0.0706   0.1448   0.0266  -0.0174   0.0323  -8.55    0.0
2278 416272.449   37.711459266 -122.127159106   -14.7466   2  17   0.0669   0.0707   0.1448   0.0267  -0.0174   0.0323  -7.55    0.0
2278 416273.449   37.711595915 -122.127428532   -13.9805   2  16   0.0669   0.0707   0.1448   0.0266  -0.0174   0.0323  -6.55    0.0
2278 416274.449   37.711732615 -122.127694532   -13.4731   2  16   0.0669   0.0707   0.1448   0.0266  -0.0176   0.0324  -5.55    0.0
2278 416275.449   37.711871763 -122.127956702   -13.0441   2  15   0.0669   0.0707   0.1449   0.0267  -0.0176   0.0325  -4.55    0.0
2278 416276.449   37.712016486 -122.128213121   -12.5575   2  14   0.0670   0.0708   0.1449   0.0267  -0.0176   0.0324  -3.55    0.0
2278 416277.449   37.712167333 -122.128464305   -12.1565   2  14   0.0670   0.0708   0.1450   0.0267  -0.0177   0.0324  -2.55    0.0
2278 416278.449   37.712325480 -122.128708384   -11.7575   2  17   0.0669   0.0707   0.1448   0.0266  -0.0172   0.0323  -1.55    0.0
2278 416279.449   37.712490090 -122.128947531   -11.3084   2  16   0.0669   0.0706   0.1446   0.0267  -0.0166   0.0321  -0.55    0.0
2278 416280.449   37.712661465 -122.129182205   -10.9332   2  17   0.0670   0.0706   0.1446   0.0267  -0.0165   0.0321   0.45    0.0
2278 416281.449   37.712840332 -122.129412271   -10.6725   2  14   0.0670   0.0706   0.1446   0.0267  -0.0164   0.0322   1.45    0.0
2278 416282.449   37.713026845 -122.129637532   -10.4376   2  15   0.0670   0.0706   0.1446   0.0267  -0.0164   0.0322   2.45    0.0
2278 416283.449   37.713221011 -122.129856354   -10.3549   2  15   0.0670   0.0707   0.1447   0.0268  -0.0165   0.0320   3.45    0.0
2278 416284.449   37.713422793 -122.130069441   -10.2875   2  14   0.0671   0.0708   0.1448   0.0271  -0.0170   0.0317   4.45    0.0
2278 416285.449   37.713631620 -122.130276448   -10.2262   2  15   0.0671   0.0708   0.1447   0.0272  -0.0165   0.0317   5.45    0.0
2278 416286.449   37.713847710 -122.130476681   -10.1524   2  15   0.0672   0.0708   0.1447   0.0271  -0.0162   0.0318   6.45    0.0
2278 416287.449   37.714069663 -122.130669833   -10.0730   2  15   0.0672   0.0708   0.1448   0.0272  -0.0160   0.0317   7.45    0.0
2278 416288.449   37.714296262 -122.130850746   -10.0158   2  15   0.0674   0.0710   0.1448   0.0276  -0.0157   0.0318   8.45    0.0
2278 416289.449   37.714524835 -122.131020065    -9.9426   2  16   0.0673   0.0709   0.1448   0.0274  -0.0158   0.0317   9.45    0.0
2278 416290.449   37.714754497 -122.131177425    -9.8691   2  13   0.0673   0.0708   0.1448   0.0273  -0.0156   0.0318  10.45    0.0
2278 416291.449   37.714986545 -122.131324312    -9.8121   2  14   0.0673   0.0709   0.1449   0.0274  -0.0158   0.0318  11.45    0.0
2278 416292.449   37.715221361 -122.131462385    -9.7572   2  13   0.0673   0.0708   0.1448   0.0273  -0.0155   0.0319  12.45    0.0
2278 416293.449   37.715457006 -122.131590009    -9.6369   2  13   0.0673   0.0707   0.1448   0.0272  -0.0151   0.0320  13.45    0.0
2278 416294.449   37.715691292 -122.131709497    -9.4497   2  15   0.0673   0.0708   0.1448   0.0272  -0.0147   0.0322  14.45    0.0
2278 416295.449   37.715923953 -122.131823928    -9.5927   2  16   0.0673   0.0707   0.1449   0.0270  -0.0147   0.0324 -14.55    0.0
2278 416296.449   37.716154443 -122.131936004    -9.8648   2  13   0.0674   0.0707   0.1450   0.0270  -0.0153   0.0323 -13.55    0.0
2278 416297.449   37.716383130 -122.132046832   -10.1578   2  15   0.0676   0.0707   0.1449   0.0272  -0.0147   0.0321 -12.55    0.0
2278 416298.449   37.716610951 -122.132157376   -10.4087   2  17   0.0675   0.0707   0.1448   0.0271  -0.0141   0.0323 -11.55    0.0
2278 416299.449   37.716838208 -122.132268402   -10.4463   2  16   0.0675   0.0706   0.1448   0.0271  -0.0140   0.0322 -10.55    0.0
2278 416300.449   37.717065109 -122.132379322   -10.3467   2  11   0.0675   0.0707   0.1450   0.0271  -0.0147   0.0322  -9.55    0.0
2278 416301.449   37.717290581 -122.132490540   -10.1567   2  13   0.0676   0.0708   0.1454   0.0272  -0.0161   0.0322  -8.55    0.0
2278 416302.449   37.717515386 -122.132601240    -9.9978   2  13   0.0676   0.0708   0.1453   0.0272  -0.0153   0.0323  -7.55    0.0
2278 416303.449   37.717738535 -122.132711335    -9.7062   2  11   0.0676   0.0707   0.1454   0.0271  -0.0154   0.0325  -6.55    0.0
2278 416304.449   37.717958182 -122.132819199    -9.2286   2  13   0.0678   0.0709   0.1455   0.0273  -0.0156   0.0323  -5.55    0.0
2278 416305.449   37.718174135 -122.132926466    -8.6926   2  13   0.0677   0.0708   0.1454   0.0273  -0.0151   0.0324  -4.55    0.0
2278 416306.449   37.718388234 -122.133034895    -8.1817   2  11   0.0677   0.0708   0.1456   0.0272  -0.0153   0.0326  -3.55    0.0
2278 416307.449   37.718600848 -122.133145691    -7.7503   2  15   0.0677   0.0709   0.1454   0.0274  -0.0149   0.0324  -2.55    0.0
2278 416308.449   37.718811900 -122.133258926    -7.3145   2  14   0.0677   0.0708   0.1454   0.0273  -0.0146   0.0324  -1.55    0.0
2278 416309.449   37.719022651 -122.133375300    -6.8235   2  14   0.0677   0.0707   0.1454   0.0273  -0.0144   0.0323  -0.55    0.0
2278 416310.449   37.719235395 -122.133495150    -6.4675   2  14   0.0677   0.0707   0.1454   0.0272  -0.0143   0.0324   0.45    0.0
2278 416311.449   37.719450924 -122.133619633    -6.1832   2  14   0.0677   0.0707   0.1455   0.0272  -0.0143   0.0324   1.45    0.0
2278 416312.449   37.719668315 -122.133749409    -5.9346   2  10   0.0678   0.0707   0.1455   0.0271  -0.0143   0.0326   2.45    0.0
2278 416313.449   37.719887732 -122.133884426    -5.8304   2  13   0.0679   0.0709   0.1457   0.0273  -0.0148   0.0330   3.45    0.0
2278 416314.449   37.720108278 -122.134023619    -5.7968   2  14   0.0678   0.0708   0.1457   0.0272  -0.0146   0.0329   4.45    0.0
2278 416315.449   37.720325899 -122.134164853    -5.8483   2  11   0.0678   0.0707   0.1458   0.0270  -0.0145   0.0330   5.45    0.0
2278 416316.449   37.720539589 -122.134307744    -6.0172   2  16   0.0679   0.0707   0.1459   0.0270  -0.0149   0.0331   6.45    0.0
2278 416317.449   37.720749412 -122.134452179    -6.2370   2  17   0.0678   0.0706   0.1457   0.0269  -0.0139   0.0332   7.45    0.0
2278 416318.449   37.720956137 -122.134597041    -6.6010   2  17   0.0678   0.0705   0.1457   0.0269  -0.0133   0.0333   8.45    0.0
2278 416319.449   37.721159949 -122.134743931    -7.0136   2  13   0.0679   0.0706   0.1458   0.0269  -0.0133   0.0334   9.45    0.0
2278 416320.449   37.721360234 -122.134893514    -7.4942   2  15   0.0682   0.0708   0.1462   0.0271  -0.0147   0.0337  10.45    0.0
2278 416321.449   37.721558457 -122.135043789    -8.1301   2  14   0.0682   0.0707   0.1462   0.0269  -0.0143   0.0339  11.45    0.0
2278 416322.449   37.721755285 -122.135194700    -8.8619   2  13   0.0681   0.0706   0.1462   0.0268  -0.0139   0.0342  12.45    0.0
2278 416323.449   37.721950944 -122.135345284    -9.6879   2  14   0.0683   0.0706   0.1464   0.0268  -0.0143   0.0346  13.45    0.0
2278 416324.449   37.722146346 -122.135496897   -10.3419   2  11   0.0699   0.0710   0.1485   0.0260  -0.0169   0.0388  14.45    0.0
2278 416325.449   37.722354826 -122.135645017   -10.8187   2   5   0.0702   0.0710   0.1473   0.0282  -0.0123   0.0368 -14.55    0.0
2278 416326.449   37.722555104 -122.135799230   -11.0223   2  12   0.0737   0.0709   0.1505   0.0269  -0.0142   0.0457 -13.55    0.0
2278 416327.449   37.722753231 -122.135952365   -11.0938   2  15   0.0713   0.0707   0.1488   0.0264  -0.0137   0.0414 -12.55    0.0
2278 416328.449   37.722951707 -122.136106291   -10.9636   2  15   0.0706   0.0706   0.1483   0.0263  -0.0140   0.0399 -11.55    0.0
2278 416329.449   37.723152048 -122.136260305   -10.8792   2  15   0.0705   0.0707   0.1482   0.0263  -0.0140   0.0396 -10.55    0.0
2278 416330.449   37.723354510 -122.136415163   -10.8434   2  14   0.0704   0.0706   0.1482   0.0261  -0.0140   0.0394  -9.55    0.0
2278 416331.449   37.723559884 -122.136570780   -10.9530   2  13   0.0703   0.0705   0.1482   0.0261  -0.0142   0.0393  -8.55    0.0
2278 416332.449   37.723768515 -122.136726119   -11.0431   2  13   0.0702   0.0705   0.1482   0.0261  -0.0148   0.0391  -7.55    0.0
2278 416333.449   37.723980866 -122.136871039   -10.8545   2  14   0.0701   0.0706   0.1483   0.0261  -0.0152   0.0390  -6.55    0.0
2278 416334.449   37.724194990 -122.137005077   -10.3000   2  15   0.0701   0.0707   0.1484   0.0261  -0.0157   0.0388  -5.55    0.0
2278 416335.449   37.724412672 -122.137128212    -9.7557   2   9   0.0701   0.0709   0.1486   0.0263  -0.0162   0.0387  -4.55    0.0
2278 416336.449   37.724633933 -122.137240518    -9.0639   2  12   0.0702   0.0710   0.1488   0.0266  -0.0173   0.0385  -3.55    0.0
2278 416337.449   37.724857986 -122.137342344    -8.2484   2  12   0.0701   0.0709   0.1488   0.0263  -0.0170   0.0387  -2.55    0.0
2278 416338.449   37.725083917 -122.137433754    -7.4392   2  12   0.0702   0.0708   0.1491   0.0259  -0.0173   0.0393  -1.55    0.0
2278 416339.449   37.725311382 -122.137515454    -6.6027   2  12   0.0703   0.0708   0.1495   0.0254  -0.0178   0.0402  -0.55    0.0
2278 416340.449   37.725540738 -122.137585384    -6.0161   2  12   0.0707   0.0707   0.1495   0.0252  -0.0174   0.0410   0.45    0.0
2278 416341.449   37.725772304 -122.137644296    -5.4475   2  15   0.0706   0.0709   0.1505   0.0248  -0.0205   0.0415   1.45    0.0
2278 416342.449   37.726005350 -122.137692935    -4.8938   2  16   0.0704   0.0706   0.1495   0.0251  -0.0178   0.0406   2.45    0.0
2278 416343.449   37.726239313 -122.137734333    -4.2908   2  15   0.0704   0.0705   0.1491   0.0252  -0.0170   0.0403   3.45    0.0
2278 416344.449   37.726474168 -122.137770013    -3.8492   2  14   0.0704   0.0705   0.1489   0.0254  -0.0165   0.0399   4.45    0.0
2278 416345.449   37.726709584 -122.137805441    -3.5265   2  15   0.0703   0.0705   0.1488   0.0254  -0.0164   0.0397   5.45    0.0
2278 416346.449   37.726945624 -122.137841258    -3.1049   2  10   0.0703   0.0705   0.1487   0.0256  -0.0159   0.0394   6.45    0.0
2278 416347.449   37.727180887 -122.137876934    -2.5265   2  14   0.0706   0.0709   0.1487   0.0264  -0.0159   0.0395   7.45    0.0
2278 416348.449   37.727414990 -122.137911699    -1.8240   2  13   0.0704   0.0706   0.1485   0.0260  -0.0149   0.0395   8.45    0.0
2278 416349.449   37.727647563 -122.137947523    -1.1594   2  14   0.0704   0.0705   0.1485   0.0259  -0.0145   0.0395   9.45    0.0
2278 416350.449   37.727876914 -122.137983868    -0.6561   2  15   0.0704   0.0705   0.1485   0.0258  -0.0144   0.0395  10.45    0.0
2278 416351.449   37.728104974 -122.138022122    -0.2795   2  12   0.0704   0.0705   0.1486   0.0258  -0.0149   0.0392  11.45    0.0
2278 416352.449   37.728334209 -122.138063718    -0.0378   2  13   0.0704   0.0706   0.1486   0.0258  -0.0150   0.0392  12.45    0.0
2278 416353.449   37.728565460 -122.138109377     0.1739   2  13   0.0704   0.0706   0.1487   0.0257  -0.0155   0.0392  13.45    0.0
2278 416354.449   37.728799304 -122.138159740     0.3970   2  12   0.0707   0.0707   0.1494   0.0255  -0.0168   0.0403  14.45    0.0
2278 416355.449   37.729032731 -122.138214275     0.2358   2  12   0.0708   0.0710   0.1503   0.0250  -0.0197   0.0409 -14.55    0.0
2278 416356.449   37.729262583 -122.138273068     0.0980   2  12   0.0707   0.0709   0.1498   0.0251  -0.0190   0.0403 -13.55    0.0
2278 416357.449   37.729489226 -122.138334011    -0.0470   2  13   0.0707   0.0709   0.1497   0.0251  -0.0185   0.0403 -12.55    0.0
2278 416358.449   37.729712990 -122.138395642    -0.2800   2  13   0.0706   0.0708   0.1495   0.0250  -0.0177   0.0402 -11.55    0.0
2278 416359.449   37.729933328 -122.138458280    -0.6053   2  13   0.0707   0.0709   0.1499   0.0248  -0.0190   0.0406 -10.55    0.0
2278 416360.449   37.730151561 -122.138519530    -0.7017   2  12   0.0707   0.0714   0.1509   0.0246  -0.0224   0.0407  -9.55    0.0
2278 416361.449   37.730368265 -122.138581086    -0.6916   2  12   0.0710   0.0721   0.1531   0.0231  -0.0277   0.0428  -8.55    0.0
2278 416362.449   37.730584793 -122.138642638    -0.6419   2  11   0.0710   0.0774   0.1585   0.0214  -0.0438   0.0440  -7.55    0.0
2278 416363.449   37.730801852 -122.138704136    -0.6899   2  12   0.0707   0.0763   0.1556   0.0228  -0.0391   0.0420  -6.55    0.0
2278 416364.449   37.731019467 -122.138767151    -0.7158   2  13   0.0708   0.0740   0.1537   0.0226  -0.0329   0.0422  -5.55    0.0
2278 416365.449   37.731237214 -122.138830774    -0.7146   2  11   0.0710   0.0739   0.1545   0.0220  -0.0335   0.0431  -4.55    0.0
2278 416366.449   37.731452856 -122.138892170    -0.7797   2  10   0.0720   0.0736   0.1549   0.0213  -0.0332   0.0449  -3.55    0.0
2278 416367.449   37.731665803 -122.138952004    -0.8959   2  12   0.0715   0.0727   0.1528   0.0225  -0.0287   0.0432  -2.55    0.0
2278 416368.449   37.731876031 -122.139011321    -0.8987   2  12   0.0712   0.0730   0.1536   0.0222  -0.0305   0.0431  -1.55    0.0
2278 416369.449   37.732083773 -122.139069913    -0.9008   2  10   0.0715   0.0730   0.1544   0.0218  -0.0310   0.0444  -0.55    0.0
2278 416370.449   37.732293273 -122.139128401    -0.9209   2  12   0.0714   0.0728   0.1539   0.0220  -0.0301   0.0438   0.45    0.0
2278 416371.449   37.732506231 -122.139186199    -0.9773   2  11   0.0710   0.0724   0.1525   0.0229  -0.0278   0.0421   1.45    0.0
2278 416372.449   37.732722515 -122.139242644    -1.0222   2  11   0.0712   0.0726   0.1534   0.0223  -0.0291   0.0431   2.45    0.0
2278 416373.449   37.732940545 -122.139297590    -1.0422   2  10   0.0709   0.0724   0.1527   0.0228  -0.0281   0.0421   3.45    0.0
2278 416374.449   37.733159237 -122.139350363    -1.0879   2  12   0.0710   0.0723   0.1528   0.0228  -0.0278   0.0424   4.45    0.0
2278 416375.449   37.733378426 -122.139401212    -1.1938   2  13   0.0706   0.0720   0.1512   0.0237  -0.0251   0.0405   5.45    0.0
2278 416376.449   37.733598629 -122.139451139    -1.2559   2  12   0.0705   0.0718   0.1506   0.0240  -0.0236   0.0401   6.45    0.0
2278 416377.449   37.733819184 -122.139501663    -1.2377   2  13   0.0709   0.0720   0.1519   0.0232  -0.0260   0.0416   7.45    0.0
2278 416378.449   37.734038811 -122.139551619    -1.3806   2  14   0.0705   0.0716   0.1504   0.0239  -0.0230   0.0399   8.45    0.0
2278 416379.449   37.734257325 -122.139602333    -1.1169   2  12   0.0703   0.0714   0.1493   0.0244  -0.0207   0.0388   9.45    0.0
2278 416380.449   37.734475622 -122.139651264    -0.9289   2  13   0.0704   0.0713   0.1492   0.0245  -0.0198   0.0389  10.45    0.0
2278 416381.449   37.734694242 -122.139700173    -0.6125   2  14   0.0703   0.0711   0.1485   0.0247  -0.0179   0.0384  11.45    0.0
2278 416382.449   37.734913510 -122.139750567    -0.3349   2  14   0.0702   0.0711   0.1481   0.0248  -0.0170   0.0379  12.45    0.0
2278 416383.449   37.735133849 -122.139800702    -0.0305   2  13   0.0701   0.0710   0.1479   0.0249  -0.0166   0.0373  13.45    0.0
2278 416384.449   37.735356037 -122.139851297     0.3884   2  13   0.0700   0.0711   0.1479   0.0251  -0.0171   0.0368  14.45    0.0
2278 416385.449   37.735579512 -122.139904866     1.2168   2  12   0.0700   0.0710   0.1478   0.0250  -0.0165   0.0368 -14.55    0.0
2278 416386.449   37.735804251 -122.139957003     1.6528   2  15   0.0702   0.0712   0.1483   0.0247  -0.0175   0.0373 -13.55    0.0
2278 416387.449   37.736028892 -122.140011449     2.1260   2  14   0.0701   0.0711   0.1481   0.0246  -0.0169   0.0370 -12.55    0.0
2278 416388.449   37.736253301 -122.140071604     2.7168   2  14   0.0701   0.0713   0.1486   0.0242  -0.0184   0.0375 -11.55    0.0
2278 416389.449   37.736475990 -122.140143532     3.1890   2  13   0.0705   0.0723   0.1518   0.0223  -0.0268   0.0403 -10.55    0.0
2278 416390.449   37.736696661 -122.140227983     3.5466   2  16   0.0700   0.0718   0.1497   0.0238  -0.0225   0.0376  -9.55    0.0
2278 416391.449   37.736914388 -122.140326477     3.8652   2  16   0.0698   0.0716   0.1488   0.0244  -0.0206   0.0364  -8.55    0.0
2278 416392.449   37.737128416 -122.140440042     4.1904   2  14   0.0697   0.0715   0.1482   0.0248  -0.0191   0.0358  -7.55    0.0
2278 416393.449   37.737339239 -122.140565759     4.4461   2  17   0.0697   0.0714   0.1479   0.0249  -0.0180   0.0356  -6.55    0.0
2278 416394.449   37.737546928 -122.140703627     4.7052   2  15   0.0696   0.0713   0.1478   0.0246  -0.0175   0.0357  -5.55    0.0
2278 416395.449   37.737749452 -122.140854585     4.6734   2  16   0.0696   0.0715   0.1478   0.0251  -0.0162   0.0354  -4.55    0.0
2278 416396.449   37.737946516 -122.141018829     4.6108   2  17   0.0696   0.0713   0.1476   0.0251  -0.0159   0.0353  -3.55    0.0
2278 416397.449   37.738138104 -122.141195984     4.4727   2  14   0.0696   0.0715   0.1477   0.0253  -0.0164   0.0351  -2.55    0.0
2278 416398.449   37.738324895 -122.141384623     4.2098   2  14   0.0695   0.0713   0.1475   0.0252  -0.0157   0.0350  -1.55    0.0
2278 416399.449   37.738503917 -122.141585033     3.7814   2  14   0.0695   0.0713   0.1475   0.0252  -0.0157   0.0349  -0.55    0.0
2278 416400.449   37.738675166 -122.141794258     3.2472   2  14   0.0695   0.0712   0.1475   0.0250  -0.0156   0.0350   0.45    0.0
2278 416401.449   37.738843040 -122.142005250     2.5643   2  16   0.0694   0.0711   0.1475   0.0251  -0.0151   0.0348   1.45    0.0
2278 416402.449   37.739009934 -122.142216099     1.8202   2  16   0.0694   0.0710   0.1474   0.0250  -0.0144   0.0347   2.45    0.0
2278 416403.449   37.739179660 -122.142426253     0.9652   2  16   0.0694   0.0710   0.1473   0.0250  -0.0138   0.0346   3.45    0.0
2278 416404.449   37.739357408 -122.142637825     0.0141   2  16   0.0694   0.0710   0.1473   0.0250  -0.0137   0.0343   4.45    0.0
2278 416405.449   37.739541194 -122.142852916    -1.0182   2  16   0.0694   0.0710   0.1473   0.0250  -0.0134   0.0344   5.45    0.0
2278 416406.449   37.739726133 -122.143067573    -2.1269   2  17   0.0694   0.0710   0.1472   0.0251  -0.0135   0.0344   6.45    0.0
2278 416407.449   37.739912448 -122.143280370    -3.2873   2  16   0.0694   0.0710   0.1473   0.0252  -0.0134   0.0343   7.45    0.0
2278 416408.449   37.740101204 -122.143489724    -4.3532   2  18   0.0695   0.0710   0.1472   0.0253  -0.0124   0.0346   8.45    0.0
2278 416409.449   37.740295791 -122.143689387    -5.0846   2  17   0.0694   0.0710   0.1471   0.0253  -0.0118   0.0345   9.45    0.0
2278 416410.449   37.740497090 -122.143874955    -5.6309   2  13   0.0696   0.0715   0.1473   0.0260  -0.0130   0.0342  10.45    0.0
2278 416411.449   37.740702374 -122.144049043    -5.8052   2  13   0.0695   0.0713   0.1475   0.0257  -0.0137   0.0341  11.45    0.0
2278 416412.449   37.740909450 -122.144212388    -5.7383   2  14   0.0694   0.0712   0.1474   0.0255  -0.0138   0.0339  12.45    0.0
2278 416413.449   37.741116195 -122.144367685    -5.5465   2  12   0.0695   0.0712   0.1476   0.0255  -0.0138   0.0337  13.45    0.0
2278 416414.449   37.741320830 -122.144519842    -5.1828   2  13   0.0696   0.0712   0.1478   0.0254  -0.0138   0.0340  14.45    0.0
2278 416415.449   37.741525075 -122.144672411    -4.9018   2  16   0.0695   0.0711   0.1477   0.0254  -0.0131   0.0337 -14.55    0.0
2278 416416.449   37.741729056 -122.144824233    -4.5143   2  15   0.0694   0.0711   0.1475   0.0254  -0.0127   0.0338 -13.55    0.0
2278 416417.449   37.741933457 -122.144977370    -4.1193   2  15   0.0694   0.0712   0.1475   0.0257  -0.0131   0.0336 -12.55    0.0
2278 416418.449   37.742139916 -122.145135894    -3.7873   2  15   0.0696   0.0712   0.1477   0.0257  -0.0128   0.0337 -11.55    0.0
2278 416419.449   37.742348061 -122.145300193    -3.4501   2  13   0.0699   0.0724   0.1479   0.0276  -0.0164   0.0328 -10.55    0.0
2278 416420.449   37.742552271 -122.145475535    -3.3195   2  16   0.0697   0.0719   0.1481   0.0267  -0.0170   0.0328  -9.55    0.0
2278 416421.449   37.742747637 -122.145659254    -3.1717   2  13   0.0695   0.0718   0.1479   0.0265  -0.0165   0.0328  -8.55    0.0
2278 416422.449   37.742935640 -122.145852653    -3.0024   2  13   0.0695   0.0717   0.1478   0.0263  -0.0166   0.0329  -7.55    0.0
2278 416423.449   37.743117554 -122.146058154    -2.7460   2  14   0.0694   0.0716   0.1481   0.0258  -0.0173   0.0330  -6.55    0.0
2278 416424.449   37.743292949 -122.146275726    -2.3219   2  14   0.0695   0.0715   0.1483   0.0258  -0.0178   0.0326  -5.55    0.0
2278 416425.449   37.743462393 -122.146503425    -1.8511   2  15   0.0694   0.0717   0.1486   0.0253  -0.0197   0.0331  -4.55    0.0
2278 416426.449   37.743628065 -122.146734290    -1.4050   2  15   0.0693   0.0715   0.1482   0.0252  -0.0186   0.0328  -3.55    0.0
2278 416427.449   37.743789787 -122.146963407    -0.8329   2  15   0.0693   0.0715   0.1480   0.0252  -0.0176   0.0326  -2.55    0.0
2278 416428.449   37.743949604 -122.147186148    -0.1329   2  15   0.0693   0.0714   0.1479   0.0252  -0.0174   0.0326  -1.55    0.0
2278 416429.449   37.744105745 -122.147403695     0.6518   2  18   0.0692   0.0714   0.1478   0.0252  -0.0170   0.0325  -0.55    0.0
2278 416430.449   37.744259105 -122.147615164     1.4020   2  17   0.0692   0.0713   0.1477   0.0252  -0.0164   0.0326   0.45    0.0
2278 416431.449   37.744412262 -122.147819894     2.1256   2  17   0.0692   0.0713   0.1477   0.0251  -0.0162   0.0327   1.45    0.0
2278 416432.449   37.744569115 -122.148015027     3.0226   2  15   0.0692   0.0713   0.1477   0.0251  -0.0164   0.0327   2.45    0.0
2278 416433.449   37.744730568 -122.148200884     3.9102   2  13   0.0694   0.0714   0.1481   0.0249  -0.0171   0.0333   3.45    0.0
2278 416434.449   37.744897338 -122.148377300     4.7239   2  17   0.0697   0.0716   0.1487   0.0248  -0.0185   0.0344   4.45    0.0
2278 416435.449   37.745071769 -122.148546111     5.3425   2  16   0.0695   0.0717   0.1489   0.0249  -0.0195   0.0339   5.45    0.0
2278 416436.449   37.745254878 -122.148708277     5.8899   2  17   0.0696   0.0717   0.1486   0.0250  -0.0183   0.0338   6.45    0.0
2278 416437.449   37.745446514 -122.148863034     6.4491   2  16   0.0695   0.0715   0.1483   0.0242  -0.0181   0.0331   7.45    0.0
2278 416438.449   37.745642503 -122.149007399     6.8989   2  18   0.0695   0.0715   0.1481   0.0245  -0.0176   0.0329   8.45    0.0
2278 416439.449   37.745839959 -122.149137781     7.2120   2  17   0.0694   0.0715   0.1480   0.0246  -0.0164   0.0332   9.45    0.0
2278 416440.449   37.746039367 -122.149256488     7.5136   2  17   0.0693   0.0714   0.1479   0.0245  -0.0165   0.0331  10.45    0.0
2278 416441.449   37.746242891 -122.149367042     7.8388   2  14   0.0693   0.0715   0.1481   0.0246  -0.0175   0.0330  11.45    0.0
2278 416442.449   37.746449672 -122.149471596     8.3717   2  16   0.0693   0.0716   0.1480   0.0250  -0.0169   0.0328  12.45    0.0
2278 416443.449   37.746659165 -122.149572568     8.6637   2  15   0.0693   0.0716   0.1480   0.0248  -0.0168   0.0327  13.45    0.0
2278 416444.449   37.746870217 -122.149675563     8.7640   2  14   0.0697   0.0717   0.1482   0.0254  -0.0180   0.0318  14.45    0.0
2278 416445.449   37.747082997 -122.149780276     8.9327   2  12   0.0696   0.0719   0.1483   0.0254  -0.0182   0.0322 -14.55    0.0
2278 416446.449   37.747297426 -122.149885399     9.0733   2  13   0.0700   0.0720   0.1483   0.0262  -0.0182   0.0316 -13.55    0.0
2278 416447.449   37.747512286 -122.149989683     9.2527   2  14   0.0697   0.0720   0.1485   0.0257  -0.0185   0.0321 -12.55    0.0
2278 416448.449   37.747725664 -122.150093673     9.5308   2  12   0.0696   0.0719   0.1485   0.0257  -0.0180   0.0323 -11.55    0.0
2278 416449.449   37.747939121 -122.150198041     9.8911   2  13   0.0696   0.0720   0.1484   0.0257  -0.0178   0.0323 -10.55    0.0
2278 416450.449   37.748154027 -122.150303039    10.3680   2  13   0.0695   0.0718   0.1486   0.0252  -0.0183   0.0326  -9.55    0.0
2278 416451.449   37.748370343 -122.150408359    10.9160   2  14   0.0695   0.0718   0.1486   0.0254  -0.0179   0.0322  -8.55    0.0
2278 416452.449   37.748587498 -122.150513826    11.5476   2  15   0.0694   0.0717   0.1484   0.0253  -0.0172   0.0322  -7.55    0.0
2278 416453.449   37.748802520 -122.150618785    12.2393   2  14   0.0694   0.0717   0.1484   0.0254  -0.0169   0.0321  -6.55    0.0
2278 416454.449   37.749012773 -122.150721179    12.9354   2  12   0.0694   0.0718   0.1484   0.0255  -0.0168   0.0320  -5.55    0.0
2278 416455.449   37.749218959 -122.150821675    13.6389   2  13   0.0694   0.0719   0.1485   0.0258  -0.0171   0.0319  -4.55    0.0
2278 416456.449   37.749423972 -122.150922652    14.3263   2  15   0.0697   0.0717   0.1485   0.0257  -0.0170   0.0316  -3.55    0.0
2278 416457.449   37.749628709 -122.151023523    15.0311   2  12   0.0695   0.0718   0.1485   0.0256  -0.0167   0.0318  -2.55    0.0
2278 416458.449   37.749833610 -122.151122992    15.6393   2  12   0.0694   0.0719   0.1484   0.0257  -0.0168   0.0319  -1.55    0.0
2278 416459.449   37.750035980 -122.151221415    16.0912   2  14   0.0698   0.0719   0.1487   0.0258  -0.0172   0.0316  -0.55    0.0
2278 416460.449   37.750235139 -122.151315737    16.4162   2  13   0.0695   0.0717   0.1486   0.0255  -0.0167   0.0318   0.45    0.0
2278 416461.449   37.750431704 -122.151403151    16.7117   2  13   0.0694   0.0717   0.1486   0.0251  -0.0166   0.0318   1.45    0.0
2278 416462.449   37.750627025 -122.151477007    17.1824   2  13   0.0694   0.0716   0.1487   0.0250  -0.0168   0.0320   2.45    0.0
2278 416463.449   37.750821719 -122.151528942    17.6341   2  10   0.0697   0.0718   0.1498   0.0247  -0.0192   0.0339   3.45    0.0
2278 416464.449   37.751014241 -122.151563329    18.0717   2  10   0.0724   0.0725   0.1555   0.0207  -0.0283   0.0433   4.45    0.0
2278 416465.449   37.751204385 -122.151584353    18.4654   2  13   0.0721   0.0727   0.1566   0.0198  -0.0302   0.0443   5.45    0.0
2278 416466.449   37.751390896 -122.151596233    18.6703   2  13   0.0714   0.0722   0.1539   0.0223  -0.0250   0.0410   6.45    0.0
2278 416467.449   37.751573797 -122.151600977    18.9122   2   9   0.0713   0.0726   0.1548   0.0212  -0.0280   0.0415   7.45    0.0
