$GPGGA,193328.45,3741.5324620,N,12205.3039340,W,1,0,0.0,21.0773,M,0.0000,M,0.0000,0000*5c
$GPRMC,193328.45,A,3741.5324620,N,12205.3039340,W,0.0019,288.2669,070923,,,,A*62
$GPGGA,193329.45,3741.5324620,N,12205.3039340,W,1,0,0.0,21.0774,M,0.0000,M,0.0000,0000*5a
$GPRMC,193329.45,A,3741.5324620,N,12205.3039340,W,0.0021,288.2674,070923,,,,A*64
$GPGGA,193330.45,3741.5324620,N,12205.3039340,W,1,0,0.0,21.0774,M,0.0000,M,0.0000,0000*52
$GPRMC,193330.45,A,3741.5324620,N,12205.3039340,W,0.0044,288.2682,070923,,,,A*66
$GPGGA,193331.45,3741.5324620,N,12205.3039340,W,1,0,0.0,21.0773,M,0.0000,M,0.0000,0000*54
$GPRMC,193331.45,A,3741.5324620,N,12205.3039340,W,0.0051,288.2673,070923,,,,A*6d
$GPGGA,193332.45,3741.5324620,N,12205.3039340,W,1,0,0.0,21.0774,M,0.0000,M,0.0000,0000*50
$GPRMC,193332.45,A,3741.5324620,N,12205.3039340,W,0.0010,288.2672,070923,,,,A*6a
$GPGGA,193333.45,3741.5324620,N,12205.3039400,W,1,0,0.0,21.0774,M,0.0000,M,0.0000,0000*52
$GPRMC,193333.45,A,3741.5324620,N,12205.3039400,W,0.0024,288.2677,070923,,,,A*6a
$GPGGA,193334.45,3741.5324620,N,12205.3039400,W,1,0,0.0,21.0774,M,0.0000,M,0.0000,0000*55
$GPRMC,193334.45,A,3741.5324620,N,12205.3039400,W,0.0030,288.2674,070923,,,,A*6b
$GPGGA,193335.45,3741.5324620,N,12205.3039400,W,1,0,0.0,21.0783,M,0.0000,M,0.0000,0000*5c
$GPRMC,193335.45,A,3741.5324620,N,12205.3039400,W,0.0000,288.2658,070923,,,,A*67
$GPGGA,193336.45,3741.5324620,N,12205.3039400,W,1,0,0.0,21.0784,M,0.0000,M,0.0000,0000*58
$GPRMC,193336.45,A,3741.5324620,N,12205.3039400,W,0.0027,288.2658,070923,,,,A*61
$GPGGA,193337.45,3741.5324560,N,12205.3039100,W,1,0,0.0,21.0808,M,0.0000,M,0.0000,0000*50
$GPRMC,193337.45,A,3741.5324560,N,12205.3039100,W,0.2522,288.2738,070923,,,,A*67
$GPGGA,193338.45,3741.5324200,N,12205.3037480,W,1,0,0.0,21.0908,M,0.0000,M,0.0000,0000*5c
$GPRMC,193338.45,A,3741.5324200,N,12205.3037480,W,0.7502,288.4343,070923,,,,A*63
$GPGGA,193339.45,3741.5323600,N,12205.3033700,W,1,0,0.0,21.1083,M,0.0000,M,0.0000,0000*5a
$GPRMC,193339.45,A,3741.5323600,N,12205.3033700,W,1.3468,290.6745,070923,,,,A*6f
$GPGGA,193340.45,3741.5323420,N,12205.3027460,W,1,0,0.0,21.1313,M,0.0000,M,0.0000,0000*5e
$GPRMC,193340.45,A,3741.5323420,N,12205.3027460,W,1.7862,300.3566,070923,,,,A*6d
$GPGGA,193341.45,3741.5322160,N,12205.3020080,W,1,0,0.0,21.1518,M,0.0000,M,0.0000,0000*5f
$GPRMC,193341.45,A,3741.5322160,N,12205.3020080,W,1.5102,312.4879,070923,,,,A*6b
$GPGGA,193342.45,3741.5321500,N,12205.3018220,W,1,0,0.0,21.1614,M,0.0000,M,0.0000,0000*51
$GPRMC,193342.45,A,3741.5321500,N,12205.3018220,W,0.0515,315.6761,070923,,,,A*6f
$GPGGA,193343.45,3741.5321560,N,12205.3018160,W,1,0,0.0,21.1569,M,0.0000,M,0.0000,0000*58
$GPRMC,193343.45,A,3741.5321560,N,12205.3018160,W,0.0251,315.8369,070923,,,,A*6a
$GPGGA,193344.45,3741.5323180,N,12205.3020020,W,1,0,0.0,21.1404,M,0.0000,M,0.0000,0000*53
$GPRMC,193344.45,A,3741.5323180,N,12205.3020020,W,1.8371,316.5148,070923,,,,A*6e
$GPGGA,193345.45,3741.5330140,N,12205.3026500,W,1,0,0.0,21.0954,M,0.0000,M,0.0000,0000*54
$GPRMC,193345.45,A,3741.5330140,N,12205.3026500,W,4.4919,320.5116,070923,,,,A*63
$GPGGA,193346.45,3741.5343940,N,12205.3036640,W,1,0,0.0,21.0115,M,0.0000,M,0.0000,0000*50
$GPRMC,193346.45,A,3741.5343940,N,12205.3036640,W,7.0901,328.1559,070923,,,,A*67
$GPGGA,193347.45,3741.5365060,N,12205.3047080,W,1,0,0.0,20.8934,M,0.0000,M,0.0000,0000*50
$GPRMC,193347.45,A,3741.5365060,N,12205.3047080,W,9.4285,338.8702,070923,,,,A*6c
$GPGGA,193348.45,3741.5392060,N,12205.3054040,W,1,0,0.0,20.8399,M,0.0000,M,0.0000,0000*54
$GPRMC,193348.45,A,3741.5392060,N,12205.3054040,W,10.1847,349.1796,070923,,,,A*5e
$GPGGA,193349.45,3741.5421340,N,12205.3059500,W,1,0,0.0,20.7384,M,0.0000,M,0.0000,0000*54
$GPRMC,193349.45,A,3741.5421340,N,12205.3059500,W,11.5684,351.0987,070923,,,,A*5f
$GPGGA,193350.45,3741.5455480,N,12205.3069460,W,1,0,0.0,20.6000,M,0.0000,M,0.0000,0000*5e
$GPRMC,193350.45,A,3741.5455480,N,12205.3069460,W,13.5476,344.8713,070923,,,,A*59
$GPGGA,193351.45,3741.5492800,N,12205.3088000,W,1,0,0.0,20.4161,M,0.0000,M,0.0000,0000*59
$GPRMC,193351.45,A,3741.5492800,N,12205.3088000,W,14.7654,336.6547,070923,,,,A*55
$GPGGA,193352.45,3741.5530240,N,12205.3111100,W,1,0,0.0,20.2221,M,0.0000,M,0.0000,0000*5c
$GPRMC,193352.45,A,3741.5530240,N,12205.3111100,W,15.1704,332.7332,070923,,,,A*53
$GPGGA,193353.45,3741.5567320,N,12205.3136780,W,1,0,0.0,20.0262,M,0.0000,M,0.0000,0000*56
$GPRMC,193353.45,A,3741.5567320,N,12205.3136780,W,15.2488,330.6725,070923,,,,A*59
$GPGGA,193354.45,3741.5604160,N,12205.3163480,W,1,0,0.0,19.8710,M,0.0000,M,0.0000,0000*50
$GPRMC,193354.45,A,3741.5604160,N,12205.3163480,W,15.2885,329.7572,070923,,,,A*55
$GPGGA,193355.45,3741.5640760,N,12205.3190720,W,1,0,0.0,19.6992,M,0.0000,M,0.0000,0000*58
$GPRMC,193355.45,A,3741.5640760,N,12205.3190720,W,15.3009,329.1783,070923,,,,A*50
$GPGGA,193356.45,3741.5676280,N,12205.3217420,W,1,0,0.0,19.5406,M,0.0000,M,0.0000,0000*59
$GPRMC,193356.45,A,3741.5676280,N,12205.3217420,W,14.0782,328.8909,070923,,,,A*50
$GPGGA,193357.45,3741.5707720,N,12205.3240340,W,1,0,0.0,19.4010,M,0.0000,M,0.0000,0000*51
$GPRMC,193357.45,A,3741.5707720,N,12205.3240340,W,12.0725,330.5003,070923,,,,A*56
$GPGGA,193358.45,3741.5735920,N,12205.3256960,W,1,0,0.0,19.3020,M,0.0000,M,0.0000,0000*5a
$GPRMC,193358.45,A,3741.5735920,N,12205.3256960,W,10.4880,336.2530,070923,,,,A*5b
$GPGGA,193359.45,3741.5762560,N,12205.3263140,W,1,0,0.0,19.1939,M,0.0000,M,0.0000,0000*5e
$GPRMC,193359.45,A,3741.5762560,N,12205.3263140,W,9.5792,352.1747,070923,,,,A*6a
$GPGGA,193400.45,3741.5788300,N,12205.3262840,W,1,0,0.0,19.1475,M,0.0000,M,0.0000,0000*5c
$GPRMC,193400.45,A,3741.5788300,N,12205.3262840,W,8.7935,359.5523,070923,,,,A*62
$GPGGA,193401.45,3741.5810020,N,12205.3264460,W,1,0,0.0,19.0694,M,0.0000,M,0.0000,0000*56
$GPRMC,193401.45,A,3741.5810020,N,12205.3264460,W,6.6641,356.3419,070923,,,,A*66
$GPGGA,193402.45,3741.5825200,N,12205.3267340,W,1,0,0.0,19.0318,M,0.0000,M,0.0000,0000*54
$GPRMC,193402.45,A,3741.5825200,N,12205.3267340,W,4.2933,352.1865,070923,,,,A*68
$GPGGA,193403.45,3741.5834560,N,12205.3270160,W,1,0,0.0,19.0164,M,0.0000,M,0.0000,0000*5b
$GPRMC,193403.45,A,3741.5834560,N,12205.3270160,W,2.6458,349.2467,070923,,,,A*6b
$GPGGA,193404.45,3741.5839180,N,12205.3271600,W,1,0,0.0,19.0079,M,0.0000,M,0.0000,0000*56
$GPRMC,193404.45,A,3741.5839180,N,12205.3271600,W,0.7067,347.8299,070923,,,,A*63
$GPGGA,193405.45,3741.5840560,N,12205.3272080,W,1,0,0.0,18.9969,M,0.0000,M,0.0000,0000*5e
$GPRMC,193405.45,A,3741.5840560,N,12205.3272080,W,0.3669,347.3611,070923,,,,A*68
$GPGGA,193406.45,3741.5840860,N,12205.3272140,W,1,0,0.0,18.9913,M,0.0000,M,0.0000,0000*50
$GPRMC,193406.45,A,3741.5840860,N,12205.3272140,W,0.0468,347.2536,070923,,,,A*6c
$GPGGA,193407.45,3741.5841040,N,12205.3272260,W,1,0,0.0,18.9859,M,0.0000,M,0.0000,0000*54
$GPRMC,193407.45,A,3741.5841040,N,12205.3272260,W,0.2754,347.1761,070923,,,,A*6a
$GPGGA,193408.45,3741.5844100,N,12205.3273340,W,1,0,0.0,18.9569,M,0.0000,M,0.0000,0000*57
$GPRMC,193408.45,A,3741.5844100,N,12205.3273340,W,1.9526,346.2769,070923,,,,A*60
$GPGGA,193409.45,3741.5851060,N,12205.3276280,W,1,0,0.0,18.8331,M,0.0000,M,0.0000,0000*57
$GPRMC,193409.45,A,3741.5851060,N,12205.3276280,W,3.4498,344.3258,070923,,,,A*65
$GPGGA,193410.45,3741.5860360,N,12205.3280480,W,1,0,0.0,18.7234,M,0.0000,M,0.0000,0000*5a
$GPRMC,193410.45,A,3741.5860360,N,12205.3280480,W,3.3458,340.9160,070923,,,,A*6e
$GPGGA,193411.45,3741.5868760,N,12205.3285340,W,1,0,0.0,18.5309,M,0.0000,M,0.0000,0000*54
$GPRMC,193411.45,A,3741.5868760,N,12205.3285340,W,3.3219,337.3900,070923,,,,A*6a
$GPGGA,193412.45,3741.5876380,N,12205.3290740,W,1,0,0.0,18.6263,M,0.0000,M,0.0000,0000*5c
$GPRMC,193412.45,A,3741.5876380,N,12205.3290740,W,3.2156,333.0794,070923,,,,A*61
$GPGGA,193413.45,3741.5883760,N,12205.3299380,W,1,0,0.0,18.7307,M,0.0000,M,0.0000,0000*5e
$GPRMC,193413.45,A,3741.5883760,N,12205.3299380,W,3.4926,322.4361,070923,,,,A*62
$GPGGA,193414.45,3741.5888800,N,12205.3310240,W,1,0,0.0,18.8322,M,0.0000,M,0.0000,0000*5e
$GPRMC,193414.45,A,3741.5888800,N,12205.3310240,W,3.0981,308.2358,070923,,,,A*67
$GPGGA,193415.45,3741.5890840,N,12205.3319720,W,1,0,0.0,18.9053,M,0.0000,M,0.0000,0000*5c
$GPRMC,193415.45,A,3741.5890840,N,12205.3319720,W,2.2204,296.5140,070923,,,,A*6e
$GPGGA,193416.45,3741.5892160,N,12205.3329860,W,1,0,0.0,18.9283,M,0.0000,M,0.0000,0000*51
$GPRMC,193416.45,A,3741.5892160,N,12205.3329860,W,4.0062,286.9449,070923,,,,A*6b
$GPGGA,193417.45,3741.5894200,N,12205.3349720,W,1,0,0.0,18.9618,M,0.0000,M,0.0000,0000*58
$GPRMC,193417.45,A,3741.5894200,N,12205.3349720,W,7.0401,279.7262,070923,,,,A*67
$GPGGA,193418.45,3741.5896480,N,12205.3377800,W,1,0,0.0,19.0253,M,0.0000,M,0.0000,0000*58
$GPRMC,193418.45,A,3741.5896480,N,12205.3377800,W,8.6208,275.2045,070923,,,,A*6c
$GPGGA,193419.45,3741.5896000,N,12205.3408100,W,1,0,0.0,19.0768,M,0.0000,M,0.0000,0000*5e
$GPRMC,193419.45,A,3741.5896000,N,12205.3408100,W,8.3901,268.2164,070923,,,,A*6e
$GPGGA,193420.45,3741.5892700,N,12205.3437680,W,1,0,0.0,19.1033,M,0.0000,M,0.0000,0000*5c
$GPRMC,193420.45,A,3741.5892700,N,12205.3437680,W,8.7262,261.4305,070923,,,,A*64
$GPGGA,193421.45,3741.5886580,N,12205.3467020,W,1,0,0.0,19.1403,M,0.0000,M,0.0000,0000*5c
$GPRMC,193421.45,A,3741.5886580,N,12205.3467020,W,8.3977,254.6740,070923,,,,A*69
$GPGGA,193422.45,3741.5878480,N,12205.3493420,W,1,0,0.0,19.1928,M,0.0000,M,0.0000,0000*54
$GPRMC,193422.45,A,3741.5878480,N,12205.3493420,W,7.2629,248.6240,070923,,,,A*67
$GPGGA,193423.45,3741.5871340,N,12205.3512860,W,1,0,0.0,19.2318,M,0.0000,M,0.0000,0000*5d
$GPRMC,193423.45,A,3741.5871340,N,12205.3512860,W,4.9759,245.6364,070923,,,,A*60
$GPGGA,193424.45,3741.5866240,N,12205.3525700,W,1,0,0.0,19.2598,M,0.0000,M,0.0000,0000*5e
$GPRMC,193424.45,A,3741.5866240,N,12205.3525700,W,3.2646,244.0255,070923,,,,A*6a
$GPGGA,193425.45,3741.5862700,N,12205.3534100,W,1,0,0.0,19.2813,M,0.0000,M,0.0000,0000*52
$GPRMC,193425.45,A,3741.5862700,N,12205.3534100,W,2.3169,242.9381,070923,,,,A*65
$GPGGA,193426.45,3741.5860360,N,12205.3539800,W,1,0,0.0,19.2978,M,0.0000,M,0.0000,0000*59
$GPRMC,193426.45,A,3741.5860360,N,12205.3539800,W,1.3167,242.6216,070923,,,,A*6f
$GPGGA,193427.45,3741.5859280,N,12205.3542320,W,1,0,0.0,19.3008,M,0.0000,M,0.0000,0000*57
$GPRMC,193427.45,A,3741.5859280,N,12205.3542320,W,0.5299,242.6339,070923,,,,A*67
$GPGGA,193428.45,3741.5858740,N,12205.3543640,W,1,0,0.0,19.3043,M,0.0000,M,0.0000,0000*5d
$GPRMC,193428.45,A,3741.5858740,N,12205.3543640,W,0.2290,242.6459,070923,,,,A*6d
$GPGGA,193429.45,3741.5858620,N,12205.3544000,W,1,0,0.0,19.3034,M,0.0000,M,0.0000,0000*5e
$GPRMC,193429.45,A,3741.5858620,N,12205.3544000,W,0.0183,242.6514,070923,,,,A*65
$GPGGA,193430.45,3741.5858620,N,12205.3544000,W,1,0,0.0,19.3023,M,0.0000,M,0.0000,0000*50
$GPRMC,193430.45,A,3741.5858620,N,12205.3544000,W,0.0033,242.6518,070923,,,,A*6b
$GPGGA,193431.45,3741.5858620,N,12205.3544000,W,1,0,0.0,19.3013,M,0.0000,M,0.0000,0000*52
$GPRMC,193431.45,A,3741.5858620,N,12205.3544000,W,0.0031,242.6490,070923,,,,A*69
$GPGGA,193432.45,3741.5858620,N,12205.3544000,W,1,0,0.0,19.3013,M,0.0000,M,0.0000,0000*51
$GPRMC,193432.45,A,3741.5858620,N,12205.3544000,W,0.0009,242.6489,070923,,,,A*69
$GPGGA,193433.45,3741.5858620,N,12205.3544000,W,1,0,0.0,19.3013,M,0.0000,M,0.0000,0000*50
$GPRMC,193433.45,A,3741.5858620,N,12205.3544000,W,0.0000,242.6489,070923,,,,A*61
$GPGGA,193434.45,3741.5858620,N,12205.3544000,W,1,0,0.0,19.3014,M,0.0000,M,0.0000,0000*50
$GPRMC,193434.45,A,3741.5858620,N,12205.3544000,W,0.0000,242.6488,070923,,,,A*67
$GPGGA,193435.45,3741.5858620,N,12205.3544000,W,1,0,0.0,19.3013,M,0.0000,M,0.0000,0000*56
$GPRMC,193435.45,A,3741.5858620,N,12205.3544000,W,0.0000,242.6485,070923,,,,A*6b
$GPGGA,193436.45,3741.5858620,N,12205.3544000,W,1,0,0.0,19.3013,M,0.0000,M,0.0000,0000*55
$GPRMC,193436.45,A,3741.5858620,N,12205.3544000,W,0.0010,242.6484,070923,,,,A*68
$GPGGA,193437.45,3741.5858620,N,12205.3544000,W,1,0,0.0,19.3013,M,0.0000,M,0.0000,0000*54
$GPRMC,193437.45,A,3741.5858620,N,12205.3544000,W,0.0000,242.6484,070923,,,,A*68
$GPGGA,193438.45,3741.5858620,N,12205.3544000,W,1,0,0.0,19.3014,M,0.0000,M,0.0000,0000*5c
$GPRMC,193438.45,A,3741.5858620,N,12205.3544000,W,0.0000,242.6484,070923,,,,A*67
$GPGGA,193439.45,3741.5858620,N,12205.3544000,W,1,0,0.0,19.3014,M,0.0000,M,0.0000,0000*5d
$GPRMC,193439.45,A,3741.5858620,N,12205.3544000,W,0.0000,242.6481,070923,,,,A*63
$GPGGA,193440.45,3741.5858620,N,12205.3544000,W,1,0,0.0,19.3013,M,0.0000,M,0.0000,0000*54
$GPRMC,193440.45,A,3741.5858620,N,12205.3544000,W,0.0000,242.6482,070923,,,,A*6e
$GPGGA,193441.45,3741.5858620,N,12205.3544000,W,1,0,0.0,19.3013,M,0.0000,M,0.0000,0000*55
$GPRMC,193441.45,A,3741.5858620,N,12205.3544000,W,0.0000,242.6482,070923,,,,A*6f
$GPGGA,193442.45,3741.5858620,N,12205.3544000,W,1,0,0.0,19.3013,M,0.0000,M,0.0000,0000*56
$GPRMC,193442.45,A,3741.5858620,N,12205.3544000,W,0.0000,242.6479,070923,,,,A*68
$GPGGA,193443.45,3741.5858620,N,12205.3544000,W,1,0,0.0,19.3013,M,0.0000,M,0.0000,0000*57
$GPRMC,193443.45,A,3741.5858620,N,12205.3544000,W,0.0013,242.6478,070923,,,,A*6a
$GPGGA,193444.45,3741.5858620,N,12205.3544000,W,1,0,0.0,19.3013,M,0.0000,M,0.0000,0000*50
$GPRMC,193444.45,A,3741.5858620,N,12205.3544000,W,0.0010,242.6478,070923,,,,A*6e
$GPGGA,193445.45,3741.5858620,N,12205.3544000,W,1,0,0.0,19.3013,M,0.0000,M,0.0000,0000*51
$GPRMC,193445.45,A,3741.5858620,N,12205.3544000,W,0.0060,242.6476,070923,,,,A*66
$GPGGA,193446.45,3741.5858380,N,12205.3544660,W,1,0,0.0,19.2983,M,0.0000,M,0.0000,0000*5c
$GPRMC,193446.45,A,3741.5858380,N,12205.3544660,W,0.7216,242.6591,070923,,,,A*66
$GPGGA,193447.45,3741.5856640,N,12205.3548860,W,1,0,0.0,19.3103,M,0.0000,M,0.0000,0000*59
$GPRMC,193447.45,A,3741.5856640,N,12205.3548860,W,1.9300,242.6886,070923,,,,A*60
$GPGGA,193448.45,3741.5853040,N,12205.3557800,W,1,0,0.0,19.3263,M,0.0000,M,0.0000,0000*58
$GPRMC,193448.45,A,3741.5853040,N,12205.3557800,W,4.0765,242.7870,070923,,,,A*67
$GPGGA,193449.45,3741.5846500,N,12205.3574120,W,1,0,0.0,19.3643,M,0.0000,M,0.0000,0000*50
$GPRMC,193449.45,A,3741.5846500,N,12205.3574120,W,6.3831,242.9371,070923,,,,A*62
$GPGGA,193450.45,3741.5837020,N,12205.3597760,W,1,0,0.0,19.4262,M,0.0000,M,0.0000,0000*56
$GPRMC,193450.45,A,3741.5837020,N,12205.3597760,W,8.6318,243.1366,070923,,,,A*60
$GPGGA,193451.45,3741.5825560,N,12205.3626740,W,1,0,0.0,19.5037,M,0.0000,M,0.0000,0000*5d
$GPRMC,193451.45,A,3741.5825560,N,12205.3626740,W,10.2416,243.5046,070923,,,,A*59
$GPGGA,193452.45,3741.5811940,N,12205.3662680,W,1,0,0.0,19.6386,M,0.0000,M,0.0000,0000*50
$GPRMC,193452.45,A,3741.5811940,N,12205.3662680,W,12.5507,244.5928,070923,,,,A*5c
$GPGGA,193453.45,3741.5796880,N,12205.3706300,W,1,0,0.0,19.8127,M,0.0000,M,0.0000,0000*55
$GPRMC,193453.45,A,3741.5796880,N,12205.3706300,W,14.4239,246.7972,070923,,,,A*5c
$GPGGA,193454.45,3741.5781880,N,12205.3754120,W,1,0,0.0,19.9447,M,0.0000,M,0.0000,0000*51
$GPRMC,193454.45,A,3741.5781880,N,12205.3754120,W,15.3835,248.3794,070923,,,,A*56
$GPGGA,193455.45,3741.5764960,N,12205.3807340,W,1,0,0.0,20.1699,M,0.0000,M,0.0000,0000*5a
$GPRMC,193455.45,A,3741.5764960,N,12205.3807340,W,17.3331,247.9545,070923,,,,A*58
$GPGGA,193456.45,3741.5743840,N,12205.3865840,W,1,0,0.0,20.4280,M,0.0000,M,0.0000,0000*59
$GPRMC,193456.45,A,3741.5743840,N,12205.3865840,W,19.4420,244.5135,070923,,,,A*50
$GPGGA,193457.45,3741.5718220,N,12205.3930400,W,1,0,0.0,20.6925,M,0.0000,M,0.0000,0000*55
$GPRMC,193457.45,A,3741.5718220,N,12205.3930400,W,21.9646,243.3131,070923,,,,A*5b
$GPGGA,193458.45,3741.5690020,N,12205.4004500,W,1,0,0.0,21.0718,M,0.0000,M,0.0000,0000*56
$GPRMC,193458.45,A,3741.5690020,N,12205.4004500,W,25.0096,244.7349,070923,,,,A*57
$GPGGA,193459.45,3741.5658580,N,12205.4088200,W,1,0,0.0,21.6235,M,0.0000,M,0.0000,0000*53
$GPRMC,193459.45,A,3741.5658580,N,12205.4088200,W,27.8327,244.0408,070923,,,,A*58
$GPGGA,193500.45,3741.5621080,N,12205.4178680,W,1,0,0.0,22.2865,M,0.0000,M,0.0000,0000*5f
$GPRMC,193500.45,A,3741.5621080,N,12205.4178680,W,30.4149,241.4275,070923,,,,A*51
$GPGGA,193501.45,3741.5578120,N,12205.4274620,W,1,0,0.0,22.8927,M,0.0000,M,0.0000,0000*52
$GPRMC,193501.45,A,3741.5578120,N,12205.4274620,W,32.3340,239.9959,070923,,,,A*58
$GPGGA,193502.45,3741.5531560,N,12205.4373740,W,1,0,0.0,23.4642,M,0.0000,M,0.0000,0000*5c
$GPRMC,193502.45,A,3741.5531560,N,12205.4373740,W,33.3775,238.9053,070923,,,,A*56
$GPGGA,193503.45,3741.5483020,N,12205.4472560,W,1,0,0.0,24.0017,M,0.0000,M,0.0000,0000*57
$GPRMC,193503.45,A,3741.5483020,N,12205.4472560,W,32.7799,237.6607,070923,,,,A*58
$GPGGA,193504.45,3741.5434300,N,12205.4567300,W,1,0,0.0,24.5338,M,0.0000,M,0.0000,0000*53
$GPRMC,193504.45,A,3741.5434300,N,12205.4567300,W,31.6398,236.2211,070923,,,,A*56
$GPGGA,193505.45,3741.5384440,N,12205.4658200,W,1,0,0.0,25.1047,M,0.0000,M,0.0000,0000*5d
$GPRMC,193505.45,A,3741.5384440,N,12205.4658200,W,31.7286,235.2638,070923,,,,A*55
$GPGGA,193506.45,3741.5333560,N,12205.4750540,W,1,0,0.0,25.5827,M,0.0000,M,0.0000,0000*51
$GPRMC,193506.45,A,3741.5333560,N,12205.4750540,W,32.5303,234.8805,070923,,,,A*55
$GPGGA,193507.45,3741.5280280,N,12205.4844740,W,1,0,0.0,25.9016,M,0.0000,M,0.0000,0000*5e
$GPRMC,193507.45,A,3741.5280280,N,12205.4844740,W,33.5657,234.4455,070923,,,,A*5c
$GPGGA,193508.45,3741.5225020,N,12205.4941700,W,1,0,0.0,26.0936,M,0.0000,M,0.0000,0000*57
$GPRMC,193508.45,A,3741.5225020,N,12205.4941700,W,34.5856,233.9864,070923,,,,A*58
$GPGGA,193509.45,3741.5167420,N,12205.5040520,W,1,0,0.0,26.2383,M,0.0000,M,0.0000,0000*58
$GPRMC,193509.45,A,3741.5167420,N,12205.5040520,W,35.4096,233.5335,070923,,,,A*56
$GPGGA,193510.45,3741.5108140,N,12205.5141080,W,1,0,0.0,26.3887,M,0.0000,M,0.0000,0000*5b
$GPRMC,193510.45,A,3741.5108140,N,12205.5141080,W,36.1377,233.2735,070923,,,,A*52
$GPGGA,193511.45,3741.5047600,N,12205.5243740,W,1,0,0.0,26.3959,M,0.0000,M,0.0000,0000*5b
$GPRMC,193511.45,A,3741.5047600,N,12205.5243740,W,37.0035,233.5253,070923,,,,A*57
$GPGGA,193512.45,3741.4986340,N,12205.5349820,W,1,0,0.0,26.1332,M,0.0000,M,0.0000,0000*5b
$GPRMC,193512.45,A,3741.4986340,N,12205.5349820,W,37.8655,234.3528,070923,,,,A*50
$GPGGA,193513.45,3741.4925620,N,12205.5458180,W,1,0,0.0,25.7521,M,0.0000,M,0.0000,0000*55
$GPRMC,193513.45,A,3741.4925620,N,12205.5458180,W,37.8644,235.0877,070923,,,,A*5a
$GPGGA,193514.45,3741.4865680,N,12205.5567080,W,1,0,0.0,25.0550,M,0.0000,M,0.0000,0000*50
$GPRMC,193514.45,A,3741.4865680,N,12205.5567080,W,37.8782,235.6366,070923,,,,A*58
$GPGGA,193515.45,3741.4806640,N,12205.5678740,W,1,0,0.0,24.0981,M,0.0000,M,0.0000,0000*5f
$GPRMC,193515.45,A,3741.4806640,N,12205.5678740,W,38.9732,236.6073,070923,,,,A*57
$GPGGA,193516.45,3741.4747540,N,12205.5795500,W,1,0,0.0,23.4658,M,0.0000,M,0.0000,0000*59
$GPRMC,193516.45,A,3741.4747540,N,12205.5795500,W,40.2010,238.2122,070923,,,,A*55
$GPGGA,193517.45,3741.4690240,N,12205.5918020,W,1,0,0.0,23.2462,M,0.0000,M,0.0000,0000*55
$GPRMC,193517.45,A,3741.4690240,N,12205.5918020,W,40.9132,240.9443,070923,,,,A*58
$GPGGA,193518.45,3741.4640440,N,12205.6045460,W,1,0,0.0,23.5270,M,0.0000,M,0.0000,0000*51
$GPRMC,193518.45,A,3741.4640440,N,12205.6045460,W,40.2627,246.1280,070923,,,,A*51
$GPGGA,193519.45,3741.4599820,N,12205.6175660,W,1,0,0.0,23.6667,M,0.0000,M,0.0000,0000*5c
$GPRMC,193519.45,A,3741.4599820,N,12205.6175660,W,39.9323,250.4255,070923,,,,A*53
$GPGGA,193520.45,3741.4566880,N,12205.6309340,W,1,0,0.0,23.7809,M,0.0000,M,0.0000,0000*55
$GPRMC,193520.45,A,3741.4566880,N,12205.6309340,W,40.1811,254.2432,070923,,,,A*54
$GPGGA,193521.45,3741.4541140,N,12205.6446800,W,1,0,0.0,23.7829,M,0.0000,M,0.0000,0000*55
$GPRMC,193521.45,A,3741.4541140,N,12205.6446800,W,40.6883,258.1787,070923,,,,A*58
$GPGGA,193522.45,3741.4522120,N,12205.6588400,W,1,0,0.0,23.6271,M,0.0000,M,0.0000,0000*5c
$GPRMC,193522.45,A,3741.4522120,N,12205.6588400,W,41.5226,261.6298,070923,,,,A*56
$GPGGA,193523.45,3741.4507720,N,12205.6734200,W,1,0,0.0,23.2784,M,0.0000,M,0.0000,0000*54
$GPRMC,193523.45,A,3741.4507720,N,12205.6734200,W,42.5102,263.4045,070923,,,,A*51
$GPGGA,193524.45,3741.4495240,N,12205.6883960,W,1,0,0.0,22.8385,M,0.0000,M,0.0000,0000*5a
$GPRMC,193524.45,A,3741.4495240,N,12205.6883960,W,43.5517,264.1685,070923,,,,A*58
$GPGGA,193525.45,3741.4483900,N,12205.7037620,W,1,0,0.0,22.2980,M,0.0000,M,0.0000,0000*5b
$GPRMC,193525.45,A,3741.4483900,N,12205.7037620,W,44.6350,264.8743,070923,,,,A*5f
$GPGGA,193526.45,3741.4474000,N,12205.7194820,W,1,0,0.0,21.7231,M,0.0000,M,0.0000,0000*58
$GPRMC,193526.45,A,3741.4474000,N,12205.7194820,W,45.2959,265.7161,070923,,,,A*55
$GPGGA,193527.45,3741.4465840,N,12205.7353400,W,1,0,0.0,21.1007,M,0.0000,M,0.0000,0000*53
$GPRMC,193527.45,A,3741.4465840,N,12205.7353400,W,45.7513,266.4976,070923,,,,A*56
$GPGGA,193528.45,3741.4459000,N,12205.7515760,W,1,0,0.0,20.4561,M,0.0000,M,0.0000,0000*5f
$GPRMC,193528.45,A,3741.4459000,N,12205.7515760,W,47.3203,267.0304,070923,,,,A*51
$GPGGA,193529.45,3741.4453720,N,12205.7684000,W,1,0,0.0,19.9634,M,0.0000,M,0.0000,0000*5f
$GPRMC,193529.45,A,3741.4453720,N,12205.7684000,W,48.7444,268.0068,070923,,,,A*5d
$GPGGA,193530.45,3741.4451740,N,12205.7854520,W,1,0,0.0,19.7037,M,0.0000,M,0.0000,0000*5c
$GPRMC,193530.45,A,3741.4451740,N,12205.7854520,W,48.6064,270.2687,070923,,,,A*5e
$GPGGA,193531.45,3741.4456120,N,12205.8023540,W,1,0,0.0,19.5289,M,0.0000,M,0.0000,0000*5e
$GPRMC,193531.45,A,3741.4456120,N,12205.8023540,W,48.0857,273.1412,070923,,,,A*59
$GPGGA,193532.45,3741.4467520,N,12205.8190040,W,1,0,0.0,19.4230,M,0.0000,M,0.0000,0000*54
$GPRMC,193532.45,A,3741.4467520,N,12205.8190040,W,47.4617,276.4061,070923,,,,A*51
$GPGGA,193533.45,3741.4485700,N,12205.8353780,W,1,0,0.0,19.3689,M,0.0000,M,0.0000,0000*5e
$GPRMC,193533.45,A,3741.4485700,N,12205.8353780,W,47.3470,279.0818,070923,,,,A*53
$GPGGA,193534.45,3741.4509760,N,12205.8517820,W,1,0,0.0,19.3793,M,0.0000,M,0.0000,0000*53
$GPRMC,193534.45,A,3741.4509760,N,12205.8517820,W,48.0225,281.2690,070923,,,,A*55
$GPGGA,193535.45,3741.4539340,N,12205.8683060,W,1,0,0.0,19.4203,M,0.0000,M,0.0000,0000*5e
$GPRMC,193535.45,A,3741.4539340,N,12205.8683060,W,48.8375,283.7774,070923,,,,A*53
$GPGGA,193536.45,3741.4574980,N,12205.8849320,W,1,0,0.0,19.4563,M,0.0000,M,0.0000,0000*5c
$GPRMC,193536.45,A,3741.4574980,N,12205.8849320,W,49.6541,286.0821,070923,,,,A*53
$GPGGA,193537.45,3741.4615240,N,12205.9017440,W,1,0,0.0,19.4803,M,0.0000,M,0.0000,0000*56
$GPRMC,193537.45,A,3741.4615240,N,12205.9017440,W,50.7868,286.9714,070923,,,,A*5d
$GPGGA,193538.45,3741.4659100,N,12205.9188860,W,1,0,0.0,19.4919,M,0.0000,M,0.0000,0000*55
$GPRMC,193538.45,A,3741.4659100,N,12205.9188860,W,52.1903,288.5620,070923,,,,A*58
$GPGGA,193539.45,3741.4708900,N,12205.9361960,W,1,0,0.0,19.5009,M,0.0000,M,0.0000,0000*54
$GPRMC,193539.45,A,3741.4708900,N,12205.9361960,W,52.8316,291.1002,070923,,,,A*5d
$GPGGA,193540.45,3741.4766260,N,12205.9532240,W,1,0,0.0,19.4599,M,0.0000,M,0.0000,0000*5b
$GPRMC,193540.45,A,3741.4766260,N,12205.9532240,W,52.9298,294.5108,070923,,,,A*53
$GPGGA,193541.45,3741.4830880,N,12205.9698860,W,1,0,0.0,19.3299,M,0.0000,M,0.0000,0000*59
$GPRMC,193541.45,A,3741.4830880,N,12205.9698860,W,53.1083,297.3331,070923,,,,A*5d
$GPGGA,193542.45,3741.4902340,N,12205.9861760,W,1,0,0.0,19.1875,M,0.0000,M,0.0000,0000*50
$GPRMC,193542.45,A,3741.4902340,N,12205.9861760,W,53.2881,300.0381,070923,,,,A*50
$GPGGA,193543.45,3741.4979560,N,12206.0021180,W,1,0,0.0,19.0830,M,0.0000,M,0.0000,0000*57
$GPRMC,193543.45,A,3741.4979560,N,12206.0021180,W,53.4357,302.4552,070923,,,,A*5f
$GPGGA,193544.45,3741.5062240,N,12206.0176700,W,1,0,0.0,19.0000,M,0.0000,M,0.0000,0000*51
$GPRMC,193544.45,A,3741.5062240,N,12206.0176700,W,53.5614,305.0443,070923,,,,A*53
$GPGGA,193545.45,3741.5151220,N,12206.0327060,W,1,0,0.0,18.8871,M,0.0000,M,0.0000,0000*57
$GPRMC,193545.45,A,3741.5151220,N,12206.0327060,W,53.6622,308.2555,070923,,,,A*5d
$GPGGA,193546.45,3741.5246500,N,12206.0471840,W,1,0,0.0,18.7241,M,0.0000,M,0.0000,0000*5c
$GPRMC,193546.45,A,3741.5246500,N,12206.0471840,W,53.8241,310.7602,070923,,,,A*52
$GPGGA,193547.45,3741.5346760,N,12206.0611940,W,1,0,0.0,18.5482,M,0.0000,M,0.0000,0000*56
$GPRMC,193547.45,A,3741.5346760,N,12206.0611940,W,53.9852,313.0458,070923,,,,A*53
$GPGGA,193548.45,3741.5451220,N,12206.0748020,W,1,0,0.0,18.3331,M,0.0000,M,0.0000,0000*52
$GPRMC,193548.45,A,3741.5451220,N,12206.0748020,W,54.2071,314.8238,070923,,,,A*54
$GPGGA,193549.45,3741.5559580,N,12206.0880920,W,1,0,0.0,18.1316,M,0.0000,M,0.0000,0000*52
$GPRMC,193549.45,A,3741.5559580,N,12206.0880920,W,54.7271,316.6577,070923,,,,A*54
$GPGGA,193550.45,3741.5673700,N,12206.1010220,W,1,0,0.0,17.9281,M,0.0000,M,0.0000,0000*58
$GPRMC,193550.45,A,3741.5673700,N,12206.1010220,W,55.8562,319.0803,070923,,,,A*5a
$GPGGA,193551.45,3741.5795500,N,12206.1136220,W,1,0,0.0,17.7072,M,0.0000,M,0.0000,0000*57
$GPRMC,193551.45,A,3741.5795500,N,12206.1136220,W,57.7828,322.0396,070923,,,,A*54
$GPGGA,193552.45,3741.5926300,N,12206.1259880,W,1,0,0.0,17.5361,M,0.0000,M,0.0000,0000*5d
$GPRMC,193552.45,A,3741.5926300,N,12206.1259880,W,59.8820,323.7449,070923,,,,A*57
$GPGGA,193553.45,3741.6062020,N,12206.1382280,W,1,0,0.0,17.3620,M,0.0000,M,0.0000,0000*5c
$GPRMC,193553.45,A,3741.6062020,N,12206.1382280,W,59.9093,324.6156,070923,,,,A*5c
$GPGGA,193554.45,3741.6197500,N,12206.1502820,W,1,0,0.0,17.1412,M,0.0000,M,0.0000,0000*58
$GPRMC,193554.45,A,3741.6197500,N,12206.1502820,W,59.4299,324.7002,070923,,,,A*5d
$GPGGA,193555.45,3741.6331780,N,12206.1622340,W,1,0,0.0,16.9152,M,0.0000,M,0.0000,0000*59
$GPRMC,193555.45,A,3741.6331780,N,12206.1622340,W,58.8097,324.5945,070923,,,,A*5d
$GPGGA,193556.45,3741.6464740,N,12206.1740060,W,1,0,0.0,16.6867,M,0.0000,M,0.0000,0000*55
$GPRMC,193556.45,A,3741.6464740,N,12206.1740060,W,58.1058,324.8139,070923,,,,A*55
$GPGGA,193557.45,3741.6596200,N,12206.1856280,W,1,0,0.0,16.4277,M,0.0000,M,0.0000,0000*54
$GPRMC,193557.45,A,3741.6596200,N,12206.1856280,W,57.4352,324.7411,070923,,,,A*5e
$GPGGA,193558.45,3741.6726040,N,12206.1971360,W,1,0,0.0,16.1657,M,0.0000,M,0.0000,0000*5c
$GPRMC,193558.45,A,3741.6726040,N,12206.1971360,W,56.7754,324.5909,070923,,,,A*53
$GPGGA,193559.45,3741.6854140,N,12206.2085420,W,1,0,0.0,15.9891,M,0.0000,M,0.0000,0000*5b
$GPRMC,193559.45,A,3741.6854140,N,12206.2085420,W,56.0799,324.5936,070923,,,,A*51
$GPGGA,193600.45,3741.6980500,N,12206.2198580,W,1,0,0.0,15.7691,M,0.0000,M,0.0000,0000*5a
$GPRMC,193600.45,A,3741.6980500,N,12206.2198580,W,55.4258,324.2825,070923,,,,A*5b
$GPGGA,193601.45,3741.7105120,N,12206.2310780,W,1,0,0.0,15.5931,M,0.0000,M,0.0000,0000*5e
$GPRMC,193601.45,A,3741.7105120,N,12206.2310780,W,54.8539,324.4112,070923,,,,A*5e
$GPGGA,193602.45,3741.7228900,N,12206.2421840,W,1,0,0.0,15.4562,M,0.0000,M,0.0000,0000*56
$GPRMC,193602.45,A,3741.7228900,N,12206.2421840,W,54.4930,324.3125,070923,,,,A*57
$GPGGA,193603.45,3741.7351720,N,12206.2532360,W,1,0,0.0,15.2525,M,0.0000,M,0.0000,0000*5b
$GPRMC,193603.45,A,3741.7351720,N,12206.2532360,W,54.0462,324.3078,070923,,,,A*58
$GPGGA,193604.45,3741.7473580,N,12206.2641620,W,1,0,0.0,15.0402,M,0.0000,M,0.0000,0000*53
$GPRMC,193604.45,A,3741.7473580,N,12206.2641620,W,53.5448,324.6505,070923,,,,A*56
$GPGGA,193605.45,3741.7595320,N,12206.2749500,W,1,0,0.0,14.8021,M,0.0000,M,0.0000,0000*53
$GPRMC,193605.45,A,3741.7595320,N,12206.2749500,W,53.6509,324.6651,070923,,,,A*5f
$GPGGA,193606.45,3741.7717660,N,12206.2858160,W,1,0,0.0,14.6169,M,0.0000,M,0.0000,0000*57
$GPRMC,193606.45,A,3741.7717660,N,12206.2858160,W,54.0048,324.6874,070923,,,,A*50
$GPGGA,193607.45,3741.7840900,N,12206.2967420,W,1,0,0.0,14.4097,M,0.0000,M,0.0000,0000*5c
$GPRMC,193607.45,A,3741.7840900,N,12206.2967420,W,54.4528,324.7265,070923,,,,A*55
$GPGGA,193608.45,3741.7965220,N,12206.3077700,W,1,0,0.0,14.2047,M,0.0000,M,0.0000,0000*5f
$GPRMC,193608.45,A,3741.7965220,N,12206.3077700,W,54.9382,324.6804,070923,,,,A*5a
$GPGGA,193609.45,3741.8090680,N,12206.3189060,W,1,0,0.0,13.9676,M,0.0000,M,0.0000,0000*55
$GPRMC,193609.45,A,3741.8090680,N,12206.3189060,W,55.4507,324.5734,070923,,,,A*50
$GPGGA,193610.45,3741.8216980,N,12206.3302040,W,1,0,0.0,13.7517,M,0.0000,M,0.0000,0000*57
$GPRMC,193610.45,A,3741.8216980,N,12206.3302040,W,55.9449,324.5176,070923,,,,A*5e
$GPGGA,193611.45,3741.8344180,N,12206.3415440,W,1,0,0.0,13.5476,M,0.0000,M,0.0000,0000*59
$GPRMC,193611.45,A,3741.8344180,N,12206.3415440,W,56.0599,324.6331,070923,,,,A*50
$GPGGA,193612.45,3741.8471020,N,12206.3528180,W,1,0,0.0,13.3496,M,0.0000,M,0.0000,0000*5e
$GPRMC,193612.45,A,3741.8471020,N,12206.3528180,W,55.5901,324.5999,070923,,,,A*5f
$GPGGA,193613.45,3741.8596720,N,12206.3640200,W,1,0,0.0,13.1486,M,0.0000,M,0.0000,0000*55
$GPRMC,193613.45,A,3741.8596720,N,12206.3640200,W,55.2837,324.5710,070923,,,,A*5b
$GPGGA,193614.45,3741.8722000,N,12206.3751980,W,1,0,0.0,12.9325,M,0.0000,M,0.0000,0000*5f
$GPRMC,193614.45,A,3741.8722000,N,12206.3751980,W,55.0918,324.5081,070923,,,,A*57
$GPGGA,193615.45,3741.8846500,N,12206.3862920,W,1,0,0.0,12.7052,M,0.0000,M,0.0000,0000*5e
$GPRMC,193615.45,A,3741.8846500,N,12206.3862920,W,54.6158,324.6933,070923,,,,A*53
$GPGGA,193616.45,3741.8970040,N,12206.3972480,W,1,0,0.0,12.5246,M,0.0000,M,0.0000,0000*5a
$GPRMC,193616.45,A,3741.8970040,N,12206.3972480,W,54.0353,324.6971,070923,,,,A*5b
$GPGGA,193617.45,3741.9092260,N,12206.4081140,W,1,0,0.0,12.3047,M,0.0000,M,0.0000,0000*51
$GPRMC,193617.45,A,3741.9092260,N,12206.4081140,W,53.7308,324.5279,070923,,,,A*5b
$GPGGA,193618.45,3741.9214420,N,12206.4190220,W,1,0,0.0,12.1505,M,0.0000,M,0.0000,0000*55
$GPRMC,193618.45,A,3741.9214420,N,12206.4190220,W,53.9799,324.5507,070923,,,,A*52
$GPGGA,193619.45,3741.9336520,N,12206.4299300,W,1,0,0.0,12.0674,M,0.0000,M,0.0000,0000*59
$GPRMC,193619.45,A,3741.9336520,N,12206.4299300,W,53.6209,324.4956,070923,,,,A*50
$GPGGA,193620.45,3741.9457060,N,12206.4407840,W,1,0,0.0,12.0898,M,0.0000,M,0.0000,0000*50
$GPRMC,193620.45,A,3741.9457060,N,12206.4407840,W,52.9472,324.2461,070923,,,,A*5e
$GPGGA,193621.45,3741.9575260,N,12206.4516200,W,1,0,0.0,12.1179,M,0.0000,M,0.0000,0000*5a
$GPRMC,193621.45,A,3741.9575260,N,12206.4516200,W,52.2032,323.3364,070923,,,,A*5c
$GPGGA,193622.45,3741.9690400,N,12206.4626000,W,1,0,0.0,11.9771,M,0.0000,M,0.0000,0000*56
$GPRMC,193622.45,A,3741.9690400,N,12206.4626000,W,51.8422,322.3329,070923,,,,A*51
$GPGGA,193623.45,3741.9804220,N,12206.4738980,W,1,0,0.0,11.7766,M,0.0000,M,0.0000,0000*57
$GPRMC,193623.45,A,3741.9804220,N,12206.4738980,W,52.5109,320.9755,070923,,,,A*5d
$GPGGA,193624.45,3741.9917560,N,12206.4857060,W,1,0,0.0,11.5841,M,0.0000,M,0.0000,0000*59
$GPRMC,193624.45,A,3741.9917560,N,12206.4857060,W,53.2481,319.7053,070923,,,,A*5d
$GPGGA,193625.45,3742.0030120,N,12206.4980060,W,1,0,0.0,11.3462,M,0.0000,M,0.0000,0000*5e
$GPRMC,193625.45,A,3742.0030120,N,12206.4980060,W,53.9232,318.3266,070923,,,,A*55
$GPGGA,193626.45,3742.0141180,N,12206.5108160,W,1,0,0.0,11.0544,M,0.0000,M,0.0000,0000*5e
$GPRMC,193626.45,A,3742.0141180,N,12206.5108160,W,54.3450,316.5169,070923,,,,A*58
$GPGGA,193627.45,3742.0249720,N,12206.5241360,W,1,0,0.0,10.7108,M,0.0000,M,0.0000,0000*5e
$GPRMC,193627.45,A,3742.0249720,N,12206.5241360,W,54.6741,314.8922,070923,,,,A*5c
$GPGGA,193628.45,3742.0355980,N,12206.5379000,W,1,0,0.0,10.2095,M,0.0000,M,0.0000,0000*56
$GPRMC,193628.45,A,3742.0355980,N,12206.5379000,W,54.9147,313.4464,070923,,,,A*5f
$GPGGA,193629.45,3742.0460080,N,12206.5520240,W,1,0,0.0,9.5664,M,0.0000,M,0.0000,0000*64
$GPRMC,193629.45,A,3742.0460080,N,12206.5520240,W,55.1540,312.0648,070923,,,,A*59
$GPGGA,193630.45,3742.0561480,N,12206.5664960,W,1,0,0.0,8.9517,M,0.0000,M,0.0000,0000*68
$GPRMC,193630.45,A,3742.0561480,N,12206.5664960,W,55.0396,310.6084,070923,,,,A*51
$GPGGA,193631.45,3742.0659160,N,12206.5812740,W,1,0,0.0,8.2833,M,0.0000,M,0.0000,0000*69
$GPRMC,193631.45,A,3742.0659160,N,12206.5812740,W,54.7286,308.8314,070923,,,,A*5b
$GPGGA,193632.45,3742.0753420,N,12206.5962920,W,1,0,0.0,7.4026,M,0.0000,M,0.0000,0000*6b
$GPRMC,193632.45,A,3742.0753420,N,12206.5962920,W,54.7606,307.8034,070923,,,,A*5e
$GPGGA,193633.45,3742.0847320,N,12206.6115260,W,1,0,0.0,6.3717,M,0.0000,M,0.0000,0000*60
$GPRMC,193633.45,A,3742.0847320,N,12206.6115260,W,55.4873,307.6790,070923,,,,A*5f
$GPGGA,193634.45,3742.0942540,N,12206.6269880,W,1,0,0.0,5.3646,M,0.0000,M,0.0000,0000*69
$GPRMC,193634.45,A,3742.0942540,N,12206.6269880,W,56.2868,307.6006,070923,,,,A*57
$GPGGA,193635.45,3742.1038960,N,12206.6426660,W,1,0,0.0,4.5267,M,0.0000,M,0.0000,0000*6e
$GPRMC,193635.45,A,3742.1038960,N,12206.6426660,W,56.9657,307.6632,070923,,,,A*58
$GPGGA,193636.45,3742.1136520,N,12206.6585000,W,1,0,0.0,3.8325,M,0.0000,M,0.0000,0000*6f
$GPRMC,193636.45,A,3742.1136520,N,12206.6585000,W,57.4545,307.8004,070923,,,,A*55
$GPGGA,193637.45,3742.1234560,N,12206.6744000,W,1,0,0.0,3.3718,M,0.0000,M,0.0000,0000*65
$GPRMC,193637.45,A,3742.1234560,N,12206.6744000,W,57.5495,307.5835,070923,,,,A*54
$GPGGA,193638.45,3742.1332480,N,12206.6903420,W,1,0,0.0,3.1251,M,0.0000,M,0.0000,0000*63
$GPRMC,193638.45,A,3742.1332480,N,12206.6903420,W,57.5619,307.5738,070923,,,,A*5c
$GPGGA,193639.45,3742.1430700,N,12206.7062540,W,1,0,0.0,2.9430,M,0.0000,M,0.0000,0000*6c
$GPRMC,193639.45,A,3742.1430700,N,12206.7062540,W,57.5974,307.8473,070923,,,,A*5e
$GPGGA,193640.45,3742.1529520,N,12206.7221840,W,1,0,0.0,2.7985,M,0.0000,M,0.0000,0000*6e
$GPRMC,193640.45,A,3742.1529520,N,12206.7221840,W,57.9223,307.8452,070923,,,,A*57
$GPGGA,193641.45,3742.1628700,N,12206.7382520,W,1,0,0.0,2.6271,M,0.0000,M,0.0000,0000*6f
$GPRMC,193641.45,A,3742.1628700,N,12206.7382520,W,58.3618,307.6106,070923,,,,A*54
$GPGGA,193642.45,3742.1728300,N,12206.7544760,W,1,0,0.0,2.4421,M,0.0000,M,0.0000,0000*62
$GPRMC,193642.45,A,3742.1728300,N,12206.7544760,W,58.7723,307.5581,070923,,,,A*5d
$GPGGA,193643.45,3742.1828620,N,12206.7708380,W,1,0,0.0,2.2441,M,0.0000,M,0.0000,0000*6b
$GPRMC,193643.45,A,3742.1828620,N,12206.7708380,W,59.3817,307.5144,070923,,,,A*54
$GPGGA,193644.45,3742.1930020,N,12206.7873920,W,1,0,0.0,2.0556,M,0.0000,M,0.0000,0000*64
$GPRMC,193644.45,A,3742.1930020,N,12206.7873920,W,60.0751,307.5277,070923,,,,A*59
$GPGGA,193645.45,3742.2032440,N,12206.8041320,W,1,0,0.0,1.8531,M,0.0000,M,0.0000,0000*69
$GPRMC,193645.45,A,3742.2032440,N,12206.8041320,W,60.6112,307.3922,070923,,,,A*54
$GPGGA,193646.45,3742.2135220,N,12206.8210160,W,1,0,0.0,1.6636,M,0.0000,M,0.0000,0000*66
$GPRMC,193646.45,A,3742.2135220,N,12206.8210160,W,60.9256,307.3192,070923,,,,A*5e
$GPGGA,193647.45,3742.2238480,N,12206.8379780,W,1,0,0.0,1.4656,M,0.0000,M,0.0000,0000*67
$GPRMC,193647.45,A,3742.2238480,N,12206.8379780,W,61.0978,307.4019,070923,,,,A*51
$GPGGA,193648.45,3742.2342160,N,12206.8549520,W,1,0,0.0,1.2621,M,0.0000,M,0.0000,0000*64
$GPRMC,193648.45,A,3742.2342160,N,12206.8549520,W,61.2114,307.4528,070923,,,,A*53
$GPGGA,193649.45,3742.2446320,N,12206.8719020,W,1,0,0.0,1.1145,M,0.0000,M,0.0000,0000*64
$GPRMC,193649.45,A,3742.2446320,N,12206.8719020,W,61.2461,307.7869,070923,,,,A*59
$GPGGA,193650.45,3742.2550900,N,12206.8888340,W,1,0,0.0,1.0424,M,0.0000,M,0.0000,0000*63
$GPRMC,193650.45,A,3742.2550900,N,12206.8888340,W,61.3057,307.6918,070923,,,,A*5b
$GPGGA,193651.45,3742.2654880,N,12206.9057600,W,1,0,0.0,0.9386,M,0.0000,M,0.0000,0000*61
$GPRMC,193651.45,A,3742.2654880,N,12206.9057600,W,60.8200,307.5187,070923,,,,A*59
$GPGGA,193652.45,3742.2757240,N,12206.9226260,W,1,0,0.0,0.6543,M,0.0000,M,0.0000,0000*60
$GPRMC,193652.45,A,3742.2757240,N,12206.9226260,W,60.6001,306.9579,070923,,,,A*5d
$GPGGA,193653.45,3742.2857800,N,12206.9396960,W,1,0,0.0,0.2180,M,0.0000,M,0.0000,0000*6e
$GPRMC,193653.45,A,3742.2857800,N,12206.9396960,W,60.8070,306.0225,070923,,,,A*53
$GPGGA,193654.45,3742.2956860,N,12206.9569880,W,1,0,0.0,-0.3245,M,0.0000,M,0.0000,0000*40
$GPRMC,193654.45,A,3742.2956860,N,12206.9569880,W,60.8999,305.3436,070923,,,,A*51
$GPGGA,193655.45,3742.3053880,N,12206.9744000,W,1,0,0.0,-0.9783,M,0.0000,M,0.0000,0000*4a
$GPRMC,193655.45,A,3742.3053880,N,12206.9744000,W,60.5857,304.5594,070923,,,,A*5e
$GPGGA,193656.45,3742.3148980,N,12206.9918840,W,1,0,0.0,-1.7442,M,0.0000,M,0.0000,0000*49
$GPRMC,193656.45,A,3742.3148980,N,12206.9918840,W,60.5891,304.0709,070923,,,,A*55
$GPGGA,193657.45,3742.3243000,N,12207.0095540,W,1,0,0.0,-2.5940,M,0.0000,M,0.0000,0000*46
$GPRMC,193657.45,A,3742.3243000,N,12207.0095540,W,60.9103,303.2769,070923,,,,A*59
$GPGGA,193658.45,3742.3335340,N,12207.0274760,W,1,0,0.0,-3.5454,M,0.0000,M,0.0000,0000*4a
$GPRMC,193658.45,A,3742.3335340,N,12207.0274760,W,61.0768,302.4502,070923,,,,A*57
$GPGGA,193659.45,3742.3425640,N,12207.0455600,W,1,0,0.0,-4.4695,M,0.0000,M,0.0000,0000*43
$GPRMC,193659.45,A,3742.3425640,N,12207.0455600,W,60.8711,301.6785,070923,,,,A*5c
$GPGGA,193700.45,3742.3513840,N,12207.0636980,W,1,0,0.0,-5.3951,M,0.0000,M,0.0000,0000*45
$GPRMC,193700.45,A,3742.3513840,N,12207.0636980,W,60.6345,301.0063,070923,,,,A*59
$GPGGA,193701.45,3742.3599820,N,12207.0819020,W,1,0,0.0,-6.3271,M,0.0000,M,0.0000,0000*4a
$GPRMC,193701.45,A,3742.3599820,N,12207.0819020,W,60.3682,300.1765,070923,,,,A*56
$GPGGA,193702.45,3742.3683520,N,12207.1001720,W,1,0,0.0,-7.2414,M,0.0000,M,0.0000,0000*4e
$GPRMC,193702.45,A,3742.3683520,N,12207.1001720,W,60.1327,299.6415,070923,,,,A*5d
$GPGGA,193703.45,3742.3765600,N,12207.1184720,W,1,0,0.0,-8.2144,M,0.0000,M,0.0000,0000*44
$GPRMC,193703.45,A,3742.3765600,N,12207.1184720,W,59.9243,299.0431,070923,,,,A*59
$GPGGA,193704.45,3742.3846120,N,12207.1368140,W,1,0,0.0,-9.2698,M,0.0000,M,0.0000,0000*4f
$GPRMC,193704.45,A,3742.3846120,N,12207.1368140,W,59.9614,298.6125,070923,,,,A*54
$GPGGA,193705.45,3742.3926520,N,12207.1552880,W,1,0,0.0,-10.3339,M,0.0000,M,0.0000,0000*70
$GPRMC,193705.45,A,3742.3926520,N,12207.1552880,W,60.3721,298.5661,070923,,,,A*5f
$GPGGA,193706.45,3742.4007820,N,12207.1738580,W,1,0,0.0,-11.3240,M,0.0000,M,0.0000,0000*7e
$GPRMC,193706.45,A,3742.4007820,N,12207.1738580,W,60.7421,298.8156,070923,,,,A*56
$GPGGA,193707.45,3742.4089960,N,12207.1924940,W,1,0,0.0,-12.3132,M,0.0000,M,0.0000,0000*7a
$GPRMC,193707.45,A,3742.4089960,N,12207.1924940,W,60.9569,298.9691,070923,,,,A*59
$GPGGA,193708.45,3742.4172880,N,12207.2110880,W,1,0,0.0,-13.4882,M,0.0000,M,0.0000,0000*7a
$GPRMC,193708.45,A,3742.4172880,N,12207.2110880,W,60.8709,299.4938,070923,,,,A*58
$GPGGA,193709.45,3742.4259100,N,12207.2293820,W,1,0,0.0,-14.6902,M,0.0000,M,0.0000,0000*7e
$GPRMC,193709.45,A,3742.4259100,N,12207.2293820,W,60.6756,302.1381,070923,,,,A*5a
$GPGGA,193710.45,3742.4352340,N,12207.2470160,W,1,0,0.0,-15.6975,M,0.0000,M,0.0000,0000*7d
$GPRMC,193710.45,A,3742.4352340,N,12207.2470160,W,60.4758,304.8326,070923,,,,A*56
$GPGGA,193711.45,3742.4451640,N,12207.2640260,W,1,0,0.0,-16.6420,M,0.0000,M,0.0000,0000*71
$GPRMC,193711.45,A,3742.4451640,N,12207.2640260,W,60.1783,307.6744,070923,,,,A*5a
$GPGGA,193712.45,3742.4557420,N,12207.2803400,W,1,0,0.0,-17.5735,M,0.0000,M,0.0000,0000*7d
$GPRMC,193712.45,A,3742.4557420,N,12207.2803400,W,60.2483,310.5191,070923,,,,A*58
$GPGGA,193713.45,3742.4669800,N,12207.2960000,W,1,0,0.0,-18.3663,M,0.0000,M,0.0000,0000*77
$GPRMC,193713.45,A,3742.4669800,N,12207.2960000,W,60.3880,313.2840,070923,,,,A*56
$GPGGA,193714.45,3742.4786980,N,12207.3111500,W,1,0,0.0,-18.8706,M,0.0000,M,0.0000,0000*7a
$GPRMC,193714.45,A,3742.4786980,N,12207.3111500,W,60.3749,314.5699,070923,,,,A*52
$GPGGA,193715.45,3742.4905240,N,12207.3261260,W,1,0,0.0,-19.2731,M,0.0000,M,0.0000,0000*73
$GPRMC,193715.45,A,3742.4905240,N,12207.3261260,W,60.2930,314.7619,070923,,,,A*5f
$GPGGA,193716.45,3742.5023380,N,12207.3410960,W,1,0,0.0,-19.6083,M,0.0000,M,0.0000,0000*70
$GPRMC,193716.45,A,3742.5023380,N,12207.3410960,W,60.2187,314.5331,070923,,,,A*5f
$GPGGA,193717.45,3742.5140920,N,12207.3560600,W,1,0,0.0,-19.7756,M,0.0000,M,0.0000,0000*74
$GPRMC,193717.45,A,3742.5140920,N,12207.3560600,W,60.0092,314.5723,070923,,,,A*55
$GPGGA,193718.45,3742.5257980,N,12207.3709700,W,1,0,0.0,-19.7488,M,0.0000,M,0.0000,0000*78
$GPRMC,193718.45,A,3742.5257980,N,12207.3709700,W,59.7452,314.6151,070923,,,,A*5c
$GPGGA,193719.45,3742.5374800,N,12207.3857840,W,1,0,0.0,-19.6652,M,0.0000,M,0.0000,0000*7b
$GPRMC,193719.45,A,3742.5374800,N,12207.3857840,W,59.5864,314.7054,070923,,,,A*55
$GPGGA,193720.45,3742.5491380,N,12207.4006040,W,1,0,0.0,-19.5774,M,0.0000,M,0.0000,0000*7b
$GPRMC,193720.45,A,3742.5491380,N,12207.4006040,W,59.5749,314.5199,070923,,,,A*51
$GPGGA,193721.45,3742.5607780,N,12207.4154840,W,1,0,0.0,-19.3315,M,0.0000,M,0.0000,0000*78
$GPRMC,193721.45,A,3742.5607780,N,12207.4154840,W,59.7183,314.4330,070923,,,,A*55
$GPGGA,193722.45,3742.5724120,N,12207.4304360,W,1,0,0.0,-18.9991,M,0.0000,M,0.0000,0000*74
$GPRMC,193722.45,A,3742.5724120,N,12207.4304360,W,59.8447,314.2495,070923,,,,A*58
$GPGGA,193723.45,3742.5839560,N,12207.4455440,W,1,0,0.0,-18.6092,M,0.0000,M,0.0000,0000*75
$GPRMC,193723.45,A,3742.5839560,N,12207.4455440,W,59.9045,313.1895,070923,,,,A*53
$GPGGA,193724.45,3742.5952000,N,12207.4609820,W,1,0,0.0,-18.1618,M,0.0000,M,0.0000,0000*7f
$GPRMC,193724.45,A,3742.5952000,N,12207.4609820,W,59.7127,311.7429,070923,,,,A*5e
$GPGGA,193725.45,3742.6060480,N,12207.4767620,W,1,0,0.0,-17.6159,M,0.0000,M,0.0000,0000*74
$GPRMC,193725.45,A,3742.6060480,N,12207.4767620,W,59.4602,309.7408,070923,,,,A*56
$GPGGA,193726.45,3742.6164100,N,12207.4929260,W,1,0,0.0,-17.0843,M,0.0000,M,0.0000,0000*7f
$GPRMC,193726.45,A,3742.6164100,N,12207.4929260,W,59.1836,307.9312,070923,,,,A*59
$GPGGA,193727.45,3742.6263220,N,12207.5094260,W,1,0,0.0,-16.5558,M,0.0000,M,0.0000,0000*76
$GPRMC,193727.45,A,3742.6263220,N,12207.5094260,W,59.0038,306.2107,070923,,,,A*58
$GPGGA,193728.45,3742.6358560,N,12207.5262260,W,1,0,0.0,-16.0118,M,0.0000,M,0.0000,0000*7d
$GPRMC,193728.45,A,3742.6358560,N,12207.5262260,W,58.9557,304.6328,070923,,,,A*5b
$GPGGA,193729.45,3742.6450060,N,12207.5433560,W,1,0,0.0,-15.5886,M,0.0000,M,0.0000,0000*7b
$GPRMC,193729.45,A,3742.6450060,N,12207.5433560,W,58.9407,303.1212,070923,,,,A*59
$GPGGA,193730.45,3742.6538560,N,12207.5607200,W,1,0,0.0,-15.2253,M,0.0000,M,0.0000,0000*78
$GPRMC,193730.45,A,3742.6538560,N,12207.5607200,W,58.8701,302.2175,070923,,,,A*5b
$GPGGA,193731.45,3742.6625980,N,12207.5780660,W,1,0,0.0,-14.5757,M,0.0000,M,0.0000,0000*7f
$GPRMC,193731.45,A,3742.6625980,N,12207.5780660,W,58.3781,302.2797,070923,,,,A*52
$GPGGA,193732.45,3742.6712200,N,12207.5951240,W,1,0,0.0,-13.5475,M,0.0000,M,0.0000,0000*7a
$GPRMC,193732.45,A,3742.6712200,N,12207.5951240,W,57.1351,302.4355,070923,,,,A*5b
$GPGGA,193733.45,3742.6796860,N,12207.6117740,W,1,0,0.0,-12.5363,M,0.0000,M,0.0000,0000*76
$GPRMC,193733.45,A,3742.6796860,N,12207.6117740,W,55.8159,302.3845,070923,,,,A*5a
$GPGGA,193734.45,3742.6879660,N,12207.6281300,W,1,0,0.0,-11.6297,M,0.0000,M,0.0000,0000*77
$GPRMC,193734.45,A,3742.6879660,N,12207.6281300,W,55.0748,302.3660,070923,,,,A*56
$GPGGA,193735.45,3742.6961560,N,12207.6443000,W,1,0,0.0,-10.8346,M,0.0000,M,0.0000,0000*74
$GPRMC,193735.45,A,3742.6961560,N,12207.6443000,W,54.5059,302.4943,070923,,,,A*5d
$GPGGA,193736.45,3742.7043640,N,12207.6602540,W,1,0,0.0,-10.2982,M,0.0000,M,0.0000,0000*70
$GPRMC,193736.45,A,3742.7043640,N,12207.6602540,W,54.1281,303.0154,070923,,,,A*59
$GPGGA,193737.45,3742.7127100,N,12207.6759800,W,1,0,0.0,-9.8667,M,0.0000,M,0.0000,0000*41
$GPRMC,193737.45,A,3742.7127100,N,12207.6759800,W,53.9635,304.4261,070923,,,,A*5c
$GPGGA,193738.45,3742.7213920,N,12207.6913760,W,1,0,0.0,-9.3852,M,0.0000,M,0.0000,0000*4a
$GPRMC,193738.45,A,3742.7213920,N,12207.6913760,W,53.9625,305.9626,070923,,,,A*5e
$GPGGA,193739.45,3742.7304460,N,12207.7064420,W,1,0,0.0,-8.9532,M,0.0000,M,0.0000,0000*4a
$GPRMC,193739.45,A,3742.7304460,N,12207.7064420,W,54.0079,308.0258,070923,,,,A*56
$GPGGA,193740.45,3742.7399320,N,12207.7211000,W,1,0,0.0,-8.5267,M,0.0000,M,0.0000,0000*4e
$GPRMC,193740.45,A,3742.7399320,N,12207.7211000,W,54.1129,310.0005,070923,,,,A*5f
$GPGGA,193741.45,3742.7498080,N,12207.7354400,W,1,0,0.0,-8.1062,M,0.0000,M,0.0000,0000*47
$GPRMC,193741.45,A,3742.7498080,N,12207.7354400,W,54.3855,311.5270,070923,,,,A*51
$GPGGA,193742.45,3742.7600920,N,12207.7495100,W,1,0,0.0,-7.7390,M,0.0000,M,0.0000,0000*4c
$GPRMC,193742.45,A,3742.7600920,N,12207.7495100,W,54.9182,313.3994,070923,,,,A*51
$GPGGA,193743.45,3742.7708260,N,12207.7633220,W,1,0,0.0,-7.4500,M,0.0000,M,0.0000,0000*48
$GPRMC,193743.45,A,3742.7708260,N,12207.7633220,W,55.4972,315.1685,070923,,,,A*59
$GPGGA,193744.45,3742.7820280,N,12207.7768040,W,1,0,0.0,-7.2338,M,0.0000,M,0.0000,0000*44
$GPRMC,193744.45,A,3742.7820280,N,12207.7768040,W,56.0050,317.0707,070923,,,,A*58
$GPGGA,193745.45,3742.7936740,N,12207.7899380,W,1,0,0.0,-7.1313,M,0.0000,M,0.0000,0000*4e
$GPRMC,193745.45,A,3742.7936740,N,12207.7899380,W,56.5313,319.0087,070923,,,,A*58
$GPGGA,193746.45,3742.8057760,N,12207.8027120,W,1,0,0.0,-7.0622,M,0.0000,M,0.0000,0000*42
$GPRMC,193746.45,A,3742.8057760,N,12207.8027120,W,57.1117,320.7157,070923,,,,A*50
$GPGGA,193747.45,3742.8183100,N,12207.8151380,W,1,0,0.0,-6.9853,M,0.0000,M,0.0000,0000*43
$GPRMC,193747.45,A,3742.8183100,N,12207.8151380,W,57.6382,322.6512,070923,,,,A*5e
$GPGGA,193748.45,3742.8312700,N,12207.8271560,W,1,0,0.0,-6.9052,M,0.0000,M,0.0000,0000*40
$GPRMC,193748.45,A,3742.8312700,N,12207.8271560,W,58.1518,324.3489,070923,,,,A*59
$GPGGA,193749.45,3742.8445900,N,12207.8387420,W,1,0,0.0,-6.8283,M,0.0000,M,0.0000,0000*48
$GPRMC,193749.45,A,3742.8445900,N,12207.8387420,W,58.2333,326.3373,070923,,,,A*52
$GPGGA,193750.45,3742.8581860,N,12207.8496140,W,1,0,0.0,-6.7508,M,0.0000,M,0.0000,0000*41
$GPRMC,193750.45,A,3742.8581860,N,12207.8496140,W,57.6209,328.5163,070923,,,,A*58
$GPGGA,193751.45,3742.8719020,N,12207.8597660,W,1,0,0.0,-6.6812,M,0.0000,M,0.0000,0000*4d
$GPRMC,193751.45,A,3742.8719020,N,12207.8597660,W,56.8284,330.3522,070923,,,,A*57
$GPGGA,193752.45,3742.8856780,N,12207.8692160,W,1,0,0.0,-6.6077,M,0.0000,M,0.0000,0000*4d
$GPRMC,193752.45,A,3742.8856780,N,12207.8692160,W,56.1111,332.2902,070923,,,,A*57
$GPGGA,193753.45,3742.8996100,N,12207.8780240,W,1,0,0.0,-6.5492,M,0.0000,M,0.0000,0000*40
$GPRMC,193753.45,A,3742.8996100,N,12207.8780240,W,56.0834,333.9451,070923,,,,A*58
$GPGGA,193754.45,3742.9137040,N,12207.8863100,W,1,0,0.0,-6.4852,M,0.0000,M,0.0000,0000*44
$GPRMC,193754.45,A,3742.9137040,N,12207.8863100,W,55.7077,335.8329,070923,,,,A*59
$GPGGA,193755.45,3742.9278400,N,12207.8939660,W,1,0,0.0,-6.3723,M,0.0000,M,0.0000,0000*4c
$GPRMC,193755.45,A,3742.9278400,N,12207.8939660,W,54.9628,337.2713,070923,,,,A*59
$GPGGA,193756.45,3742.9418980,N,12207.9011240,W,1,0,0.0,-6.1817,M,0.0000,M,0.0000,0000*44
$GPRMC,193756.45,A,3742.9418980,N,12207.9011240,W,54.1725,338.4854,070923,,,,A*5a
$GPGGA,193757.45,3742.9558660,N,12207.9079520,W,1,0,0.0,-6.2942,M,0.0000,M,0.0000,0000*4c
$GPRMC,193757.45,A,3742.9558660,N,12207.9079520,W,53.5795,338.6888,070923,,,,A*5b
$GPGGA,193758.45,3742.9697020,N,12207.9146840,W,1,0,0.0,-6.5770,M,0.0000,M,0.0000,0000*4f
$GPRMC,193758.45,A,3742.9697020,N,12207.9146840,W,53.1043,338.8351,070923,,,,A*59
$GPGGA,193759.45,3742.9834240,N,12207.9213260,W,1,0,0.0,-6.8634,M,0.0000,M,0.0000,0000*4a
$GPRMC,193759.45,A,3742.9834240,N,12207.9213260,W,52.6774,338.7284,070923,,,,A*53
$GPGGA,193800.45,3742.9970860,N,12207.9279620,W,1,0,0.0,-7.1104,M,0.0000,M,0.0000,0000*40
$GPRMC,193800.45,A,3742.9970860,N,12207.9279620,W,52.6553,338.7921,070923,,,,A*56
$GPGGA,193801.45,3743.0107300,N,12207.9346160,W,1,0,0.0,-7.1953,M,0.0000,M,0.0000,0000*48
$GPRMC,193801.45,A,3743.0107300,N,12207.9346160,W,52.5751,338.6264,070923,,,,A*5c
$GPGGA,193802.45,3743.0243320,N,12207.9412880,W,1,0,0.0,-7.0953,M,0.0000,M,0.0000,0000*4a
$GPRMC,193802.45,A,3743.0243320,N,12207.9412880,W,52.3869,338.5070,070923,,,,A*59
$GPGGA,193803.45,3743.0378740,N,12207.9479480,W,1,0,0.0,-6.9088,M,0.0000,M,0.0000,0000*46
$GPRMC,193803.45,A,3743.0378740,N,12207.9479480,W,52.1738,338.4913,070923,,,,A*56
$GPGGA,193804.45,3743.0513560,N,12207.9546020,W,1,0,0.0,-6.7339,M,0.0000,M,0.0000,0000*4e
$GPRMC,193804.45,A,3743.0513560,N,12207.9546020,W,51.9521,338.4618,070923,,,,A*5c
$GPGGA,193805.45,3743.0647420,N,12207.9612020,W,1,0,0.0,-6.4766,M,0.0000,M,0.0000,0000*47
$GPRMC,193805.45,A,3743.0647420,N,12207.9612020,W,51.3399,338.5682,070923,,,,A*55
$GPGGA,193806.45,3743.0779300,N,12207.9676760,W,1,0,0.0,-6.0528,M,0.0000,M,0.0000,0000*40
$GPRMC,193806.45,A,3743.0779300,N,12207.9676760,W,50.3874,338.6114,070923,,,,A*5c
$GPGGA,193807.45,3743.0908780,N,12207.9741140,W,1,0,0.0,-5.5198,M,0.0000,M,0.0000,0000*4d
$GPRMC,193807.45,A,3743.0908780,N,12207.9741140,W,49.8674,338.2540,070923,,,,A*54
$GPGGA,193808.45,3743.1037180,N,12207.9806120,W,1,0,0.0,-5.0172,M,0.0000,M,0.0000,0000*4b
$GPRMC,193808.45,A,3743.1037180,N,12207.9806120,W,49.6723,337.6811,070923,,,,A*5c
$GPGGA,193809.45,3743.1164620,N,12207.9872720,W,1,0,0.0,-4.5692,M,0.0000,M,0.0000,0000*48
$GPRMC,193809.45,A,3743.1164620,N,12207.9872720,W,49.5424,337.1679,070923,,,,A*52
$GPGGA,193810.45,3743.1291280,N,12207.9940640,W,1,0,0.0,-4.1467,M,0.0000,M,0.0000,0000*4c
$GPRMC,193810.45,A,3743.1291280,N,12207.9940640,W,49.4845,336.5409,070923,,,,A*50
$GPGGA,193811.45,3743.1417640,N,12208.0010480,W,1,0,0.0,-3.6742,M,0.0000,M,0.0000,0000*4d
$GPRMC,193811.45,A,3743.1417640,N,12208.0010480,W,49.8555,336.0017,070923,,,,A*5b
$GPGGA,193812.45,3743.1545260,N,12208.0082480,W,1,0,0.0,-3.2936,M,0.0000,M,0.0000,0000*4c
$GPRMC,193812.45,A,3743.1545260,N,12208.0082480,W,50.7540,335.5664,070923,,,,A*54
$GPGGA,193813.45,3743.1674500,N,12208.0157240,W,1,0,0.0,-2.9975,M,0.0000,M,0.0000,0000*43
$GPRMC,193813.45,A,3743.1674500,N,12208.0157240,W,51.5127,334.9326,070923,,,,A*5e
$GPGGA,193814.45,3743.1804940,N,12208.0235060,W,1,0,0.0,-2.7629,M,0.0000,M,0.0000,0000*4a
$GPRMC,193814.45,A,3743.1804940,N,12208.0235060,W,52.2792,334.2008,070923,,,,A*57
$GPGGA,193815.45,3743.1936580,N,12208.0316180,W,1,0,0.0,-2.6263,M,0.0000,M,0.0000,0000*4f
$GPRMC,193815.45,A,3743.1936580,N,12208.0316180,W,53.1106,333.5663,070923,,,,A*5b
$GPGGA,193816.45,3743.2068880,N,12208.0399700,W,1,0,0.0,-2.5741,M,0.0000,M,0.0000,0000*4f
$GPRMC,193816.45,A,3743.2068880,N,12208.0399700,W,53.0691,332.9868,070923,,,,A*5d
$GPGGA,193817.45,3743.2199320,N,12208.0484480,W,1,0,0.0,-2.6255,M,0.0000,M,0.0000,0000*43
$GPRMC,193817.45,A,3743.2199320,N,12208.0484480,W,52.5053,332.2319,070923,,,,A*58
$GPGGA,193818.45,3743.2327480,N,12208.0570280,W,1,0,0.0,-2.7869,M,0.0000,M,0.0000,0000*4e
$GPRMC,193818.45,A,3743.2327480,N,12208.0570280,W,51.8901,331.6444,070923,,,,A*59
$GPGGA,193819.45,3743.2453540,N,12208.0656680,W,1,0,0.0,-3.0278,M,0.0000,M,0.0000,0000*49
$GPRMC,193819.45,A,3743.2453540,N,12208.0656680,W,51.3196,331.0619,070923,,,,A*53
$GPGGA,193820.45,3743.2577680,N,12208.0743740,W,1,0,0.0,-3.3497,M,0.0000,M,0.0000,0000*47
$GPRMC,193820.45,A,3743.2577680,N,12208.0743740,W,50.8242,330.5482,070923,,,,A*5d
$GPGGA,193821.45,3743.2699780,N,12208.0831820,W,1,0,0.0,-3.7666,M,0.0000,M,0.0000,0000*4f
$GPRMC,193821.45,A,3743.2699780,N,12208.0831820,W,50.4024,329.6529,070923,,,,A*58
$GPGGA,193822.45,3743.2819960,N,12208.0921520,W,1,0,0.0,-4.2665,M,0.0000,M,0.0000,0000*46
$GPRMC,193822.45,A,3743.2819960,N,12208.0921520,W,50.0506,328.9819,070923,,,,A*51
$GPGGA,193823.45,3743.2938940,N,12208.1011700,W,1,0,0.0,-4.8917,M,0.0000,M,0.0000,0000*4c
$GPRMC,193823.45,A,3743.2938940,N,12208.1011700,W,49.8029,328.8053,070923,,,,A*54
$GPGGA,193824.45,3743.3057020,N,12208.1102240,W,1,0,0.0,-5.6347,M,0.0000,M,0.0000,0000*47
$GPRMC,193824.45,A,3743.3057020,N,12208.1102240,W,49.6379,328.3462,070923,,,,A*5a
$GPGGA,193825.45,3743.3174440,N,12208.1192840,W,1,0,0.0,-6.3882,M,0.0000,M,0.0000,0000*43
$GPRMC,193825.45,A,3743.3174440,N,12208.1192840,W,49.4223,328.4694,070923,,,,A*5a
$GPGGA,193826.45,3743.3291920,N,12208.1283560,W,1,0,0.0,-7.1183,M,0.0000,M,0.0000,0000*44
$GPRMC,193826.45,A,3743.3291920,N,12208.1283560,W,49.8626,328.3536,070923,,,,A*57
$GPGGA,193827.45,3743.3411080,N,12208.1375480,W,1,0,0.0,-7.6521,M,0.0000,M,0.0000,0000*44
$GPRMC,193827.45,A,3743.3411080,N,12208.1375480,W,50.6269,328.3675,070923,,,,A*51
$GPGGA,193828.45,3743.3530900,N,12208.1468120,W,1,0,0.0,-7.9424,M,0.0000,M,0.0000,0000*47
$GPRMC,193828.45,A,3743.3530900,N,12208.1468120,W,50.3395,328.3997,070923,,,,A*5d
$GPGGA,193829.45,3743.3649580,N,12208.1560100,W,1,0,0.0,-8.0451,M,0.0000,M,0.0000,0000*40
$GPRMC,193829.45,A,3743.3649580,N,12208.1560100,W,50.0216,328.1138,070923,,,,A*58
$GPGGA,193830.45,3743.3768260,N,12208.1652500,W,1,0,0.0,-7.9972,M,0.0000,M,0.0000,0000*4f
$GPRMC,193830.45,A,3743.3768260,N,12208.1652500,W,50.3699,328.2729,070923,,,,A*58
$GPGGA,193831.45,3743.3888200,N,12208.1745140,W,1,0,0.0,-7.9716,M,0.0000,M,0.0000,0000*42
$GPRMC,193831.45,A,3743.3888200,N,12208.1745140,W,50.8376,328.4472,070923,,,,A*5d
$GPGGA,193832.45,3743.4009640,N,12208.1838020,W,1,0,0.0,-7.9786,M,0.0000,M,0.0000,0000*4c
$GPRMC,193832.45,A,3743.4009640,N,12208.1838020,W,51.3835,328.7172,070923,,,,A*5a
$GPGGA,193833.45,3743.4132760,N,12208.1931500,W,1,0,0.0,-8.0865,M,0.0000,M,0.0000,0000*4c
$GPRMC,193833.45,A,3743.4132760,N,12208.1931500,W,52.0239,328.7713,070923,,,,A*59
$GPGGA,193834.45,3743.4257920,N,12208.2024620,W,1,0,0.0,-8.1741,M,0.0000,M,0.0000,0000*46
$GPRMC,193834.45,A,3743.4257920,N,12208.2024620,W,52.3953,330.1202,070923,,,,A*55
$GPGGA,193835.45,3743.4385180,N,12208.2111740,W,1,0,0.0,-8.0015,M,0.0000,M,0.0000,0000*4c
$GPRMC,193835.45,A,3743.4385180,N,12208.2111740,W,51.7500,332.3984,070923,,,,A*50
$GPGGA,193836.45,3743.4513580,N,12208.2191660,W,1,0,0.0,-7.6252,M,0.0000,M,0.0000,0000*41
$GPRMC,193836.45,A,3743.4513580,N,12208.2191660,W,51.5130,334.5666,070923,,,,A*53
$GPGGA,193837.45,3743.4644200,N,12208.2265760,W,1,0,0.0,-7.0914,M,0.0000,M,0.0000,0000*48
$GPRMC,193837.45,A,3743.4644200,N,12208.2265760,W,51.5395,336.7291,070923,,,,A*54
$GPGGA,193838.45,3743.4776980,N,12208.2333260,W,1,0,0.0,-6.3757,M,0.0000,M,0.0000,0000*48
$GPRMC,193838.45,A,3743.4776980,N,12208.2333260,W,51.4369,338.8987,070923,,,,A*50
$GPGGA,193839.45,3743.4911260,N,12208.2394280,W,1,0,0.0,-5.5581,M,0.0000,M,0.0000,0000*4c
$GPRMC,193839.45,A,3743.4911260,N,12208.2394280,W,51.2857,341.0059,070923,,,,A*54
$GPGGA,193840.45,3743.5046740,N,12208.2449120,W,1,0,0.0,-4.7591,M,0.0000,M,0.0000,0000*43
$GPRMC,193840.45,A,3743.5046740,N,12208.2449120,W,51.1083,342.9902,070923,,,,A*56
$GPGGA,193841.45,3743.5183240,N,12208.2498020,W,1,0,0.0,-3.9990,M,0.0000,M,0.0000,0000*46
$GPRMC,193841.45,A,3743.5183240,N,12208.2498020,W,51.0090,345.0027,070923,,,,A*54
$GPGGA,193842.45,3743.5320940,N,12208.2540080,W,1,0,0.0,-3.3205,M,0.0000,M,0.0000,0000*46
$GPRMC,193842.45,A,3743.5320940,N,12208.2540080,W,50.9646,347.3751,070923,,,,A*5b
$GPGGA,193843.45,3743.5459720,N,12208.2575480,W,1,0,0.0,-2.7334,M,0.0000,M,0.0000,0000*42
$GPRMC,193843.45,A,3743.5459720,N,12208.2575480,W,50.9472,349.4070,070923,,,,A*51
$GPGGA,193844.45,3743.5599520,N,12208.2604580,W,1,0,0.0,-2.2029,M,0.0000,M,0.0000,0000*44
$GPRMC,193844.45,A,3743.5599520,N,12208.2604580,W,50.9997,351.2636,070923,,,,A*50
$GPGGA,193845.45,3743.5739980,N,12208.2629360,W,1,0,0.0,-1.6034,M,0.0000,M,0.0000,0000*47
$GPRMC,193845.45,A,3743.5739980,N,12208.2629360,W,50.9942,352.5803,070923,,,,A*5c
$GPGGA,193846.45,3743.5880860,N,12208.2650780,W,1,0,0.0,-1.1321,M,0.0000,M,0.0000,0000*42
$GPRMC,193846.45,A,3743.5880860,N,12208.2650780,W,51.0758,353.2068,070923,,,,A*57
$GPGGA,193847.45,3743.6022160,N,12208.2672020,W,1,0,0.0,-0.8256,M,0.0000,M,0.0000,0000*4d
$GPRMC,193847.45,A,3743.6022160,N,12208.2672020,W,51.2614,352.9817,070923,,,,A*50
$GPGGA,193848.45,3743.6163760,N,12208.2693620,W,1,0,0.0,-0.3798,M,0.0000,M,0.0000,0000*45
$GPRMC,193848.45,A,3743.6163760,N,12208.2693620,W,51.2578,352.9980,070923,,,,A*52
$GPGGA,193849.45,3743.6305000,N,12208.2714920,W,1,0,0.0,0.1780,M,0.0000,M,0.0000,0000*60
$GPRMC,193849.45,A,3743.6305000,N,12208.2714920,W,51.0210,353.1972,070923,,,,A*5e
$GPGGA,193850.45,3743.6445460,N,12208.2735800,W,1,0,0.0,0.8769,M,0.0000,M,0.0000,0000*67
$GPRMC,193850.45,A,3743.6445460,N,12208.2735800,W,50.6986,353.0298,070923,,,,A*5a
$GPGGA,193851.45,3743.6584960,N,12208.2757220,W,1,0,0.0,1.5396,M,0.0000,M,0.0000,0000*63
$GPRMC,193851.45,A,3743.6584960,N,12208.2757220,W,50.2204,352.9187,070923,,,,A*56
$GPGGA,193852.45,3743.6722540,N,12208.2779060,W,1,0,0.0,2.0827,M,0.0000,M,0.0000,0000*6d
$GPRMC,193852.45,A,3743.6722540,N,12208.2779060,W,49.6898,352.6234,070923,,,,A*58
$GPGGA,193853.45,3743.6859400,N,12208.2802040,W,1,0,0.0,2.4888,M,0.0000,M,0.0000,0000*6a
$GPRMC,193853.45,A,3743.6859400,N,12208.2802040,W,49.6841,351.9887,070923,,,,A*54
$GPGGA,193854.45,3743.6996800,N,12208.2827180,W,1,0,0.0,2.7621,M,0.0000,M,0.0000,0000*67
$GPRMC,193854.45,A,3743.6996800,N,12208.2827180,W,50.2188,351.3345,070923,,,,A*58
$GPGGA,193855.45,3743.7135520,N,12208.2854480,W,1,0,0.0,2.9192,M,0.0000,M,0.0000,0000*69
$GPRMC,193855.45,A,3743.7135520,N,12208.2854480,W,50.7431,350.7026,070923,,,,A*56
$GPGGA,193856.45,3743.7275560,N,12208.2884240,W,1,0,0.0,2.9829,M,0.0000,M,0.0000,0000*67
$GPRMC,193856.45,A,3743.7275560,N,12208.2884240,W,51.3461,349.8601,070923,,,,A*55
$GPGGA,193857.45,3743.7415540,N,12208.2917300,W,1,0,0.0,2.9500,M,0.0000,M,0.0000,0000*6c
$GPRMC,193857.45,A,3743.7415540,N,12208.2917300,W,50.9468,348.8437,070923,,,,A*5c
$GPGGA,193858.45,3743.7553540,N,12208.2952640,W,1,0,0.0,2.8645,M,0.0000,M,0.0000,0000*63
$GPRMC,193858.45,A,3743.7553540,N,12208.2952640,W,50.2852,348.1859,070923,,,,A*53
$GPGGA,193859.45,3743.7689500,N,12208.2988940,W,1,0,0.0,2.6372,M,0.0000,M,0.0000,0000*65
$GPRMC,193859.45,A,3743.7689500,N,12208.2988940,W,49.6609,347.7339,070923,,,,A*52
$GPGGA,193900.45,3743.7823600,N,12208.3026020,W,1,0,0.0,2.3675,M,0.0000,M,0.0000,0000*61
$GPRMC,193900.45,A,3743.7823600,N,12208.3026020,W,49.1158,347.4297,070923,,,,A*53
$GPGGA,193901.45,3743.7956140,N,12208.3063340,W,1,0,0.0,2.1730,M,0.0000,M,0.0000,0000*66
$GPRMC,193901.45,A,3743.7956140,N,12208.3063340,W,48.5190,347.2179,070923,,,,A*52
$GPGGA,193902.45,3743.8087000,N,12208.3100060,W,1,0,0.0,1.9950,M,0.0000,M,0.0000,0000*6c
$GPRMC,193902.45,A,3743.8087000,N,12208.3100060,W,47.9294,347.3172,070923,,,,A*55
$GPGGA,193903.45,3743.8216900,N,12208.3136780,W,1,0,0.0,1.9344,M,0.0000,M,0.0000,0000*6d
$GPRMC,193903.45,A,3743.8216900,N,12208.3136780,W,47.8824,347.1631,070923,,,,A*59
$GPGGA,193904.45,3743.8346920,N,12208.3173620,W,1,0,0.0,1.9414,M,0.0000,M,0.0000,0000*64
$GPRMC,193904.45,A,3743.8346920,N,12208.3173620,W,47.9338,347.2487,070923,,,,A*59
$GPGGA,193905.45,3743.8477120,N,12208.3210520,W,1,0,0.0,1.9174,M,0.0000,M,0.0000,0000*6e
$GPRMC,193905.45,A,3743.8477120,N,12208.3210520,W,48.0773,347.0312,070923,,,,A*54
$GPGGA,193906.45,3743.8607620,N,12208.3248320,W,1,0,0.0,1.8647,M,0.0000,M,0.0000,0000*62
$GPRMC,193906.45,A,3743.8607620,N,12208.3248320,W,48.2159,346.8436,070923,,,,A*5a
$GPGGA,193907.45,3743.8738300,N,12208.3286360,W,1,0,0.0,1.8733,M,0.0000,M,0.0000,0000*6d
$GPRMC,193907.45,A,3743.8738300,N,12208.3286360,W,48.1089,346.9584,070923,,,,A*51
$GPGGA,193908.45,3743.8867840,N,12208.3323380,W,1,0,0.0,1.8073,M,0.0000,M,0.0000,0000*6b
$GPRMC,193908.45,A,3743.8867840,N,12208.3323380,W,47.4554,347.1935,070923,,,,A*54
$GPGGA,193909.45,3743.8995640,N,12208.3359500,W,1,0,0.0,1.7894,M,0.0000,M,0.0000,0000*65
$GPRMC,193909.45,A,3743.8995640,N,12208.3359500,W,46.7720,347.2180,070923,,,,A*52
$GPGGA,193910.45,3743.9121700,N,12208.3395020,W,1,0,0.0,1.7589,M,0.0000,M,0.0000,0000*68
$GPRMC,193910.45,A,3743.9121700,N,12208.3395020,W,46.1240,347.3200,070923,,,,A*51
$GPGGA,193911.45,3743.9246320,N,12208.3430180,W,1,0,0.0,1.7295,M,0.0000,M,0.0000,0000*64
$GPRMC,193911.45,A,3743.9246320,N,12208.3430180,W,45.9446,347.1992,070923,,,,A*5e
$GPGGA,193912.45,3743.9372080,N,12208.3465220,W,1,0,0.0,1.7009,M,0.0000,M,0.0000,0000*66
$GPRMC,193912.45,A,3743.9372080,N,12208.3465220,W,46.6881,347.4775,070923,,,,A*52
$GPGGA,193913.45,3743.9499820,N,12208.3499960,W,1,0,0.0,1.6719,M,0.0000,M,0.0000,0000*6c
$GPRMC,193913.45,A,3743.9499820,N,12208.3499960,W,47.3315,347.9117,070923,,,,A*52
$GPGGA,193914.45,3743.9629660,N,12208.3533920,W,1,0,0.0,1.6424,M,0.0000,M,0.0000,0000*60
$GPRMC,193914.45,A,3743.9629660,N,12208.3533920,W,47.9370,348.3354,070923,,,,A*5a
$GPGGA,193915.45,3743.9760520,N,12208.3566860,W,1,0,0.0,1.6164,M,0.0000,M,0.0000,0000*6e
$GPRMC,193915.45,A,3743.9760520,N,12208.3566860,W,48.0216,348.7919,070923,,,,A*55
$GPGGA,193916.45,3743.9891680,N,12208.3598540,W,1,0,0.0,1.5789,M,0.0000,M,0.0000,0000*6d
$GPRMC,193916.45,A,3743.9891680,N,12208.3598540,W,48.0686,349.2058,070923,,,,A*55
