MessageType,Provider,LatitudeDegrees,LongitudeDegrees,AltitudeMeters,SpeedMps,AccuracyMeters,BearingDegrees,UnixTimeMillis,SpeedAccuracyMps,BearingAccuracyDegrees,elapsedRealtimeNanos,VerticalAccuracyMeters
Fix,GT,37.4273317000,-122.0699178000,-28.882800195133655,0.00034481322,0.1,180.61351,1597354929434,,,,
Fix,GT,37.4273317000,-122.0699178000,-28.882801055908203,0.0011428264,0.1,180.61299,1597354930434,,,,
Fix,GT,37.4273317000,-122.0699178000,-28.882800195133655,0.0014142136,0.099,180.613,1597354931434,,,,
Fix,GT,37.4273317000,-122.0699178000,-28.883799645787462,0.0017455823,0.1,180.61232,1597354932434,,,,
Fix,GT,37.4273317000,-122.0699178000,-28.884145130705747,0.0020813993,0.1,180.6125,1597354933434,,,,
Fix,GT,37.4273317000,-122.0699178000,-28.885801315307617,0.004375249,0.1,180.61314,1597354934434,,,,
Fix,GT,37.4273303000,-122.0699179000,-28.88945726217048,0.43396807,0.1,180.61693,1597354935434,,,,
Fix,GT,37.4273238000,-122.0699181000,-28.876455912995425,0.99229324,0.1,181.08826,1597354936434,,,,
Fix,GT,37.4273126000,-122.0699194000,-28.860456414983787,1.5038898,0.1,182.84705,1597354937434,,,,
Fix,GT,37.4272950000,-122.0699210000,-28.833766190193387,2.4869883,0.1,183.49251,1597354938434,,,,
Fix,GT,37.4272662000,-122.0699232000,-28.8047677201493,3.9833188,0.1,183.52013,1597354939434,,,,
Fix,GT,37.4272235000,-122.0699266000,-28.846524727346036,5.5486684,0.1,183.76926,1597354940434,,,,
Fix,GT,37.4271680000,-122.0699316000,-28.929559989789368,6.6142263,0.1,184.24318,1597354941434,,,,
Fix,GT,37.4271080000,-122.0699374000,-29.031593485884798,6.6452684,0.1,184.27824,1597354942434,,,,
Fix,GT,37.4270491000,-122.0699403000,-29.069456915269654,6.4350023,0.1,182.00098,1597354943434,,,,
Fix,GT,37.4269925000,-122.0699414000,-29.008420803616787,6.087417,0.1,180.97974,1597354944434,,,,
Fix,GT,37.4269410000,-122.0699423000,-28.93969672878046,5.183784,0.099,181.00735,1597354945434,,,,
Fix,GT,37.4269012000,-122.0699468000,-28.8930772703809,3.7170224,0.1,187.04065,1597354946434,,,,
Fix,GT,37.4268736000,-122.0699616000,-28.880145420265308,3.0542107,0.1,202.8627,1597354947434,,,,
Fix,GT,37.4268569000,-122.0699886000,-28.904455791401688,2.8644588,0.1,228.42302,1597354948434,,,,
Fix,GT,37.4268516000,-122.0700215000,-28.92618088693797,2.9705691,0.1,253.44814,1597354949434,,,,
Fix,GT,37.4268481000,-122.0700585000,-28.970213820365416,3.586341,0.1,260.2137,1597354950434,,,,
Fix,GT,37.4268363000,-122.0700991000,-28.985112655966248,4.036808,0.1,248.41624,1597354951434,,,,
Fix,GT,37.4268082000,-122.0701321000,-29.004455308669492,4.3935275,0.1,221.67744,1597354952434,,,,
Fix,GT,37.4267683000,-122.0701475000,-28.832215238598337,4.8941436,0.1,196.46196,1597354953434,,,,
Fix,GT,37.4267196000,-122.0701498000,-29.01845611219369,6.0050178,0.1,181.07368,1597354954434,,,,
Fix,GT,37.4266606000,-122.0701482000,-29.162009148874517,7.0654535,0.1,178.81488,1597354955434,,,,
Fix,GT,37.4265942000,-122.0701463000,-29.292730889849736,7.4852996,0.1,178.58083,1597354956434,,,,
Fix,GT,37.4265275000,-122.0701452000,-29.186249393406456,7.255418,0.1,179.61497,1597354957434,,,,
Fix,GT,37.4264628000,-122.0701459000,-29.03031961704471,7.253637,0.1,180.58907,1597354958434,,,,
Fix,GT,37.4263942000,-122.0701468000,-28.740525684981037,8.090188,0.1,180.49742,1597354959434,,,,
Fix,GT,37.4263172000,-122.0701472000,-28.972938946515228,9.051628,0.1,180.08455,1597354960434,,,,
Fix,GT,37.4262315000,-122.0701465000,-29.271835167923996,9.880006,0.1,179.57985,1597354961434,,,,
Fix,GT,37.4261411000,-122.0701448000,-29.211144828186946,10.053347,0.1,179.09746,1597354962434,,,,
Fix,GT,37.4260514000,-122.0701433000,-29.078627522886507,9.874241,0.1,179.3039,1597354963434,,,,
Fix,GT,37.4259628000,-122.0701424000,-29.24997253859783,9.801203,0.1,179.8284,1597354964434,,,,
Fix,GT,37.4258760000,-122.0701453000,-29.128800731961576,9.453856,0.1,182.00171,1597354965434,,,,
Fix,GT,37.4257921000,-122.0701492000,-28.98293830782785,9.239193,0.1,182.34508,1597354966434,,,,
Fix,GT,37.4257089000,-122.0701514000,-29.1530748607272,9.220776,0.1,180.64781,1597354967434,,,,
Fix,GT,37.4256277000,-122.0701505000,-29.00993952264946,8.792506,0.1,178.8495,1597354968434,,,,
Fix,GT,37.4255500000,-122.0701474000,-28.714730784377934,8.508489,0.1,178.51375,1597354969434,,,,
Fix,GT,37.4254729000,-122.0701483000,-28.819627604896596,8.606828,0.1,181.48862,1597354970434,,,,
Fix,GT,37.4253951000,-122.0701527000,-29.033110880825916,8.689247,0.1,182.67815,1597354971434,,,,
Fix,GT,37.4253179000,-122.0701542000,-29.04642091805715,8.4212265,0.1,179.95126,1597354972434,,,,
Fix,GT,37.4252448000,-122.0701529000,-28.90449086620822,7.6703377,0.1,179.11194,1597354973434,,,,
Fix,GT,37.4251813000,-122.0701516000,-28.995215335396324,6.35874,0.1,178.86963,1597354974434,,,,
Fix,GT,37.4251288000,-122.0701447000,-29.124971658690697,5.5358553,0.1,171.80115,1597354975434,,,,
Fix,GT,37.4250849000,-122.0701210000,-29.238282730418007,5.1351166,0.1,152.40904,1597354976434,,,,
Fix,GT,37.4250571000,-122.0700780000,-29.191283653536175,4.6062727,0.1,125.49137,1597354977434,,,,
Fix,GT,37.4250470000,-122.0700296000,-29.036593559852065,4.16124,0.1,105.0805,1597354978434,,,,
Fix,GT,37.4250384000,-122.0699869000,-28.886663044421766,3.6110725,0.1,106.867935,1597354979434,,,,
Fix,GT,37.4250197000,-122.0699567000,-28.70435363149204,3.196127,0.1,127.60213,1597354980434,,,,
Fix,GT,37.4249920000,-122.0699418000,-28.67066258836263,3.4253721,0.1,154.17099,1597354981434,,,,
Fix,GT,37.4249585000,-122.0699454000,-28.62738713196177,4.0002565,0.1,184.34991,1597354982434,,,,
Fix,GT,37.4249230000,-122.0699738000,-28.600008262798838,5.250959,0.1,214.11049,1597354983434,,,,
Fix,GT,37.4248935000,-122.0700281000,-28.515490925216,6.4304113,0.1,240.5395,1597354984434,,,,
Fix,GT,37.4248808000,-122.0701056000,-28.662593587650917,7.529339,0.1,262.32635,1597354985434,,,,
Fix,GT,37.4248788000,-122.0701947000,-28.749905137289318,8.239044,0.1,269.45938,1597354986434,,,,
Fix,GT,37.4248793000,-122.0702913000,-28.75549069609565,8.8719015,0.1,270.32993,1597354987434,,,,
Fix,GT,37.4248800000,-122.0703960000,-28.865593090528193,9.702714,0.1,270.79712,1597354988434,,,,
Fix,GT,37.4248813000,-122.0705115000,-28.90455823473428,10.753234,0.1,270.6735,1597354989434,,,,
Fix,GT,37.4248811000,-122.0706380000,-28.946870370938086,11.578641,0.1,269.75946,1597354990434,,,,
Fix,GT,37.4248800000,-122.0707719000,-29.006317443424393,12.094645,0.1,269.4048,1597354991434,,,,
Fix,GT,37.4248787000,-122.0709112000,-29.031145528693685,12.576205,0.1,269.37885,1597354992434,,,,
Fix,GT,37.4248780000,-122.0710551000,-28.957422128507915,12.791555,0.1,269.95953,1597354993434,,,,
Fix,GT,37.4248787000,-122.0711981000,-28.917388050826958,12.551655,0.1,270.5933,1597354994434,,,,
Fix,GT,37.4248802000,-122.0713409000,-28.870697374825795,12.732862,0.1,270.8503,1597354995434,,,,
Fix,GT,37.4248815000,-122.0714863000,-28.811386292048837,13.008316,0.1,270.54126,1597354996434,,,,
Fix,GT,37.4248821000,-122.0716342000,-28.758869987922935,13.092389,0.1,270.25357,1597354997434,,,,
Fix,GT,37.4248828000,-122.0717813000,-28.699388494011373,12.947841,0.1,270.35666,1597354998434,,,,
Fix,GT,37.4248829000,-122.0719277000,-28.666385838606516,12.993892,0.1,269.89523,1597354999434,,,,
Fix,GT,37.4248824000,-122.0720746000,-28.644835255659473,12.967241,0.1,269.66617,1597355000434,,,,
Fix,GT,37.4248817000,-122.0722206000,-28.684523858136004,12.922386,0.1,269.76617,1597355001434,,,,
Fix,GT,37.4248813000,-122.0723664000,-28.726490709808786,12.886784,0.1,269.81097,1597355002434,,,,
Fix,GT,37.4248807000,-122.0725124000,-28.780525584636337,12.949397,0.1,269.63034,1597355003434,,,,
Fix,GT,37.4248799000,-122.0726590000,-28.82490293541224,13.002459,0.1,269.55798,1597355004434,,,,
Fix,GT,37.4248791000,-122.0728065000,-28.895834707237213,13.113461,0.1,269.69257,1597355005434,,,,
Fix,GT,37.4248785000,-122.0729555000,-28.925902765628507,13.218557,0.099,269.74612,1597355006434,,,,
Fix,GT,37.4248780000,-122.0731048000,-28.887455595479878,13.179928,0.1,269.8291,1597355007434,,,,
Fix,GT,37.4248779000,-122.0732537000,-28.8295251726513,13.203142,0.1,270.03452,1597355008434,,,,
Fix,GT,37.4248776000,-122.0734034000,-28.759629074982513,13.303669,0.1,269.4715,1597355009434,,,,
Fix,GT,37.4248756000,-122.0735544000,-28.70055902128098,13.450973,0.1,269.1684,1597355010434,,,,
Fix,GT,37.4248737000,-122.0737069000,-28.590697933027172,13.539904,0.1,269.27542,1597355011434,,,,
Fix,GT,37.4248715000,-122.0738599000,-28.536696885388835,13.543706,0.1,268.87488,1597355012434,,,,
Fix,GT,37.4248711000,-122.0740135000,-28.5431455248131,13.655678,0.1,270.91418,1597355013434,,,,
Fix,GT,37.4248738000,-122.0741684000,-28.611801147460938,13.746693,0.1,271.3704,1597355014434,,,,
Fix,GT,37.4248747000,-122.0743237000,-28.67814489917879,13.789154,0.1,270.02063,1597355015434,,,,
Fix,GT,37.4248744000,-122.0744803000,-28.771179130667008,13.90933,0.1,270.26913,1597355016434,,,,
Fix,GT,37.4248753000,-122.0746374000,-28.82821551683287,13.88912,0.1,270.55853,1597355017434,,,,
Fix,GT,37.4248763000,-122.0747933000,-28.929835105932852,13.6811905,0.1,270.59155,1597355018434,,,,
Fix,GT,37.4248774000,-122.0749461000,-28.82307586521165,13.33576,0.1,270.6339,1597355019434,,,,
Fix,GT,37.4248784000,-122.0750949000,-28.760420763627394,13.04327,0.1,270.57187,1597355020434,,,,
Fix,GT,37.4248789000,-122.0752410000,-28.704386792096102,12.815383,0.1,270.1731,1597355021434,,,,
Fix,GT,37.4248787000,-122.0753846000,-28.652801513671875,12.646662,0.1,270.01868,1597355022434,,,,
Fix,GT,37.4248788000,-122.0755271000,-28.63214537404872,12.570526,0.1,270.24564,1597355023434,,,,
Fix,GT,37.4248788000,-122.0756685000,-28.596558939502927,12.473814,0.099,269.89352,1597355024434,,,,
Fix,GT,37.4248784000,-122.0758091000,-28.64749004352126,12.425381,0.1,269.94244,1597355025434,,,,
Fix,GT,37.4248781000,-122.0759491000,-28.71017956152167,12.376351,0.1,270.02023,1597355026434,,,,
Fix,GT,37.4248780000,-122.0760891000,-28.768662088664428,12.426773,0.1,269.9,1597355027434,,,,
Fix,GT,37.4248776000,-122.0762301000,-28.862282644111815,12.509687,0.1,269.6976,1597355028434,,,,
Fix,GT,37.4248767000,-122.0763708000,-28.957179295714695,12.380956,0.1,269.4827,1597355029434,,,,
Fix,GT,37.4248755000,-122.0765093000,-28.989146193331692,12.105404,0.1,269.43185,1597355030434,,,,
Fix,GT,37.4248750000,-122.0766458000,-28.945456158327488,12.0678005,0.1,269.92984,1597355031434,,,,
Fix,GT,37.4248753000,-122.0767821000,-28.891042435785266,12.006166,0.1,270.40063,1597355032434,,,,
Fix,GT,37.4248763000,-122.0769163000,-28.784663086027194,11.741009,0.1,270.5725,1597355033434,,,,
Fix,GT,37.4248770000,-122.0770471000,-28.72035245453833,11.420685,0.1,270.18915,1597355034434,,,,
Fix,GT,37.4248768000,-122.0771740000,-28.66314551152624,11.039946,0.1,269.73615,1597355035434,,,,
Fix,GT,37.4248759000,-122.0772959000,-28.706560015891057,10.545962,0.1,269.33755,1597355036434,,,,
Fix,GT,37.4248730000,-122.0774110000,-28.839282594609585,9.721149,0.1,267.48697,1597355037434,,,,
Fix,GT,37.4248677000,-122.0775131000,-29.00342075635183,8.323496,0.1,265.80127,1597355038434,,,,
Fix,GT,37.4248613000,-122.0775977000,-29.17200726400347,6.7445364,0.1,263.7698,1597355039434,,,,
Fix,GT,37.4248549000,-122.0776638000,-29.317938051438546,4.937732,0.1,263.34296,1597355040434,,,,
Fix,GT,37.4248515000,-122.0777079000,-29.404524413414663,2.9179516,0.1,264.90182,1597355041434,,,,
Fix,GT,37.4248512000,-122.0777310000,-29.450144895125845,1.2283256,0.1,267.79517,1597355042434,,,,
Fix,GT,37.4248514000,-122.0777377000,-29.46914612228875,0.17181806,0.1,268.76532,1597355043434,,,,
Fix,GT,37.4248514000,-122.0777383000,-29.475801467895508,0.049044643,0.1,268.85165,1597355044434,,,,
Fix,GT,37.4248515000,-122.0777389000,-29.476801797056225,0.055667724,0.1,268.92813,1597355045434,,,,
Fix,GT,37.4248515000,-122.0777395000,-29.477800369262695,0.042977206,0.1,268.99304,1597355046434,,,,
Fix,GT,37.4248515000,-122.0777397000,-29.479147230034982,0.005199615,0.1,269.0125,1597355047434,,,,
Fix,GT,37.4248516000,-122.0777426000,-29.489146209665307,0.6818987,0.1,269.3369,1597355048434,,,,
Fix,GT,37.4248519000,-122.0777582000,-29.530215200332123,2.22547,0.1,269.9101,1597355049434,,,,
Fix,GT,37.4248521000,-122.0777933000,-29.582904496124,3.9487119,0.1,270.19012,1597355050434,,,,
Fix,GT,37.4248517000,-122.0778466000,-29.72021382871003,5.4583645,0.1,269.115,1597355051434,,,,
Fix,GT,37.4248447000,-122.0779124000,-29.816697541962412,6.0605125,0.1,259.73932,1597355052434,,,,
Fix,GT,37.4248229000,-122.0779740000,-29.924146046947953,5.975368,0.1,242.52267,1597355053434,,,,
Fix,GT,37.4247851000,-122.0780275000,-29.81500712506306,6.8225937,0.1,225.29976,1597355054434,,,,
Fix,GT,37.4247296000,-122.0780732000,-29.71638869264399,7.897049,0.1,208.65013,1597355055434,,,,
Fix,GT,37.4246576000,-122.0781004000,-29.77866319772818,8.849657,0.1,192.62418,1597355056434,,,,
Fix,GT,37.4245743000,-122.0781089000,-29.786387500318597,9.744558,0.1,181.53325,1597355057434,,,,
Fix,GT,37.4244825000,-122.0781058000,-29.77004301433317,10.653643,0.1,177.35477,1597355058434,,,,
Fix,GT,37.4243837000,-122.0780985000,-29.683180002142194,11.212062,0.1,176.39745,1597355059434,,,,
Fix,GT,37.4242822000,-122.0780897000,-29.670077711844215,11.265641,0.1,175.75327,1597355060434,,,,
Fix,GT,37.4241820000,-122.0780799000,-29.633801389747873,11.01425,0.1,175.54724,1597355061434,,,,
Fix,GT,37.4240840000,-122.0780709000,-29.620454509730166,10.777866,0.1,175.99976,1597355062434,,,,
Fix,GT,37.4239897000,-122.0780634000,-29.544386035957643,10.173322,0.1,176.30443,1597355063434,,,,
Fix,GT,37.4239013000,-122.0780540000,-29.51476594050905,9.474266,0.1,174.67168,1597355064434,,,,
Fix,GT,37.4238213000,-122.0780443000,-29.47338776997003,8.315048,0.1,174.55518,1597355065434,,,,
Fix,GT,37.4237521000,-122.0780369000,-29.444456046683854,7.1416216,0.1,175.32156,1597355066434,,,,
Fix,GT,37.4236938000,-122.0780320000,-29.429766854963418,5.76238,0.1,176.57356,1597355067434,,,,
Fix,GT,37.4236491000,-122.0780296000,-29.414144943045187,4.1679,0.1,177.63101,1597355068434,,,,
Fix,GT,37.4236183000,-122.0780280000,-29.41080181034806,2.8065891,0.1,177.76715,1597355069434,,,,
Fix,GT,37.4235949000,-122.0780270000,-29.403111053558405,2.3790355,0.1,177.78574,1597355070434,,,,
Fix,GT,37.4235767000,-122.0780261000,-29.396800118780106,1.6170657,0.1,177.79176,1597355071434,,,,
Fix,GT,37.4235666000,-122.0780256000,-29.396147046957935,0.5906248,0.1,177.82257,1597355072434,,,,
Fix,GT,37.4235649000,-122.0780255000,-29.409833786650893,0.030224077,0.1,177.8352,1597355073434,,,,
Fix,GT,37.4235643000,-122.0780254000,-29.414146696661362,0.087430775,0.1,177.83829,1597355074434,,,,
Fix,GT,37.4235638000,-122.0780254000,-29.41680145263672,0.0036207347,0.1,177.84203,1597355075434,,,,
Fix,GT,37.4235638000,-122.0780254000,-29.419800835257718,0.0025595163,0.1,177.8422,1597355076434,,,,
Fix,GT,37.4235638000,-122.0780254000,-29.42180061340332,0.0017980111,0.1,177.84042,1597355077434,,,,
Fix,GT,37.4235638000,-122.0780254000,-29.423145348924436,0.0012713859,0.1,177.84106,1597355078434,,,,
Fix,GT,37.4235638000,-122.0780254000,-29.423800545221525,0.0,0.1,177.84102,1597355079434,,,,
Fix,GT,37.4235638000,-122.0780254000,-29.42380142211914,0.0003448167,0.1,177.84097,1597355080434,,,,
Fix,GT,37.4235638000,-122.0780254000,-29.424800872802734,0.001,0.1,177.84097,1597355081434,,,,
Fix,GT,37.4235638000,-122.0780254000,-29.42514462323595,0.0011428278,0.1,177.84079,1597355082434,,,,
Fix,GT,37.4235638000,-122.0780254000,-29.426800804531524,0.0,0.1,177.84065,1597355083434,,,,
Fix,GT,37.4235638000,-122.0780254000,-29.42780113220215,0.00065518304,0.1,177.84062,1597355084434,,,,
Fix,GT,37.4235638000,-122.0780254000,-29.428800582885742,0.0009265687,0.1,177.84055,1597355085434,,,,
Fix,GT,37.4235638000,-122.0780254000,-29.429799156492948,0.0022360678,0.1,177.84044,1597355086434,,,,
Fix,GT,37.4235625000,-122.0780253000,-29.43414627868924,0.4635225,0.1,177.85568,1597355087434,,,,
Fix,GT,37.4235527000,-122.0780248000,-29.441456443419156,1.7775633,0.1,177.92912,1597355088434,,,,
Fix,GT,37.4235300000,-122.0780241000,-29.43645449792956,3.3509622,0.1,178.36781,1597355089434,,,,
Fix,GT,37.4234925000,-122.0780233000,-29.42011124917974,4.9450006,0.1,178.9666,1597355090434,,,,
Fix,GT,37.4234391000,-122.0780227000,-29.415145271907022,6.934539,0.1,179.64206,1597355091434,,,,
Fix,GT,37.4233684000,-122.0780233000,-29.39780044555664,8.70186,0.1,180.7126,1597355092434,,,,
Fix,GT,37.4232840000,-122.0780248000,-29.390422006072413,10.070728,0.1,180.77591,1597355093434,,,,
Fix,GT,37.4231871000,-122.0780260000,-29.30538658002297,11.351596,0.1,180.57466,1597355094434,,,,
Fix,GT,37.4230793000,-122.0780298000,-29.231696497281007,12.650158,0.1,182.19174,1597355095434,,,,
Fix,GT,37.4229601000,-122.0780383000,-29.203799331074947,13.767004,0.1,183.81155,1597355096434,,,,
Fix,GT,37.4228315000,-122.0780493000,-29.18407675206879,14.861374,0.1,183.57379,1597355097434,,,,
Fix,GT,37.4226930000,-122.0780596000,-29.13214623374688,15.910599,0.1,183.4601,1597355098434,,,,
Fix,GT,37.4225463000,-122.0780713000,-29.07773247222326,16.704533,0.1,183.79474,1597355099434,,,,
Fix,GT,37.4223930000,-122.0780855000,-29.026318968430132,17.396498,0.1,184.43227,1597355100434,,,,
Fix,GT,37.4222356000,-122.0781001000,-28.94000622018234,17.56307,0.099,183.59418,1597355101434,,,,
Fix,GT,37.4220779000,-122.0781089000,-28.89683694958984,17.477524,0.1,181.45805,1597355102434,,,,
Fix,GT,37.4219210000,-122.0781084000,-28.82638734325451,17.28979,0.1,178.7379,1597355103434,,,,
Fix,GT,37.4217668000,-122.0781000000,-28.787730696368214,16.911581,0.1,176.26755,1597355104434,,,,
Fix,GT,37.4216175000,-122.0780819000,-28.717181268853153,16.374847,0.1,173.21777,1597355105434,,,,
Fix,GT,37.4214740000,-122.0780589000,-28.685800552368164,15.708412,0.1,172.47702,1597355106434,,,,
Fix,GT,37.4213374000,-122.0780365000,-28.60845540630504,14.95724,0.1,172.85553,1597355107434,,,,
Fix,GT,37.4212043000,-122.0780200000,-28.59407659590522,14.819752,0.1,175.74422,1597355108434,,,,
Fix,GT,37.4210701000,-122.0780131000,-28.529386653193626,14.985191,0.1,178.90932,1597355109434,,,,
Fix,GT,37.4209335000,-122.0780124000,-28.451767053022934,15.365525,0.1,180.17393,1597355110434,,,,
Fix,GT,37.4207931000,-122.0780135000,-28.419075853404195,15.856057,0.1,180.42899,1597355111434,,,,
Fix,GT,37.4206477000,-122.0780153000,-28.344904382931645,16.40272,0.1,180.7225,1597355112434,,,,
Fix,GT,37.4204976000,-122.0780177000,-28.15300748698985,16.937124,0.1,180.72025,1597355113434,,,,
Fix,GT,37.4203420000,-122.0780201000,-28.239593752911844,17.619545,0.1,180.71725,1597355114434,,,,
Fix,GT,37.4201804000,-122.0780224000,-28.362285150199625,18.210588,0.1,180.5472,1597355115434,,,,
Fix,GT,37.4200139000,-122.0780244000,-28.433558896672707,18.760532,0.1,180.57497,1597355116434,,,,
Fix,GT,37.4198424000,-122.0780262000,-28.49086999134454,19.271557,0.1,180.30057,1597355117434,,,,
Fix,GT,37.4196672000,-122.0780271000,-28.43159473778576,19.570425,0.1,180.13724,1597355118434,,,,
Fix,GT,37.4194906000,-122.0780282000,-28.315041324585707,19.612457,0.1,180.46738,1597355119434,,,,
Fix,GT,37.4193137000,-122.0780298000,-28.202628241797186,19.664461,0.099,180.26425,1597355120434,,,,
Fix,GT,37.4191363000,-122.0780309000,-28.109661679548196,19.70286,0.099,180.30035,1597355121434,,,,
Fix,GT,37.4189580000,-122.0780321000,-27.992767403766322,19.884056,0.1,180.22809,1597355122434,,,,
Fix,GT,37.4187783000,-122.0780331000,-27.927663309788954,20.005135,0.1,180.21147,1597355123434,,,,
Fix,GT,37.4185983000,-122.0780341000,-27.85559368898845,19.92731,0.1,180.3865,1597355124434,,,,
Fix,GT,37.4184191000,-122.0780372000,-27.803559337605293,19.88331,0.1,180.93356,1597355125434,,,,
Fix,GT,37.4182391000,-122.0780432000,-27.72714637506266,20.104969,0.1,183.0315,1597355126434,,,,
Fix,GT,37.4180584000,-122.0780612000,-27.659731945688577,20.17914,0.1,185.24893,1597355127434,,,,
Fix,GT,37.4178762000,-122.0780824000,-27.583972976869063,20.406372,0.1,184.87247,1597355128434,,,,
Fix,GT,37.4176915000,-122.0780972000,-27.50831886991068,20.671461,0.1,182.77794,1597355129434,,,,
Fix,GT,37.4175046000,-122.0781054000,-27.417388801869663,20.82736,0.1,181.14043,1597355130434,,,,
Fix,GT,37.4173163000,-122.0781075000,-27.322663104854655,20.966087,0.1,180.17845,1597355131434,,,,
Fix,GT,37.4171273000,-122.0781081000,-27.257422139680614,20.992964,0.1,180.05447,1597355132434,,,,
Fix,GT,37.4169387000,-122.0781086000,-27.133421462789443,20.822771,0.1,180.1704,1597355133434,,,,
Fix,GT,37.4167538000,-122.0781095000,-26.990594740170195,20.103931,0.1,180.31534,1597355134434,,,,
Fix,GT,37.4165783000,-122.0781107000,-26.867421962798744,18.829948,0.1,180.33784,1597355135434,,,,
Fix,GT,37.4164162000,-122.0781122000,-26.689456427351274,17.080833,0.1,180.48799,1597355136434,,,,
Fix,GT,37.4162700000,-122.0781139000,-26.606352059596247,15.3055725,0.1,180.59195,1597355137434,,,,
Fix,GT,37.4161413000,-122.0781166000,-26.51635269706196,13.22604,0.1,181.23973,1597355138434,,,,
Fix,GT,37.4160327000,-122.0781210000,-26.43873330927414,10.911196,0.1,182.1922,1597355139434,,,,
Fix,GT,37.4159437000,-122.0781270000,-26.40090409463471,8.889427,0.1,183.43095,1597355140434,,,,
Fix,GT,37.4158726000,-122.0781328000,-26.36211212230478,6.985347,0.1,183.66377,1597355141434,,,,
Fix,GT,37.4158169000,-122.0781363000,-26.340766139646917,5.3749294,0.1,182.69945,1597355142434,,,,
Fix,GT,37.4157757000,-122.0781382000,-26.324077379752453,3.8565412,0.1,181.9598,1597355143434,,,,
Fix,GT,37.4157488000,-122.0781393000,-26.325145779871036,2.185922,0.1,181.95845,1597355144434,,,,
Fix,GT,37.4157333000,-122.0781400000,-26.329145490073415,1.2883451,0.1,181.86903,1597355145434,,,,
Fix,GT,37.4157254000,-122.0781400000,-26.38018052737675,0.53214407,0.1,181.79668,1597355146434,,,,
Fix,GT,37.4157217000,-122.0781401000,-26.39580233084564,0.31320962,0.1,181.76114,1597355147434,,,,
Fix,GT,37.4157196000,-122.0781402000,-26.402802300536678,0.21987495,0.1,181.74393,1597355148434,,,,
Fix,GT,37.4157171000,-122.0781403000,-26.40580177307129,0.2930147,0.1,181.70934,1597355149434,,,,
Fix,GT,37.4157148000,-122.0781404000,-26.408145305641483,0.21461919,0.1,181.67358,1597355150434,,,,
Fix,GT,37.4157131000,-122.0781404000,-26.413801980429923,0.2830913,0.1,181.64798,1597355151434,,,,
Fix,GT,37.4157073000,-122.0781406000,-26.41680145263672,1.1607363,0.1,181.58296,1597355152434,,,,
Fix,GT,37.4156869000,-122.0781412000,-26.416767138882904,3.6198075,0.1,181.5323,1597355153434,,,,
Fix,GT,37.4156412000,-122.0781424000,-26.39849036601356,6.345714,0.1,180.91583,1597355154434,,,,
Fix,GT,37.4155739000,-122.0781430000,-26.363422223401585,8.503311,0.1,180.41237,1597355155434,,,,
Fix,GT,37.4154911000,-122.0781430000,-26.319386496457355,9.806759,0.1,179.80913,1597355156434,,,,
Fix,GT,37.4153968000,-122.0781423000,-26.25438786891391,11.056961,0.1,179.48712,1597355157434,,,,
Fix,GT,37.4152932000,-122.0781416000,-26.15704167725113,11.845938,0.1,179.75809,1597355158434,,,,
Fix,GT,37.4151852000,-122.0781424000,-26.040041758598022,12.011408,0.1,180.92163,1597355159434,,,,
Fix,GT,37.4150780000,-122.0781486000,-25.92362770462438,11.771802,0.1,183.58318,1597355160434,,,,
Fix,GT,37.4149696000,-122.0781588000,-25.841698060865156,12.672521,0.1,184.43124,1597355161434,,,,
Fix,GT,37.4148504000,-122.0781685000,-25.71418080966805,13.622575,0.1,183.02754,1597355162434,,,,
Fix,GT,37.4147277000,-122.0781750000,-25.56493951376291,13.597498,0.1,181.90733,1597355163434,,,,
Fix,GT,37.4146078000,-122.0781778000,-25.429628234569407,12.866991,0.1,180.48666,1597355164434,,,,
Fix,GT,37.4144963000,-122.0781781000,-25.18693773845041,11.881794,0.1,179.94557,1597355165434,,,,
Fix,GT,37.4143936000,-122.0781776000,-25.027663008531817,11.053973,0.1,179.72795,1597355166434,,,,
Fix,GT,37.4142973000,-122.0781762000,-24.92331754242315,10.279797,0.1,179.28699,1597355167434,,,,
Fix,GT,37.4142088000,-122.0781749000,-24.83366268221937,9.299174,0.1,179.49817,1597355168434,,,,
Fix,GT,37.4141313000,-122.0781747000,-24.719663838120425,7.684903,0.1,180.1186,1597355169434,,,,
Fix,GT,37.4140733000,-122.0781753000,-24.626697134018514,5.273799,0.1,180.56682,1597355170434,,,,
Fix,GT,37.4140335000,-122.0781758000,-24.555732574037563,3.6741033,0.1,180.51942,1597355171434,,,,
Fix,GT,37.4140063000,-122.0781760000,-24.515768010511238,2.4735272,0.1,180.3566,1597355172434,,,,
Fix,GT,37.4139860000,-122.0781760000,-24.482422431296868,2.1640768,0.1,180.21759,1597355173434,,,,
Fix,GT,37.4139678000,-122.0781760000,-24.446077113198953,1.8046963,0.1,180.11978,1597355174434,,,,
Fix,GT,37.4139549000,-122.0781759000,-24.420111968210904,0.99289477,0.1,180.04659,1597355175434,,,,
Fix,GT,37.4139495000,-122.0781759000,-24.41680072495933,0.3211742,0.1,180.00116,1597355176434,,,,
Fix,GT,37.4139485000,-122.0781759000,-24.417490717425608,0.0098573975,0.1,179.98932,1597355177434,,,,
Fix,GT,37.4139482000,-122.0781759000,-24.417801631027487,0.043046486,0.1,179.98672,1597355178434,,,,
Fix,GT,37.4139479000,-122.0781759000,-24.417800903320312,0.030660924,0.1,179.98415,1597355179434,,,,
Fix,GT,37.4139478000,-122.0781759000,-24.417800175613138,0.011952536,0.099,179.98286,1597355180434,,,,
Fix,GT,37.4139477000,-122.0781759000,-24.41680145263672,0.001655178,0.1,179.98116,1597355181434,,,,
Fix,GT,37.4139477000,-122.0781759000,-24.415800822252038,0.003451143,0.1,179.9817,1597355182434,,,,
Fix,GT,37.4139477000,-122.0781759000,-24.415800822252038,0.00404245,0.1,179.98169,1597355183434,,,,
Fix,GT,37.4139477000,-122.0781759000,-24.415799366956946,0.0041231057,0.1,179.98146,1597355184434,,,,
Fix,GT,37.4139477000,-122.0781759000,-24.415799366956946,0.0037111347,0.1,179.98122,1597355185434,,,,
Fix,GT,37.4139477000,-122.0781759000,-24.415800822252038,0.0030000003,0.1,179.9811,1597355186434,,,,
Fix,GT,37.4139477000,-122.0781759000,-24.415800094604492,0.002,0.1,179.98097,1597355187434,,,,
Fix,GT,37.4139477000,-122.0781759000,-24.415800822252038,0.0016162058,0.1,179.9809,1597355188434,,,,
Fix,GT,37.4139477000,-122.0781759000,-24.415800094604492,0.0011428301,0.1,179.98088,1597355189434,,,,
Fix,GT,37.4139477000,-122.0781759000,-24.415799366956946,0.0,0.1,179.98067,1597355190434,,,,
Fix,GT,37.4139477000,-122.0781759000,-24.415800094604492,0.0006551775,0.1,179.98032,1597355191434,,,,
Fix,GT,37.4139477000,-122.0781759000,-24.415800094604492,0.001,0.1,179.98021,1597355192434,,,,
Fix,GT,37.4139477000,-122.0781759000,-24.415800094604492,0.00065517746,0.1,179.98018,1597355193434,,,,
Fix,GT,37.4139477000,-122.0781759000,-24.415800094604492,0.001,0.1,179.97997,1597355194434,,,,
Fix,GT,37.4139477000,-122.0781759000,-24.41680145263672,0.0014142136,0.1,179.97983,1597355195434,,,,
Fix,GT,37.4139477000,-122.0781759000,-24.41714535827714,0.00034482277,0.1,179.97963,1597355196434,,,,
Fix,GT,37.4139477000,-122.0781759000,-24.418799626266946,0.0014142136,0.1,179.97949,1597355197434,,,,
Fix,GT,37.4139477000,-122.0781759000,-24.420801162719727,0.0020814016,0.1,179.97932,1597355198434,,,,
Fix,GT,37.4139477000,-122.0781759000,-24.42380142211914,0.0020814016,0.1,179.97923,1597355199434,,,,
Fix,GT,37.4139470000,-122.0781759000,-24.42979930550456,0.29872385,0.1,179.97217,1597355200434,,,,
Fix,GT,37.4139410000,-122.0781759000,-24.430144596758282,1.1816418,0.1,179.91351,1597355201434,,,,
Fix,GT,37.4139213000,-122.0781757000,-24.417456269794002,3.2287083,0.1,179.77028,1597355202434,,,,
Fix,GT,37.4138808000,-122.0781753000,-24.362799872076494,5.725617,0.1,179.5036,1597355203434,,,,
Fix,GT,37.4138187000,-122.0781743000,-24.26742154343242,7.9774294,0.1,179.35197,1597355204434,,,,
Fix,GT,37.4137408000,-122.0781737000,-24.105903979048662,9.149784,0.1,179.72514,1597355205434,,,,
Fix,GT,37.4136537000,-122.0781738000,-23.871111330278325,10.158342,0.099,180.23328,1597355206434,,,,
Fix,GT,37.4135602000,-122.0781747000,-23.562387100972956,10.489968,0.1,180.3597,1597355207434,,,,
Fix,GT,37.4134652000,-122.0781761000,-23.21797294687906,10.595598,0.099,180.91393,1597355208434,,,,
Fix,GT,37.4133697000,-122.0781793000,-22.723490997913814,10.459682,0.1,181.96701,1597355209434,,,,
Fix,GT,37.4132766000,-122.0781854000,-22.17611102519129,10.403582,0.1,183.2365,1597355210434,,,,
Fix,GT,37.4131781000,-122.0781929000,-21.504697253908034,11.608829,0.1,183.54102,1597355211434,,,,
Fix,GT,37.4130676000,-122.0782010000,-20.768489786987573,12.964481,0.1,182.95189,1597355212434,,,,
Fix,GT,37.4129461000,-122.0782074000,-19.83073130546103,13.985658,0.1,182.10266,1597355213434,,,,
Fix,GT,37.4128158000,-122.0782121000,-18.79959388841644,14.909613,0.1,181.34839,1597355214434,,,,
Fix,GT,37.4126784000,-122.0782147000,-17.761351952701318,15.555136,0.1,180.60515,1597355215434,,,,
Fix,GT,37.4125358000,-122.0782166000,-16.717732926701387,16.034332,0.1,180.68738,1597355216434,,,,
Fix,GT,37.4123904000,-122.0782185000,-15.791592923650342,16.09311,0.1,180.54285,1597355217434,,,,
Fix,GT,37.4122483000,-122.0782208000,-15.086351628351906,15.300959,0.1,180.89516,1597355218434,,,,
Fix,GT,37.4121146000,-122.0782246000,-14.584351965176722,14.492767,0.1,181.60188,1597355219434,,,,
Fix,GT,37.4119868000,-122.0782299000,-14.213110133977352,13.917185,0.1,181.9956,1597355220434,,,,
Fix,GT,37.4118637000,-122.0782350000,-14.01562749689765,13.449015,0.1,181.65746,1597355221434,,,,
Fix,GT,37.4117446000,-122.0782384000,-13.930489630424347,12.998202,0.1,181.12221,1597355222434,,,,
Fix,GT,37.4116298000,-122.0782409000,-13.973558371076422,12.389162,0.1,181.00136,1597355223434,,,,
Fix,GT,37.4115226000,-122.0782425000,-14.149661427329335,11.417293,0.1,180.31879,1597355224434,,,,
Fix,GT,37.4114237000,-122.0782425000,-14.407213589391631,10.563179,0.1,179.97086,1597355225434,,,,
Fix,GT,37.4113295000,-122.0782457000,-14.657213589391631,10.282609,0.1,183.04521,1597355226434,,,,
Fix,GT,37.4112421000,-122.0782584000,-14.987592633921679,9.149068,0.1,188.82755,1597355227434,,,,
Fix,GT,37.4111640000,-122.0782838000,-15.41686893739319,9.04784,0.1,197.80452,1597355228434,,,,
Fix,GT,37.4110885000,-122.0783283000,-15.989178669698447,9.575836,0.1,209.29527,1597355229434,,,,
Fix,GT,37.4110195000,-122.0783973000,-16.817731134875544,10.07467,0.1,223.18796,1597355230434,,,,
Fix,GT,37.4109642000,-122.0784906000,-17.620352223745613,10.559166,0.1,239.02809,1597355231434,,,,
Fix,GT,37.4109320000,-122.0786065000,-18.677903483157934,11.28718,0.1,257.42322,1597355232434,,,,
Fix,GT,37.4109324000,-122.0787363000,-19.7697316251099,11.816232,0.1,278.45132,1597355233434,,,,
Fix,GT,37.4109712000,-122.0788630000,-20.645248461472875,12.25782,0.1,298.27344,1597355234434,,,,
Fix,GT,37.4110403000,-122.0789737000,-21.35538661710177,12.586146,0.1,313.8073,1597355235434,,,,
Fix,GT,37.4111309000,-122.0790585000,-21.89400635430468,12.561647,0.1,329.3599,1597355236434,,,,
Fix,GT,37.4112361000,-122.0791104000,-22.26449035229564,12.541633,0.1,344.21066,1597355237434,,,,
Fix,GT,37.4113476000,-122.0791274000,-22.61914583279895,12.434777,0.1,358.65143,1597355238434,,,,
Fix,GT,37.4114585000,-122.0791078000,-22.98545648657091,12.542316,0.1,14.417058,1597355239434,,,,
Fix,GT,37.4115599000,-122.0790479000,-23.181145335030806,12.470053,0.1,32.076736,1597355240434,,,,
Fix,GT,37.4116414000,-122.0789519000,-23.26890415734158,12.473515,0.1,50.321827,1597355241434,,,,
Fix,GT,37.4116963000,-122.0788286000,-23.329041375907934,12.622947,0.1,67.19319,1597355242434,,,,
Fix,GT,37.4117216000,-122.0786887000,-23.239283786111628,12.907726,0.1,84.000336,1597355243434,,,,
Fix,GT,37.4117139000,-122.0785402000,-23.152662979919114,13.680955,0.1,99.89859,1597355244434,,,,
Fix,GT,37.4116770000,-122.0783861000,-23.02359302117958,14.897408,0.1,111.137146,1597355245434,,,,
Fix,GT,37.4116178000,-122.0782273000,-22.98676603736442,16.09346,0.1,116.69054,1597355246434,,,,
Fix,GT,37.4115501000,-122.0780597000,-22.95669769611004,17.188923,0.1,117.28983,1597355247434,,,,
Fix,GT,37.4114772000,-122.0778819000,-22.89335267876845,18.152737,0.1,117.45875,1597355248434,,,,
Fix,GT,37.4113991000,-122.0776961000,-22.805904727682673,18.99112,0.1,117.90027,1597355249434,,,,
Fix,GT,37.4113175000,-122.0775025000,-22.718869133707585,19.77739,0.1,118.10338,1597355250434,,,,
Fix,GT,37.4112326000,-122.0773023000,-22.657628264590244,20.357475,0.1,118.08464,1597355251434,,,,
Fix,GT,37.4111462000,-122.0770956000,-22.547421555329663,20.945148,0.1,117.648605,1597355252434,,,,
Fix,GT,37.4110584000,-122.0768828000,-22.426283405931713,21.47356,0.1,117.377785,1597355253434,,,,
Fix,GT,37.4109691000,-122.0766651000,-22.333420860279887,21.830355,0.1,117.44747,1597355254434,,,,
Fix,GT,37.4108775000,-122.0764449000,-22.415972409016263,22.12857,0.1,117.65743,1597355255434,,,,
Fix,GT,37.4107851000,-122.0762230000,-22.567042365691123,22.186512,0.1,117.24851,1597355256434,,,,
Fix,GT,37.4106949000,-122.0759987000,-22.785283312769934,22.266434,0.1,116.3687,1597355257434,,,,
Fix,GT,37.4106057000,-122.0757733000,-22.855938395024907,22.374298,0.1,116.20241,1597355258434,,,,
Fix,GT,37.4105165000,-122.0755450000,-22.762110948192458,22.647589,0.1,116.02947,1597355259434,,,,
Fix,GT,37.4104259000,-122.0753148000,-22.72617928509328,22.769299,0.1,116.37681,1597355260434,,,,
Fix,GT,37.4103339000,-122.0750849000,-22.69535272514088,22.762215,0.1,116.892456,1597355261434,,,,
Fix,GT,37.4102400000,-122.0748551000,-22.642386431488376,23.038338,0.1,117.47483,1597355262434,,,,
Fix,GT,37.4101419000,-122.0746227000,-22.492869978031194,23.529018,0.1,118.177345,1597355263434,,,,
Fix,GT,37.4100400000,-122.0743891000,-22.443938504140988,23.564651,0.1,119.16699,1597355264434,,,,
Fix,GT,37.4099349000,-122.0741568000,-22.346352452649626,23.814066,0.1,119.56354,1597355265434,,,,
Fix,GT,37.4098289000,-122.0739202000,-22.16073262206646,24.205376,0.1,119.09697,1597355266434,,,,
Fix,GT,37.4097232000,-122.0736817000,-22.025594518919092,24.029789,0.1,119.02363,1597355267434,,,,
Fix,GT,37.4096186000,-122.0734450000,-21.811109999902612,23.95784,0.1,118.898926,1597355268434,,,,
Fix,GT,37.4095141000,-122.0732079000,-21.40486921806189,23.944881,0.1,118.93283,1597355269434,,,,
Fix,GT,37.4094094000,-122.0729729000,-20.791490511679513,23.700024,0.1,119.314224,1597355270434,,,,
Fix,GT,37.4093050000,-122.0727426000,-20.084939659312795,23.188528,0.1,119.775475,1597355271434,,,,
Fix,GT,37.4092015000,-122.0725178000,-19.257766433826134,22.86433,0.1,119.9568,1597355272434,,,,
Fix,GT,37.4090994000,-122.0722932000,-18.25855972753004,22.952614,0.1,119.45053,1597355273434,,,,
Fix,GT,37.4089976000,-122.0720662000,-17.19018047142248,23.184914,0.1,119.31234,1597355274434,,,,
Fix,GT,37.4088935000,-122.0718379000,-16.021214661659627,23.317677,0.1,120.28054,1597355275434,,,,
Fix,GT,37.4087830000,-122.0716141000,-14.91548995980071,23.295986,0.1,122.893105,1597355276434,,,,
Fix,GT,37.4086634000,-122.0713982000,-13.725352175229546,23.14192,0.1,126.54365,1597355277434,,,,
Fix,GT,37.4085332000,-122.0711978000,-12.625627879365652,22.623035,0.1,131.44812,1597355278434,,,,
Fix,GT,37.4083935000,-122.0710135000,-11.662317722626199,22.413963,0.1,135.12828,1597355279434,,,,
Fix,GT,37.4082460000,-122.0708426000,-10.80149001713471,22.234268,0.1,139.03496,1597355280434,,,,
Fix,GT,37.4080896000,-122.0706862000,-10.097765953918497,22.157381,0.1,143.55664,1597355281434,,,,
Fix,GT,37.4079240000,-122.0705464000,-9.491110566235875,22.192078,0.1,147.96964,1597355282434,,,,
Fix,GT,37.4077512000,-122.0704229000,-9.027938023593464,21.90972,0.1,152.29677,1597355283434,,,,
Fix,GT,37.4075744000,-122.0703176000,-8.714420761110887,21.604666,0.1,156.48361,1597355284434,,,,
Fix,GT,37.4073934000,-122.0702298000,-8.50314519132371,21.526447,0.1,160.70161,1597355285434,,,,
Fix,GT,37.4072083000,-122.0701578000,-8.317662067865598,21.464842,0.099,164.50737,1597355286434,,,,
Fix,GT,37.4070199000,-122.0701030000,-8.276420410467608,21.525684,0.1,168.9085,1597355287434,,,,
Fix,GT,37.4068272000,-122.0700671000,-8.249558814856528,21.78035,0.1,173.5803,1597355288434,,,,
Fix,GT,37.4066304000,-122.0700481000,-8.30917973701213,22.036573,0.1,176.95502,1597355289434,,,,
Fix,GT,37.4064301000,-122.0700385000,-8.3988338035509,22.493835,0.1,178.42827,1597355290434,,,,
Fix,GT,37.4062251000,-122.0700342000,-8.57631694461628,23.033962,0.1,179.37932,1597355291434,,,,
Fix,GT,37.4060144000,-122.0700313000,-8.933179525295571,23.796043,0.1,179.24799,1597355292434,,,,
Fix,GT,37.4057958000,-122.0700274000,-9.502109658681746,24.7235,0.1,179.05914,1597355293434,,,,
Fix,GT,37.4055690000,-122.0700225000,-10.059593170840287,25.598242,0.1,178.98228,1597355294434,,,,
Fix,GT,37.4053346000,-122.0700177000,-10.455972511152993,26.42618,0.1,179.0696,1597355295434,,,,
Fix,GT,37.4050933000,-122.0700126000,-10.805075826491446,27.09854,0.1,179.05467,1597355296434,,,,
Fix,GT,37.4048469000,-122.0700096000,-10.949628226178874,27.565008,0.1,179.7841,1597355297434,,,,
Fix,GT,37.4045964000,-122.0700099000,-10.993627790141716,28.030851,0.1,180.38138,1597355298434,,,,
Fix,GT,37.4043428000,-122.0700130000,-10.866592826779339,28.267025,0.1,180.67566,1597355299434,,,,
Fix,GT,37.4040870000,-122.0700170000,-10.713627112454446,28.488394,0.1,180.72745,1597355300434,,,,
Fix,GT,37.4038295000,-122.0700211000,-10.533627750206563,28.66246,0.1,180.60999,1597355301434,,,,
Fix,GT,37.4035710000,-122.0700246000,-10.383903198775158,28.692245,0.1,180.50642,1597355302434,,,,
Fix,GT,37.4033126000,-122.0700270000,-10.230696267054327,28.634413,0.099,180.3149,1597355303434,,,,
Fix,GT,37.4030558000,-122.0700301000,-10.023868637274177,28.326061,0.1,180.72775,1597355304434,,,,
Fix,GT,37.4028016000,-122.0700332000,-9.767006880085944,28.182419,0.1,180.35825,1597355305434,,,,
Fix,GT,37.4025475000,-122.0700345000,-9.608524244252692,28.233166,0.1,180.13197,1597355306434,,,,
Fix,GT,37.4022920000,-122.0700351000,-9.60138556562319,28.541822,0.1,180.10016,1597355307434,,,,
Fix,GT,37.4020332000,-122.0700364000,-9.722972017084999,28.86733,0.1,180.34209,1597355308434,,,,
Fix,GT,37.4017718000,-122.0700387000,-9.927075888027218,29.207432,0.1,180.40884,1597355309434,,,,
Fix,GT,37.4015066000,-122.0700406000,-10.165109991807185,29.68495,0.1,180.16606,1597355310434,,,,
Fix,GT,37.4012379000,-122.0700407000,-10.325420925856719,29.900055,0.1,179.99309,1597355311434,,,,
Fix,GT,37.4009683000,-122.0700397000,-10.602902965785688,29.892586,0.1,179.7298,1597355312434,,,,
Fix,GT,37.4006998000,-122.0700322000,-11.039731307132598,29.72928,0.1,177.68007,1597355313434,,,,
Fix,GT,37.4004329000,-122.0700119000,-11.563006432042187,29.606583,0.1,175.31685,1597355314434,,,,
Fix,GT,37.4001680000,-122.0699782000,-11.960282433193697,29.497202,0.1,173.14548,1597355315434,,,,
Fix,GT,37.3999054000,-122.0699313000,-12.246696532855026,29.380318,0.1,170.78859,1597355316434,,,,
Fix,GT,37.3996457000,-122.0698725000,-12.5044205274055,29.19696,0.1,169.02722,1597355317434,,,,
Fix,GT,37.3993882000,-122.0698066000,-12.769800378888505,29.154455,0.1,168.00189,1597355318434,,,,
Fix,GT,37.3991314000,-122.0697374000,-12.963972490667402,29.139828,0.1,167.8389,1597355319434,,,,
Fix,GT,37.3988753000,-122.0696690000,-12.909524073897046,28.988056,0.1,167.98682,1597355320434,,,,
Fix,GT,37.3986203000,-122.0696010000,-12.633075969984475,28.86272,0.1,167.89227,1597355321434,,,,
Fix,GT,37.3983666000,-122.0695324000,-12.270041631357117,28.759031,0.1,167.77779,1597355322434,,,,
Fix,GT,37.3981137000,-122.0694638000,-11.898351997242742,28.700756,0.1,167.76787,1597355323434,,,,
Fix,GT,37.3978610000,-122.0693954000,-11.51866205803185,28.693787,0.1,167.79915,1597355324434,,,,
Fix,GT,37.3976089000,-122.0693270000,-11.172178964727323,28.484642,0.1,167.78746,1597355325434,,,,
Fix,GT,37.3973597000,-122.0692601000,-10.81600707206536,28.084513,0.1,168.01837,1597355326434,,,,
Fix,GT,37.3971141000,-122.0691947000,-10.435455136586484,27.637215,0.1,167.92627,1597355327434,,,,
Fix,GT,37.3968731000,-122.0691293000,-10.09176604733588,27.093418,0.1,167.61554,1597355328434,,,,
Fix,GT,37.3966372000,-122.0690641000,-9.754800015682179,26.568535,0.1,167.49889,1597355329434,,,,
Fix,GT,37.3964050000,-122.0689997000,-9.421041273854541,26.261482,0.1,167.60762,1597355330434,,,,
Fix,GT,37.3961753000,-122.0689372000,-9.097799797661537,25.92536,0.1,167.9082,1597355331434,,,,
Fix,GT,37.3959484000,-122.0688768000,-8.801455566628107,25.594131,0.1,168.06282,1597355332434,,,,
Fix,GT,37.3957232000,-122.0688175000,-8.498937888820137,25.548923,0.1,168.18108,1597355333434,,,,
Fix,GT,37.3954958000,-122.0687599000,-8.232524172000296,26.024569,0.1,169.11206,1597355334434,,,,
Fix,GT,37.3952625000,-122.0687084000,-7.843110148639653,26.643112,0.1,170.71024,1597355335434,,,,
Fix,GT,37.3950214000,-122.0686603000,-7.320937922802273,27.542408,0.1,170.87483,1597355336434,,,,
Fix,GT,37.3947727000,-122.0686107000,-6.46197250718069,28.327375,0.1,171.1417,1597355337434,,,,
Fix,GT,37.3945173000,-122.0685642000,-5.380834409982924,28.933575,0.1,172.50638,1597355338434,,,,
Fix,GT,37.3942560000,-122.0685270000,-4.241110218253652,29.433681,0.1,174.66615,1597355339434,,,,
Fix,GT,37.3939898000,-122.0685028000,-3.1255586008777527,29.730553,0.1,177.1317,1597355340434,,,,
Fix,GT,37.3937220000,-122.0684904000,-2.011524108105732,29.64565,0.1,178.68277,1597355341434,,,,
Fix,GT,37.3934571000,-122.0684863000,-0.9145931541714276,29.220055,0.1,179.93753,1597355342434,,,,
Fix,GT,37.3931945000,-122.0684896000,0.037613738582883194,29.1433,0.1,181.25407,1597355343434,,,,
Fix,GT,37.3929320000,-122.0685003000,0.9498206245200365,29.115324,0.1,182.57535,1597355344434,,,,
Fix,GT,37.3926705000,-122.0685186000,1.7370620002008508,29.023754,0.1,183.82962,1597355345434,,,,
Fix,GT,37.3924091000,-122.0685428000,2.449924180265967,29.198475,0.1,184.54463,1597355346434,,,,
Fix,GT,37.3921467000,-122.0685698000,3.108096565684562,29.223465,0.1,184.56155,1597355347434,,,,
Fix,GT,37.3918835000,-122.0685953000,3.589303374697593,29.36728,0.1,184.29796,1597355348434,,,,
Fix,GT,37.3916197000,-122.0686195000,3.93916561749063,29.340488,0.1,184.13525,1597355349434,,,,
Fix,GT,37.3913569000,-122.0686437000,4.098165540481432,29.108297,0.1,184.24878,1597355350434,,,,
Fix,GT,37.3910974000,-122.0686684000,4.108165306342286,28.63095,0.1,184.47191,1597355351434,,,,
Fix,GT,37.3908439000,-122.0686937000,3.8901654744715444,27.797539,0.1,184.7701,1597355352434,,,,
Fix,GT,37.3905967000,-122.0687199000,3.433855117465093,27.26418,0.1,184.74496,1597355353434,,,,
Fix,GT,37.3903544000,-122.0687444000,3.166924240104912,26.763636,0.1,184.4835,1597355354434,,,,
Fix,GT,37.3901148000,-122.0687666000,2.901234678130521,26.593086,0.1,183.97325,1597355355434,,,,
Fix,GT,37.3898763000,-122.0687869000,2.556337905814111,26.449738,0.099,183.98555,1597355356434,,,,
Fix,GT,37.3896395000,-122.0688078000,2.068027586854754,26.253761,0.1,184.10088,1597355357434,,,,
Fix,GT,37.3894039000,-122.0688287000,1.6319931479240495,26.180183,0.1,184.06665,1597355358434,,,,
Fix,GT,37.3891688000,-122.0688489000,1.1249240191807104,26.138557,0.1,184.00336,1597355359434,,,,
Fix,GT,37.3889339000,-122.0688681000,0.4667516778545169,26.138393,0.1,183.37186,1597355360434,,,,
Fix,GT,37.3886987000,-122.0688799000,-0.09173106915354268,26.112772,0.1,181.42673,1597355361434,,,,
Fix,GT,37.3884628000,-122.0688815000,-0.5298000476475568,26.31715,0.1,179.61372,1597355362434,,,,
Fix,GT,37.3882234000,-122.0688754000,-0.7906620772585651,26.829216,0.1,178.17932,1597355363434,,,,
Fix,GT,37.3879809000,-122.0688615000,-0.9319035060037653,27.031765,0.1,176.75497,1597355364434,,,,
Fix,GT,37.3877366000,-122.0688385000,-0.9821793083980452,27.428637,0.1,174.78226,1597355365434,,,,
Fix,GT,37.3874882000,-122.0688085000,-0.9129034298863985,27.894701,0.1,174.49849,1597355366434,,,,
Fix,GT,37.3872374000,-122.0687792000,-0.642593149869791,27.927223,0.1,174.82843,1597355367434,,,,
Fix,GT,37.3869872000,-122.0687516000,-0.10907582658096437,27.783993,0.1,175.06377,1597355368434,,,,
Fix,GT,37.3867393000,-122.0687248000,0.5029241599543468,27.473055,0.1,175.14636,1597355369434,,,,
Fix,GT,37.3864930000,-122.0686980000,1.1072689998408265,27.427094,0.1,174.798,1597355370434,,,,
Fix,GT,37.3862484000,-122.0686701000,1.705544840829134,27.07054,0.1,174.86757,1597355371434,,,,
Fix,GT,37.3860065000,-122.0686429000,2.309510368281394,26.927135,0.1,174.79698,1597355372434,,,,
Fix,GT,37.3857639000,-122.0686151000,2.893165680855212,27.172352,0.1,174.69478,1597355373434,,,,
Fix,GT,37.3855192000,-122.0685867000,3.47823450612227,27.341335,0.1,174.80318,1597355374434,,,,
Fix,GT,37.3852735000,-122.0685597000,4.083510263807142,27.34977,0.1,175.10269,1597355375434,,,,
Fix,GT,37.3850293000,-122.0685339000,4.658165838360489,26.998213,0.1,175.28145,1597355376434,,,,
Fix,GT,37.3847888000,-122.0685091000,5.188717427932033,26.541672,0.1,175.25516,1597355377434,,,,
Fix,GT,37.3845523000,-122.0684839000,5.625682743508435,26.230728,0.1,175.04454,1597355378434,,,,
Fix,GT,37.3843163000,-122.0684574000,6.021579353205084,26.437223,0.1,174.60025,1597355379434,,,,
Fix,GT,37.3840781000,-122.0684278000,6.309613742199417,26.695393,0.1,174.16403,1597355380434,,,,
Fix,GT,37.3838383000,-122.0683980000,6.4762343932966075,26.778257,0.1,174.4818,1597355381434,,,,
Fix,GT,37.3835971000,-122.0683693000,6.49016536675893,27.101692,0.1,174.5832,1597355382434,,,,
Fix,GT,37.3833523000,-122.0683402000,6.521200374400621,27.371565,0.1,174.69261,1597355383434,,,,
Fix,GT,37.3831073000,-122.0683126000,6.452751568124242,27.197727,0.1,175.07353,1597355384434,,,,
Fix,GT,37.3828636000,-122.0682868000,6.3412346307984535,27.127193,0.1,175.24359,1597355385434,,,,
Fix,GT,37.3826194000,-122.0682613000,6.244372291153923,27.32919,0.1,175.20596,1597355386434,,,,
Fix,GT,37.3823721000,-122.0682349000,6.1387516122094326,27.757397,0.1,175.037,1597355387434,,,,
Fix,GT,37.3821211000,-122.0682073000,6.052820614189997,28.151585,0.1,175.04478,1597355388434,,,,
Fix,GT,37.3818675000,-122.0681805000,5.961786409327516,28.295628,0.1,175.27812,1597355389434,,,,
Fix,GT,37.3816124000,-122.0681536000,5.877682996195546,28.533133,0.1,175.0139,1597355390434,,,,
Fix,GT,37.3813553000,-122.0681255000,5.796096663187427,28.7676,0.1,175.04823,1597355391434,,,,
Fix,GT,37.3810960000,-122.0680976000,5.70113104855065,28.9892,0.1,175.09181,1597355392434,,,,
Fix,GT,37.3808354000,-122.0680697000,5.593027631283732,29.01558,0.1,175.16011,1597355393434,,,,
Fix,GT,37.3805753000,-122.0680417000,5.483096459935609,28.91521,0.1,174.99446,1597355394434,,,,
Fix,GT,37.3803167000,-122.0680130000,5.389717073905047,28.67423,0.1,174.92108,1597355395434,,,,
Fix,GT,37.3800608000,-122.0679845000,5.2994412481703534,28.361603,0.1,175.00612,1597355396434,,,,
Fix,GT,37.3798075000,-122.0679568000,5.198751736550719,28.065796,0.1,175.06552,1597355397434,,,,
Fix,GT,37.3795564000,-122.0679302000,5.110751598105324,27.920504,0.099,175.256,1597355398434,,,,
Fix,GT,37.3793054000,-122.0679034000,5.004062196402629,27.991426,0.1,174.94609,1597355399434,,,,
Fix,GT,37.3790537000,-122.0678752000,4.902717083799416,28.158768,0.1,174.87982,1597355400434,,,,
Fix,GT,37.3788004000,-122.0678469000,4.783751631133967,28.216728,0.099,175.01614,1597355401434,,,,
Fix,GT,37.3785472000,-122.0678201000,4.669096501525999,28.23654,0.1,175.41364,1597355402434,,,,
Fix,GT,37.3782933000,-122.0677961000,4.629303596605325,28.243835,0.1,175.88501,1597355403434,,,,
Fix,GT,37.3780398000,-122.0677773000,4.863613858099399,28.136549,0.1,177.41408,1597355404434,,,,
Fix,GT,37.3777866000,-122.0677678000,5.3240966503479115,28.131119,0.1,179.16035,1597355405434,,,,
Fix,GT,37.3775333000,-122.0677686000,5.8431310213940435,28.076576,0.099,181.16881,1597355406434,,,,
Fix,GT,37.3772809000,-122.0677807000,6.363786295064699,27.994865,0.1,183.147,1597355407434,,,,
Fix,GT,37.3770293000,-122.0678026000,6.880579476414368,27.970537,0.1,184.77887,1597355408434,,,,
Fix,GT,37.3767789000,-122.0678327000,7.505544828312168,27.914955,0.1,186.02861,1597355409434,,,,
Fix,GT,37.3765291000,-122.0678667000,8.038441359173703,27.812584,0.1,186.33887,1597355410434,,,,
Fix,GT,37.3762806000,-122.0679013000,8.545406863869403,27.717274,0.1,186.15396,1597355411434,,,,
Fix,GT,37.3760319000,-122.0679335000,9.05382057795552,27.797693,0.1,185.70709,1597355412434,,,,
Fix,GT,37.3757829000,-122.0679642000,9.660303701387647,27.658077,0.1,185.74356,1597355413434,,,,
Fix,GT,37.3755369000,-122.0679940000,10.318889234572453,27.197708,0.1,185.21365,1597355414434,,,,
Fix,GT,37.3752947000,-122.0680177000,10.917821178925294,26.71459,0.1,183.97899,1597355415434,,,,
Fix,GT,37.3750556000,-122.0680323000,11.40802765518464,26.53825,0.1,181.74484,1597355416434,,,,
Fix,GT,37.3748161000,-122.0680340000,11.824337865986308,26.611977,0.1,179.01611,1597355417434,,,,
Fix,GT,37.3745765000,-122.0680218000,12.193234831842119,26.590916,0.1,176.66959,1597355418434,,,,
Fix,GT,37.3743378000,-122.0679984000,12.525924223537004,26.572107,0.1,174.63177,1597355419434,,,,
Fix,GT,37.3740998000,-122.0679638000,12.837510558454085,26.63404,0.1,172.32405,1597355420434,,,,
Fix,GT,37.3738621000,-122.0679158000,13.114509974339,26.78474,0.1,169.59563,1597355421434,,,,
Fix,GT,37.3736260000,-122.0678531000,13.333751325003362,26.723923,0.1,166.70372,1597355422434,,,,
Fix,GT,37.3733943000,-122.0677774000,13.494027236157308,26.418625,0.1,164.32922,1597355423434,,,,
Fix,GT,37.3731682000,-122.0676907000,13.626338000865019,26.111958,0.1,161.86554,1597355424434,,,,
Fix,GT,37.3729461000,-122.0675937000,13.720993299793804,26.168228,0.1,160.00034,1597355425434,,,,
Fix,GT,37.3727253000,-122.0674850000,13.80395909567926,26.517855,0.1,157.32054,1597355426434,,,,
Fix,GT,37.3725053000,-122.0673627000,13.813166232281816,26.898436,0.1,155.13203,1597355427434,,,,
Fix,GT,37.3722852000,-122.0672299000,13.757475494195546,27.354727,0.1,153.61227,1597355428434,,,,
Fix,GT,37.3720627000,-122.0670906000,13.690165675180992,27.841413,0.1,153.48882,1597355429434,,,,
Fix,GT,37.3718359000,-122.0669508000,13.742303382939667,28.23695,0.1,154.06914,1597355430434,,,,
Fix,GT,37.3716056000,-122.0668116000,13.826648612865824,28.522224,0.1,154.30035,1597355431434,,,,
Fix,GT,37.3713730000,-122.0666715000,13.908959270631385,28.763885,0.1,154.31792,1597355432434,,,,
Fix,GT,37.3711384000,-122.0665302000,14.00057950856339,28.992596,0.1,154.2977,1597355433434,,,,
Fix,GT,37.3709026000,-122.0663879000,14.101303264368596,29.085983,0.1,154.29613,1597355434434,,,,
Fix,GT,37.3706669000,-122.0662459000,14.19561349709906,28.906837,0.1,154.37561,1597355435434,,,,
Fix,GT,37.3704335000,-122.0661053000,14.282614239278217,28.595318,0.1,154.25275,1597355436434,,,,
Fix,GT,37.3702025000,-122.0659655000,14.354303954417475,28.33003,0.1,154.10884,1597355437434,,,,
Fix,GT,37.3699743000,-122.0658253000,14.451372635896405,28.093906,0.1,153.82904,1597355438434,,,,
Fix,GT,37.3697479000,-122.0656868000,14.558613839295276,27.816807,0.1,154.05212,1597355439434,,,,
Fix,GT,37.3695236000,-122.0655503000,14.636234756553108,27.528206,0.1,154.08731,1597355440434,,,,
Fix,GT,37.3693019000,-122.0654152000,14.710027820640335,27.19506,0.1,153.99629,1597355441434,,,,
Fix,GT,37.3690823000,-122.0652816000,14.80757925550563,27.061508,0.1,154.26431,1597355442434,,,,
Fix,GT,37.3688621000,-122.0651487000,14.882958843080587,27.199854,0.1,154.12251,1597355443434,,,,
Fix,GT,37.3686410000,-122.0650145000,14.986614292350168,27.31175,0.1,154.1541,1597355444434,,,,
Fix,GT,37.3684202000,-122.0648808000,15.073958828775403,27.08347,0.1,154.26283,1597355445434,,,,
Fix,GT,37.3682014000,-122.0647488000,15.198096731364444,26.87777,0.1,154.28168,1597355446434,,,,
Fix,GT,37.3679827000,-122.0646166000,15.368406974729623,27.056728,0.1,154.26158,1597355447434,,,,
Fix,GT,37.3677621000,-122.0644835000,15.588821339349295,27.312675,0.1,154.25107,1597355448434,,,,
Fix,GT,37.3675394000,-122.0643483000,15.831372761959756,27.608969,0.1,154.08858,1597355449434,,,,
Fix,GT,37.3673144000,-122.0642108000,16.019992500342596,27.906918,0.1,154.03151,1597355450434,,,,
Fix,GT,37.3670878000,-122.0640738000,16.341821139637887,27.964766,0.1,154.48514,1597355451434,,,,
Fix,GT,37.3668598000,-122.0639381000,16.57299165780421,28.045689,0.1,154.6909,1597355452434,,,,
Fix,GT,37.3666307000,-122.0638033000,16.698371438915274,28.088226,0.1,155.04121,1597355453434,,,,
Fix,GT,37.3664004000,-122.0636741000,16.904819619817772,27.962122,0.1,156.78667,1597355454434,,,,
Fix,GT,37.3661668000,-122.0635552000,17.167819964001694,28.015232,0.1,158.95186,1597355455434,,,,
Fix,GT,37.3659288000,-122.0634470000,17.437855050431608,28.188675,0.1,161.22832,1597355456434,,,,
Fix,GT,37.3656864000,-122.0633512000,17.708198902157392,28.24252,0.1,163.52203,1597355457434,,,,
Fix,GT,37.3654409000,-122.0632661000,17.981853772031172,28.308489,0.1,165.60896,1597355458434,,,,
Fix,GT,37.3651929000,-122.0631937000,18.244474481287625,28.148243,0.1,168.17369,1597355459434,,,,
Fix,GT,37.3649453000,-122.0631337000,18.505441481586445,27.810738,0.1,169.98618,1597355460434,,,,
Fix,GT,37.3646988000,-122.0630850000,18.754818797556595,27.66941,0.1,172.04013,1597355461434,,,,
Fix,GT,37.3644512000,-122.0630468000,19.007199384969226,27.694056,0.099,173.96323,1597355462434,,,,
Fix,GT,37.3642025000,-122.0630203000,19.27682120142373,27.715496,0.1,176.39935,1597355463434,,,,
Fix,GT,37.3639530000,-122.0630071000,19.513476078966335,27.724302,0.1,178.54134,1597355464434,,,,
Fix,GT,37.3637029000,-122.0630033000,19.823993331615213,27.828835,0.1,179.81248,1597355465434,,,,
Fix,GT,37.3634513000,-122.0630040000,20.206888707333633,28.028244,0.1,180.49649,1597355466434,,,,
Fix,GT,37.3631977000,-122.0630082000,20.48116450010275,28.262516,0.1,180.94939,1597355467434,,,,
Fix,GT,37.3629423000,-122.0630135000,20.743854210894142,28.43549,0.1,180.94493,1597355468434,,,,
Fix,GT,37.3626853000,-122.0630187000,20.99947493740632,28.61422,0.1,180.90689,1597355469434,,,,
Fix,GT,37.3624270000,-122.0630237000,21.26613046266766,28.708504,0.1,180.83824,1597355470434,,,,
Fix,GT,37.3621685000,-122.0630287000,21.53850962553446,28.637276,0.1,180.95815,1597355471434,,,,
Fix,GT,37.3619106000,-122.0630345000,21.783199688249113,28.638227,0.1,181.09627,1597355472434,,,,
Fix,GT,37.3616521000,-122.0630406000,22.025785395398316,28.756916,0.1,181.0129,1597355473434,,,,
Fix,GT,37.3613924000,-122.0630460000,22.236370904195212,28.896942,0.1,180.94771,1597355474434,,,,
Fix,GT,37.3611318000,-122.0630516000,22.451165745089554,28.942686,0.1,181.04416,1597355475434,,,,
Fix,GT,37.3608710000,-122.0630575000,22.645717285812054,28.979649,0.1,181.02461,1597355476434,,,,
Fix,GT,37.3606096000,-122.0630633000,22.812060943562244,29.086296,0.1,180.95479,1597355477434,,,,
Fix,GT,37.3603465000,-122.0630689000,23.004750320972278,29.291409,0.1,181.11844,1597355478434,,,,
Fix,GT,37.3600819000,-122.0630756000,23.255440261228955,29.484297,0.1,181.22673,1597355479434,,,,
Fix,GT,37.3598154000,-122.0630814000,23.496475321474918,29.6269,0.1,180.76636,1597355480434,,,,
Fix,GT,37.3595484000,-122.0630835000,23.683129587009205,29.603159,0.099,179.92203,1597355481434,,,,
Fix,GT,37.3592822000,-122.0630789000,23.8677506293252,29.518185,0.1,178.63847,1597355482434,,,,
Fix,GT,37.3590159000,-122.0630671000,24.04071582255392,29.66396,0.1,177.42932,1597355483434,,,,
Fix,GT,37.3587486000,-122.0630486000,24.223750873006452,29.725033,0.1,176.39188,1597355484434,,,,
Fix,GT,37.3584816000,-122.0630239000,24.4020272936159,29.685787,0.1,175.05327,1597355485434,,,,
Fix,GT,37.3582153000,-122.0629910000,24.58409612736841,29.792747,0.1,173.69603,1597355486434,,,,
Fix,GT,37.3579480000,-122.0629503000,24.751750749803705,29.951326,0.1,172.60768,1597355487434,,,,
Fix,GT,37.3576804000,-122.0629036000,24.942716249800014,30.00307,0.1,171.56853,1597355488434,,,,
Fix,GT,37.3574133000,-122.0628498000,25.112371680951128,30.03878,0.1,170.33339,1597355489434,,,,
Fix,GT,37.3571471000,-122.0627897000,25.294716782265823,30.00066,0.1,169.33234,1597355490434,,,,
Fix,GT,37.3568822000,-122.0627243000,25.47802826514777,29.924236,0.1,168.42648,1597355491434,,,,
Fix,GT,37.3566189000,-122.0626532000,25.659439520700857,29.869516,0.099,167.28813,1597355492434,,,,
Fix,GT,37.3563571000,-122.0625753000,25.939922848666527,29.85051,0.099,166.10507,1597355493434,,,,
Fix,GT,37.3560969000,-122.0624914000,26.323405564802783,29.803932,0.099,165.09029,1597355494434,,,,
Fix,GT,37.3558390000,-122.0624022000,26.828510482720162,29.52632,0.1,164.1268,1597355495434,,,,
Fix,GT,37.3555859000,-122.0623084000,27.435579820656415,29.040533,0.1,162.97261,1597355496434,,,,
Fix,GT,37.3553388000,-122.0622096000,28.138406443940823,28.536564,0.099,161.76802,1597355497434,,,,
Fix,GT,37.3550973000,-122.0621067000,28.94085463079523,28.086262,0.099,160.7643,1597355498434,,,,
Fix,GT,37.3548610000,-122.0620000000,29.771130436618478,27.667757,0.1,159.73714,1597355499434,,,,
Fix,GT,37.3546292000,-122.0618894000,30.581406170123046,27.441177,0.1,158.62985,1597355500434,,,,
Fix,GT,37.3544001000,-122.0617743000,31.34299227764859,27.341232,0.1,157.83353,1597355501434,,,,
Fix,GT,37.3541722000,-122.0616581000,32.07968294440889,27.288393,0.1,158.0479,1597355502434,,,,
Fix,GT,37.3539436000,-122.0615433000,32.76675053919007,27.413216,0.1,158.15623,1597355503434,,,,
Fix,GT,37.3537134000,-122.0614274000,33.436715877168126,27.622005,0.1,158.07011,1597355504434,,,,
Fix,GT,37.3534823000,-122.0613111000,34.11857832413898,27.669521,0.1,158.12468,1597355505434,,,,
Fix,GT,37.3532507000,-122.0611949000,34.61771544594069,27.688026,0.099,158.2403,1597355506434,,,,
Fix,GT,37.3530187000,-122.0610806000,35.06206240813674,27.616241,0.1,159.03197,1597355507434,,,,
Fix,GT,37.3527859000,-122.0609725000,35.41326954992553,27.497198,0.1,160.33627,1597355508434,,,,
Fix,GT,37.3525522000,-122.0608714000,35.636509005598555,27.419844,0.1,161.55858,1597355509434,,,,
Fix,GT,37.3523175000,-122.0607758000,35.941853990876325,27.365406,0.1,162.44691,1597355510434,,,,
Fix,GT,37.3520816000,-122.0606851000,35.99667924189566,27.394941,0.1,163.54924,1597355511434,,,,
Fix,GT,37.3518444000,-122.0606006000,35.93499162900946,27.377625,0.1,164.7508,1597355512434,,,,
Fix,GT,37.3516059000,-122.0605220000,35.74468141300076,27.398249,0.1,165.80217,1597355513434,,,,
Fix,GT,37.3513654000,-122.0604478000,35.52261456420149,27.602268,0.1,166.61552,1597355514434,,,,
Fix,GT,37.3511220000,-122.0603781000,35.216405528351515,27.818466,0.1,167.86806,1597355515434,,,,
Fix,GT,37.3508753000,-122.0603149000,34.78099276071771,28.09072,0.1,169.03447,1597355516434,,,,
Fix,GT,37.3506252000,-122.0602573000,34.30061202003242,28.33022,0.1,170.20082,1597355517434,,,,
Fix,GT,37.3503726000,-122.0602056000,33.910888653971256,28.47073,0.1,171.2647,1597355518434,,,,
Fix,GT,37.3501185000,-122.0601593000,33.71440695483216,28.50811,0.1,172.37611,1597355519434,,,,
Fix,GT,37.3498637000,-122.0601200000,33.714060460074165,28.453993,0.1,173.51056,1597355520434,,,,
Fix,GT,37.3496093000,-122.0600863000,33.91150947855567,28.366955,0.1,174.40549,1597355521434,,,,
Fix,GT,37.3493542000,-122.0600572000,34.231579461706815,28.511766,0.1,175.25652,1597355522434,,,,
Fix,GT,37.3490973000,-122.0600337000,34.56354439662573,28.686562,0.1,176.41599,1597355523434,,,,
Fix,GT,37.3488384000,-122.0600161000,34.90126747710838,28.851683,0.1,177.4084,1597355524434,,,,
Fix,GT,37.3485781000,-122.0600037000,35.247578313840904,28.981037,0.1,178.19818,1597355525434,,,,
Fix,GT,37.3483166000,-122.0599959000,35.60499169210607,29.062061,0.1,179.2238,1597355526434,,,,
Fix,GT,37.3480546000,-122.0599939000,35.946233668671084,29.083961,0.1,179.98332,1597355527434,,,,
Fix,GT,37.3477928000,-122.0599945000,36.292544502483,29.028534,0.1,180.21725,1597355528434,,,,
Fix,GT,37.3475315000,-122.0599947000,36.6199246238009,28.96299,0.1,179.87811,1597355529434,,,,
Fix,GT,37.3472708000,-122.0599942000,36.95661245365227,28.88804,0.1,179.91017,1597355530434,,,,
Fix,GT,37.3470113000,-122.0599941000,37.28661429328986,28.704525,0.1,180.11745,1597355531434,,,,
Fix,GT,37.3467535000,-122.0599950000,37.62423371993589,28.511307,0.1,180.17429,1597355532434,,,,
Fix,GT,37.3464975000,-122.0599956000,37.946232569583,28.311792,0.1,179.9866,1597355533434,,,,
Fix,GT,37.3462435000,-122.0599952000,38.27292338679024,28.088778,0.099,179.93117,1597355534434,,,,
Fix,GT,37.3459913000,-122.0599950000,38.58692485879851,27.877491,0.1,179.9356,1597355535434,,,,
Fix,GT,37.3457411000,-122.0599944000,38.93996000988989,27.759022,0.1,179.84552,1597355536434,,,,
Fix,GT,37.3454907000,-122.0599934000,39.2418571884557,27.820042,0.1,179.72766,1597355537434,,,,
