$GPGGA,205046.44,3731.4407260,N,12220.9952480,W,1,0,0.0,147.7241,M,0.0000,M,0.0000,0000*6a
$GPRMC,205046.44,A,3731.4407260,N,12220.9952480,W,0.0025,83.6317,140721,,,,A*56
$GPGGA,205047.44,3731.4407260,N,12220.9952480,W,1,0,0.0,147.7241,M,0.0000,M,0.0000,0000*6b
$GPRMC,205047.44,A,3731.4407260,N,12220.9952480,W,0.0033,83.6318,140721,,,,A*5f
$GPGGA,205048.44,3731.4407260,N,12220.9952480,W,1,0,0.0,147.7241,M,0.0000,M,0.0000,0000*64
$GPRMC,205048.44,A,3731.4407260,N,12220.9952480,W,0.0033,83.6316,140721,,,,A*5e
$GPGGA,205049.44,3731.4407260,N,12220.9952480,W,1,0,0.0,147.7241,M,0.0000,M,0.0000,0000*65
$GPRMC,205049.44,A,3731.4407260,N,12220.9952480,W,0.0019,83.6318,140721,,,,A*59
$GPGGA,205050.44,3731.4407260,N,12220.9952480,W,1,0,0.0,147.7241,M,0.0000,M,0.0000,0000*6d
$GPRMC,205050.44,A,3731.4407260,N,12220.9952480,W,0.0028,83.6317,140721,,,,A*5c
$GPGGA,205051.44,3731.4407260,N,12220.9952480,W,1,0,0.0,147.7241,M,0.0000,M,0.0000,0000*6c
$GPRMC,205051.44,A,3731.4407260,N,12220.9952480,W,0.0010,83.6316,140721,,,,A*57
$GPGGA,205052.44,3731.4407260,N,12220.9952480,W,1,0,0.0,147.7241,M,0.0000,M,0.0000,0000*6f
$GPRMC,205052.44,A,3731.4407260,N,12220.9952480,W,0.0070,83.6315,140721,,,,A*51
$GPGGA,205053.44,3731.4407260,N,12220.9952480,W,1,0,0.0,147.7241,M,0.0000,M,0.0000,0000*6e
$GPRMC,205053.44,A,3731.4407260,N,12220.9952480,W,0.0019,83.6325,140721,,,,A*5c
$GPGGA,205054.44,3731.4407260,N,12220.9952480,W,1,0,0.0,147.7241,M,0.0000,M,0.0000,0000*69
$GPRMC,205054.44,A,3731.4407260,N,12220.9952480,W,0.0018,83.6318,140721,,,,A*54
$GPGGA,205055.44,3731.4407260,N,12220.9952480,W,1,0,0.0,147.7241,M,0.0000,M,0.0000,0000*68
$GPRMC,205055.44,A,3731.4407260,N,12220.9952480,W,0.0000,83.6313,140721,,,,A*57
$GPGGA,205056.44,3731.4407260,N,12220.9952480,W,1,0,0.0,147.7241,M,0.0000,M,0.0000,0000*6b
$GPRMC,205056.44,A,3731.4407260,N,12220.9952480,W,0.0019,83.6309,140721,,,,A*57
$GPGGA,205057.44,3731.4407260,N,12220.9952480,W,1,0,0.0,147.7241,M,0.0000,M,0.0000,0000*6a
$GPRMC,205057.44,A,3731.4407260,N,12220.9952480,W,0.0000,83.6310,140721,,,,A*56
$GPGGA,205058.44,3731.4407260,N,12220.9952480,W,1,0,0.0,147.7241,M,0.0000,M,0.0000,0000*65
$GPRMC,205058.44,A,3731.4407260,N,12220.9952480,W,0.0000,83.6309,140721,,,,A*51
$GPGGA,205059.44,3731.4407260,N,12220.9952480,W,1,0,0.0,147.7241,M,0.0000,M,0.0000,0000*64
$GPRMC,205059.44,A,3731.4407260,N,12220.9952480,W,0.0000,83.6308,140721,,,,A*51
$GPGGA,205100.44,3731.4407260,N,12220.9952480,W,1,0,0.0,147.7241,M,0.0000,M,0.0000,0000*69
$GPRMC,205100.44,A,3731.4407260,N,12220.9952480,W,0.0000,83.6308,140721,,,,A*5c
$GPGGA,205101.44,3731.4407260,N,12220.9952480,W,1,0,0.0,147.7241,M,0.0000,M,0.0000,0000*68
$GPRMC,205101.44,A,3731.4407260,N,12220.9952480,W,0.0025,83.6306,140721,,,,A*54
$GPGGA,205102.44,3731.4407260,N,12220.9952480,W,1,0,0.0,147.7241,M,0.0000,M,0.0000,0000*6b
$GPRMC,205102.44,A,3731.4407260,N,12220.9952480,W,0.0010,83.6304,140721,,,,A*53
$GPGGA,205103.44,3731.4407260,N,12220.9952480,W,1,0,0.0,147.7241,M,0.0000,M,0.0000,0000*6a
$GPRMC,205103.44,A,3731.4407260,N,12220.9952480,W,0.0000,83.6305,140721,,,,A*52
$GPGGA,205104.44,3731.4407260,N,12220.9952480,W,1,0,0.0,147.7241,M,0.0000,M,0.0000,0000*6d
$GPRMC,205104.44,A,3731.4407260,N,12220.9952480,W,0.0000,83.6304,140721,,,,A*54
$GPGGA,205105.44,3731.4407260,N,12220.9952480,W,1,0,0.0,147.7231,M,0.0000,M,0.0000,0000*6b
$GPRMC,205105.44,A,3731.4407260,N,12220.9952480,W,0.0000,83.6304,140721,,,,A*55
$GPGGA,205106.44,3731.4407260,N,12220.9952480,W,1,0,0.0,147.7231,M,0.0000,M,0.0000,0000*68
$GPRMC,205106.44,A,3731.4407260,N,12220.9952480,W,0.0000,83.6303,140721,,,,A*51
$GPGGA,205107.44,3731.4407260,N,12220.9952480,W,1,0,0.0,147.7231,M,0.0000,M,0.0000,0000*69
$GPRMC,205107.44,A,3731.4407260,N,12220.9952480,W,0.0019,83.6302,140721,,,,A*59
$GPGGA,205108.44,3731.4407260,N,12220.9952480,W,1,0,0.0,147.7230,M,0.0000,M,0.0000,0000*67
$GPRMC,205108.44,A,3731.4407260,N,12220.9952480,W,0.0032,83.6310,140721,,,,A*5c
$GPGGA,205109.44,3731.4407320,N,12220.9952000,W,1,0,0.0,147.7160,M,0.0000,M,0.0000,0000*69
$GPRMC,205109.44,A,3731.4407320,N,12220.9952000,W,0.6730,83.6383,140721,,,,A*5d
$GPGGA,205110.44,3731.4407680,N,12220.9946240,W,1,0,0.0,147.6887,M,0.0000,M,0.0000,0000*6c
$GPRMC,205110.44,A,3731.4407680,N,12220.9946240,W,2.5964,84.4583,140721,,,,A*54
$GPGGA,205111.44,3731.4406840,N,12220.9933760,W,1,0,0.0,147.6494,M,0.0000,M,0.0000,0000*65
$GPRMC,205111.44,A,3731.4406840,N,12220.9933760,W,4.4354,91.3010,140721,,,,A*51
$GPGGA,205112.44,3731.4402580,N,12220.9915760,W,1,0,0.0,147.6047,M,0.0000,M,0.0000,0000*6d
$GPRMC,205112.44,A,3731.4402580,N,12220.9915760,W,6.1236,103.7264,140721,,,,A*6e
$GPGGA,205113.44,3731.4393220,N,12220.9893680,W,1,0,0.0,147.5569,M,0.0000,M,0.0000,0000*64
$GPRMC,205113.44,A,3731.4393220,N,12220.9893680,W,8.0353,116.7584,140721,,,,A*6d
$GPGGA,205114.44,3731.4377980,N,12220.9868180,W,1,0,0.0,147.4487,M,0.0000,M,0.0000,0000*6b
$GPRMC,205114.44,A,3731.4377980,N,12220.9868180,W,9.9667,127.5605,140721,,,,A*62
$GPGGA,205115.44,3731.4356680,N,12220.9842200,W,1,0,0.0,147.5149,M,0.0000,M,0.0000,0000*63
$GPRMC,205115.44,A,3731.4356680,N,12220.9842200,W,11.2484,136.6582,140721,,,,A*5e
$GPGGA,205116.44,3731.4330880,N,12220.9818200,W,1,0,0.0,147.6092,M,0.0000,M,0.0000,0000*65
$GPRMC,205116.44,A,3731.4330880,N,12220.9818200,W,11.4781,145.5514,140721,,,,A*54
$GPGGA,205117.44,3731.4302620,N,12220.9800620,W,1,0,0.0,147.6522,M,0.0000,M,0.0000,0000*60
$GPRMC,205117.44,A,3731.4302620,N,12220.9800620,W,11.1592,155.1781,140721,,,,A*51
$GPGGA,205118.44,3731.4273460,N,12220.9788260,W,1,0,0.0,147.5825,M,0.0000,M,0.0000,0000*68
$GPRMC,205118.44,A,3731.4273460,N,12220.9788260,W,10.7716,161.5861,140721,,,,A*5b
$GPGGA,205119.44,3731.4246220,N,12220.9776440,W,1,0,0.0,147.6935,M,0.0000,M,0.0000,0000*6b
$GPRMC,205119.44,A,3731.4246220,N,12220.9776440,W,9.9415,159.9697,140721,,,,A*6d
$GPGGA,205120.44,3731.4223420,N,12220.9761800,W,1,0,0.0,147.8886,M,0.0000,M,0.0000,0000*6d
$GPRMC,205120.44,A,3731.4223420,N,12220.9761800,W,8.2797,152.0998,140721,,,,A*6d
$GPGGA,205121.44,3731.4206920,N,12220.9747580,W,1,0,0.0,148.0697,M,0.0000,M,0.0000,0000*6e
$GPRMC,205121.44,A,3731.4206920,N,12220.9747580,W,6.3781,146.0405,140721,,,,A*63
$GPGGA,205122.44,3731.4194500,N,12220.9735580,W,1,0,0.0,148.2699,M,0.0000,M,0.0000,0000*62
$GPRMC,205122.44,A,3731.4194500,N,12220.9735580,W,5.1174,142.9478,140721,,,,A*69
$GPGGA,205123.44,3731.4183460,N,12220.9725620,W,1,0,0.0,148.4630,M,0.0000,M,0.0000,0000*6f
$GPRMC,205123.44,A,3731.4183460,N,12220.9725620,W,4.7460,144.6618,140721,,,,A*6b
$GPGGA,205124.44,3731.4170320,N,12220.9721060,W,1,0,0.0,148.3577,M,0.0000,M,0.0000,0000*66
$GPRMC,205124.44,A,3731.4170320,N,12220.9721060,W,4.6109,161.0850,140721,,,,A*6d
$GPGGA,205125.44,3731.4156760,N,12220.9725860,W,1,0,0.0,148.2889,M,0.0000,M,0.0000,0000*62
$GPRMC,205125.44,A,3731.4156760,N,12220.9725860,W,4.8919,186.9162,140721,,,,A*6b
$GPGGA,205126.44,3731.4143920,N,12220.9737560,W,1,0,0.0,148.3942,M,0.0000,M,0.0000,0000*66
$GPRMC,205126.44,A,3731.4143920,N,12220.9737560,W,6.0575,210.9156,140721,,,,A*6f
$GPGGA,205127.44,3731.4131080,N,12220.9756580,W,1,0,0.0,148.3796,M,0.0000,M,0.0000,0000*6f
$GPRMC,205127.44,A,3731.4131080,N,12220.9756580,W,8.0197,227.3631,140721,,,,A*6f
$GPGGA,205128.44,3731.4115120,N,12220.9781000,W,1,0,0.0,148.2642,M,0.0000,M,0.0000,0000*63
$GPRMC,205128.44,A,3731.4115120,N,12220.9781000,W,10.0031,230.3743,140721,,,,A*5c
$GPGGA,205129.44,3731.4095980,N,12220.9810820,W,1,0,0.0,148.0875,M,0.0000,M,0.0000,0000*6c
$GPRMC,205129.44,A,3731.4095980,N,12220.9810820,W,11.6905,231.0231,140721,,,,A*50
$GPGGA,205130.44,3731.4074920,N,12220.9843100,W,1,0,0.0,147.8379,M,0.0000,M,0.0000,0000*6c
$GPRMC,205130.44,A,3731.4074920,N,12220.9843100,W,12.1433,230.6403,140721,,,,A*5c
$GPGGA,205131.44,3731.4053500,N,12220.9875440,W,1,0,0.0,147.5859,M,0.0000,M,0.0000,0000*66
$GPRMC,205131.44,A,3731.4053500,N,12220.9875440,W,11.7930,229.9878,140721,,,,A*5e
$GPGGA,205132.44,3731.4033400,N,12220.9905080,W,1,0,0.0,147.3527,M,0.0000,M,0.0000,0000*6e
$GPRMC,205132.44,A,3731.4033400,N,12220.9905080,W,10.2563,229.6987,140721,,,,A*54
$GPGGA,205133.44,3731.4017500,N,12220.9928420,W,1,0,0.0,147.1735,M,0.0000,M,0.0000,0000*6a
$GPRMC,205133.44,A,3731.4017500,N,12220.9928420,W,7.1380,229.4974,140721,,,,A*63
$GPGGA,205134.44,3731.4007780,N,12220.9942640,W,1,0,0.0,147.0829,M,0.0000,M,0.0000,0000*6d
$GPRMC,205134.44,A,3731.4007780,N,12220.9942640,W,3.7042,229.4476,140721,,,,A*67
$GPGGA,205135.44,3731.4003340,N,12220.9949180,W,1,0,0.0,147.0364,M,0.0000,M,0.0000,0000*62
$GPRMC,205135.44,A,3731.4003340,N,12220.9949180,W,2.1470,229.4436,140721,,,,A*6c
$GPGGA,205136.44,3731.3997820,N,12220.9957220,W,1,0,0.0,146.9850,M,0.0000,M,0.0000,0000*6d
$GPRMC,205136.44,A,3731.3997820,N,12220.9957220,W,4.2775,229.4506,140721,,,,A*66
$GPGGA,205137.44,3731.3987620,N,12220.9972460,W,1,0,0.0,146.9306,M,0.0000,M,0.0000,0000*6e
$GPRMC,205137.44,A,3731.3987620,N,12220.9972460,W,7.0944,229.8394,140721,,,,A*61
$GPGGA,205138.44,3731.3973280,N,12220.9994180,W,1,0,0.0,146.8909,M,0.0000,M,0.0000,0000*63
$GPRMC,205138.44,A,3731.3973280,N,12220.9994180,W,8.4335,230.2682,140721,,,,A*6f
$GPGGA,205139.44,3731.3958760,N,12221.0016440,W,1,0,0.0,146.8951,M,0.0000,M,0.0000,0000*6f
$GPRMC,205139.44,A,3731.3958760,N,12221.0016440,W,7.9862,230.6318,140721,,,,A*67
$GPGGA,205140.44,3731.3945260,N,12221.0037260,W,1,0,0.0,146.9672,M,0.0000,M,0.0000,0000*60
$GPRMC,205140.44,A,3731.3945260,N,12221.0037260,W,7.3376,230.9748,140721,,,,A*6d
$GPGGA,205141.44,3731.3933080,N,12221.0056280,W,1,0,0.0,147.0502,M,0.0000,M,0.0000,0000*69
$GPRMC,205141.44,A,3731.3933080,N,12221.0056280,W,6.5817,231.3313,140721,,,,A*62
$GPGGA,205142.44,3731.3922400,N,12221.0073260,W,1,0,0.0,147.1556,M,0.0000,M,0.0000,0000*6f
$GPRMC,205142.44,A,3731.3922400,N,12221.0073260,W,5.8206,231.5618,140721,,,,A*68
$GPGGA,205143.44,3731.3912920,N,12221.0088320,W,1,0,0.0,147.2429,M,0.0000,M,0.0000,0000*69
$GPRMC,205143.44,A,3731.3912920,N,12221.0088320,W,5.2574,231.6136,140721,,,,A*64
$GPGGA,205144.44,3731.3904160,N,12221.0102120,W,1,0,0.0,147.3399,M,0.0000,M,0.0000,0000*69
$GPRMC,205144.44,A,3731.3904160,N,12221.0102120,W,4.8516,231.5479,140721,,,,A*6b
$GPGGA,205145.44,3731.3896000,N,12221.0114900,W,1,0,0.0,147.4496,M,0.0000,M,0.0000,0000*67
$GPRMC,205145.44,A,3731.3896000,N,12221.0114900,W,4.5340,231.4883,140721,,,,A*6a
$GPGGA,205146.44,3731.3888320,N,12221.0127080,W,1,0,0.0,147.5502,M,0.0000,M,0.0000,0000*66
$GPRMC,205146.44,A,3731.3888320,N,12221.0127080,W,4.3379,231.4606,140721,,,,A*69
$GPGGA,205147.44,3731.3880100,N,12221.0139860,W,1,0,0.0,147.6396,M,0.0000,M,0.0000,0000*6e
$GPRMC,205147.44,A,3731.3880100,N,12221.0139860,W,5.3818,231.0879,140721,,,,A*66
$GPGGA,205148.44,3731.3869240,N,12221.0156420,W,1,0,0.0,147.7954,M,0.0000,M,0.0000,0000*65
$GPRMC,205148.44,A,3731.3869240,N,12221.0156420,W,7.0768,230.5687,140721,,,,A*6a
$GPGGA,205149.44,3731.3854540,N,12221.0178560,W,1,0,0.0,147.9979,M,0.0000,M,0.0000,0000*65
$GPRMC,205149.44,A,3731.3854540,N,12221.0178560,W,9.4709,230.2108,140721,,,,A*61
$GPGGA,205150.44,3731.3835280,N,12221.0206820,W,1,0,0.0,148.2437,M,0.0000,M,0.0000,0000*61
$GPRMC,205150.44,A,3731.3835280,N,12221.0206820,W,11.7645,229.4898,140721,,,,A*5b
$GPGGA,205151.44,3731.3812120,N,12221.0240660,W,1,0,0.0,148.5577,M,0.0000,M,0.0000,0000*66
$GPRMC,205151.44,A,3731.3812120,N,12221.0240660,W,13.7510,229.2906,140721,,,,A*5f
$GPGGA,205152.44,3731.3786980,N,12221.0277320,W,1,0,0.0,148.9294,M,0.0000,M,0.0000,0000*66
$GPRMC,205152.44,A,3731.3786980,N,12221.0277320,W,13.5861,229.3344,140721,,,,A*5d
$GPGGA,205153.44,3731.3763460,N,12221.0311940,W,1,0,0.0,149.2553,M,0.0000,M,0.0000,0000*64
$GPRMC,205153.44,A,3731.3763460,N,12221.0311940,W,12.0874,229.6471,140721,,,,A*5d
$GPGGA,205154.44,3731.3745280,N,12221.0339060,W,1,0,0.0,149.5081,M,0.0000,M,0.0000,0000*63
$GPRMC,205154.44,A,3731.3745280,N,12221.0339060,W,8.1194,229.9947,140721,,,,A*6d
$GPGGA,205155.44,3731.3734360,N,12221.0355500,W,1,0,0.0,149.6342,M,0.0000,M,0.0000,0000*6d
$GPRMC,205155.44,A,3731.3734360,N,12221.0355500,W,4.4741,230.2090,140721,,,,A*6b
$GPGGA,205156.44,3731.3726680,N,12221.0367920,W,1,0,0.0,149.7032,M,0.0000,M,0.0000,0000*6c
$GPRMC,205156.44,A,3731.3726680,N,12221.0367920,W,4.8424,231.9449,140721,,,,A*69
$GPGGA,205157.44,3731.3718760,N,12221.0384300,W,1,0,0.0,149.7936,M,0.0000,M,0.0000,0000*67
$GPRMC,205157.44,A,3731.3718760,N,12221.0384300,W,6.0741,238.1725,140721,,,,A*6d
$GPGGA,205158.44,3731.3714860,N,12221.0406380,W,1,0,0.0,149.8457,M,0.0000,M,0.0000,0000*6b
$GPRMC,205158.44,A,3731.3714860,N,12221.0406380,W,6.3867,256.4392,140721,,,,A*69
$GPGGA,205159.44,3731.3718460,N,12221.0429480,W,1,0,0.0,149.7869,M,0.0000,M,0.0000,0000*6e
$GPRMC,205159.44,A,3731.3718460,N,12221.0429480,W,6.9041,279.1765,140721,,,,A*60
$GPGGA,205200.44,3731.3730580,N,12221.0453000,W,1,0,0.0,149.8034,M,0.0000,M,0.0000,0000*6a
$GPRMC,205200.44,A,3731.3730580,N,12221.0453000,W,8.9271,302.1306,140721,,,,A*68
$GPGGA,205201.44,3731.3750500,N,12221.0479700,W,1,0,0.0,149.7800,M,0.0000,M,0.0000,0000*6a
$GPRMC,205201.44,A,3731.3750500,N,12221.0479700,W,11.9896,313.3606,140721,,,,A*54
$GPGGA,205202.44,3731.3778100,N,12221.0512340,W,1,0,0.0,149.7270,M,0.0000,M,0.0000,0000*66
$GPRMC,205202.44,A,3731.3778100,N,12221.0512340,W,15.3987,317.3109,140721,,,,A*56
$GPGGA,205203.44,3731.3813620,N,12221.0551940,W,1,0,0.0,149.5829,M,0.0000,M,0.0000,0000*69
$GPRMC,205203.44,A,3731.3813620,N,12221.0551940,W,18.6190,318.8376,140721,,,,A*55
$GPGGA,205204.44,3731.3856760,N,12221.0598140,W,1,0,0.0,149.2184,M,0.0000,M,0.0000,0000*6e
$GPRMC,205204.44,A,3731.3856760,N,12221.0598140,W,22.1482,319.7973,140721,,,,A*52
$GPGGA,205205.44,3731.3905420,N,12221.0650580,W,1,0,0.0,148.5911,M,0.0000,M,0.0000,0000*62
$GPRMC,205205.44,A,3731.3905420,N,12221.0650580,W,23.6329,319.5423,140721,,,,A*56
$GPGGA,205206.44,3731.3956480,N,12221.0704940,W,1,0,0.0,147.8403,M,0.0000,M,0.0000,0000*61
$GPRMC,205206.44,A,3731.3956480,N,12221.0704940,W,24.5588,319.7723,140721,,,,A*51
$GPGGA,205207.44,3731.4009820,N,12221.0761340,W,1,0,0.0,147.0205,M,0.0000,M,0.0000,0000*63
$GPRMC,205207.44,A,3731.4009820,N,12221.0761340,W,25.6332,319.7278,140721,,,,A*55
$GPGGA,205208.44,3731.4065440,N,12221.0820440,W,1,0,0.0,146.1556,M,0.0000,M,0.0000,0000*60
$GPRMC,205208.44,A,3731.4065440,N,12221.0820440,W,26.7533,320.1248,140721,,,,A*5d
$GPGGA,205209.44,3731.4123400,N,12221.0881820,W,1,0,0.0,145.3052,M,0.0000,M,0.0000,0000*67
$GPRMC,205209.44,A,3731.4123400,N,12221.0881820,W,27.6262,319.6479,140721,,,,A*50
$GPGGA,205210.44,3731.4182380,N,12221.0944700,W,1,0,0.0,144.5781,M,0.0000,M,0.0000,0000*60
$GPRMC,205210.44,A,3731.4182380,N,12221.0944700,W,27.9684,319.7743,140721,,,,A*51
$GPGGA,205211.44,3731.4242020,N,12221.1007700,W,1,0,0.0,144.0391,M,0.0000,M,0.0000,0000*68
$GPRMC,205211.44,A,3731.4242020,N,12221.1007700,W,28.0424,320.2021,140721,,,,A*5b
$GPGGA,205212.44,3731.4301840,N,12221.1070400,W,1,0,0.0,143.5579,M,0.0000,M,0.0000,0000*62
$GPRMC,205212.44,A,3731.4301840,N,12221.1070400,W,28.0293,320.1160,140721,,,,A*5e
$GPGGA,205213.44,3731.4361660,N,12221.1133220,W,1,0,0.0,143.0782,M,0.0000,M,0.0000,0000*68
$GPRMC,205213.44,A,3731.4361660,N,12221.1133220,W,28.0303,320.1519,140721,,,,A*55
$GPGGA,205214.44,3731.4421420,N,12221.1196100,W,1,0,0.0,142.5734,M,0.0000,M,0.0000,0000*6d
$GPRMC,205214.44,A,3731.4421420,N,12221.1196100,W,28.0637,319.9974,140721,,,,A*5e
$GPGGA,205215.44,3731.4481120,N,12221.1259340,W,1,0,0.0,142.0700,M,0.0000,M,0.0000,0000*67
$GPRMC,205215.44,A,3731.4481120,N,12221.1259340,W,28.0989,319.8392,140721,,,,A*5f
$GPGGA,205216.44,3731.4540700,N,12221.1322820,W,1,0,0.0,141.5729,M,0.0000,M,0.0000,0000*61
$GPRMC,205216.44,A,3731.4540700,N,12221.1322820,W,28.0302,319.7463,140721,,,,A*5b
$GPGGA,205217.44,3731.4598600,N,12221.1383960,W,1,0,0.0,141.1064,M,0.0000,M,0.0000,0000*60
$GPRMC,205217.44,A,3731.4598600,N,12221.1383960,W,25.8241,320.0471,140721,,,,A*5d
$GPGGA,205218.44,3731.4649660,N,12221.1437540,W,1,0,0.0,140.6861,M,0.0000,M,0.0000,0000*6b
$GPRMC,205218.44,A,3731.4649660,N,12221.1437540,W,21.9593,319.9732,140721,,,,A*57
$GPGGA,205219.44,3731.4691780,N,12221.1482420,W,1,0,0.0,140.3272,M,0.0000,M,0.0000,0000*64
$GPRMC,205219.44,A,3731.4691780,N,12221.1482420,W,17.6865,319.5609,140721,,,,A*5e
$GPGGA,205220.44,3731.4724300,N,12221.1517280,W,1,0,0.0,140.0284,M,0.0000,M,0.0000,0000*66
$GPRMC,205220.44,A,3731.4724300,N,12221.1517280,W,13.0608,319.6587,140721,,,,A*57
$GPGGA,205221.44,3731.4747580,N,12221.1541940,W,1,0,0.0,139.8168,M,0.0000,M,0.0000,0000*6f
$GPRMC,205221.44,A,3731.4747580,N,12221.1541940,W,8.9915,319.8105,140721,,,,A*69
$GPGGA,205222.44,3731.4762640,N,12221.1558080,W,1,0,0.0,139.6782,M,0.0000,M,0.0000,0000*65
$GPRMC,205222.44,A,3731.4762640,N,12221.1558080,W,5.3172,319.7127,140721,,,,A*6e
$GPGGA,205223.44,3731.4770740,N,12221.1566900,W,1,0,0.0,139.6423,M,0.0000,M,0.0000,0000*62
$GPRMC,205223.44,A,3731.4770740,N,12221.1566900,W,2.7265,319.6032,140721,,,,A*63
$GPGGA,205224.44,3731.4777640,N,12221.1574280,W,1,0,0.0,139.5939,M,0.0000,M,0.0000,0000*66
$GPRMC,205224.44,A,3731.4777640,N,12221.1574280,W,4.0367,319.2891,140721,,,,A*65
$GPGGA,205225.44,3731.4787420,N,12221.1587180,W,1,0,0.0,139.5212,M,0.0000,M,0.0000,0000*61
$GPRMC,205225.44,A,3731.4787420,N,12221.1587180,W,6.1778,314.7695,140721,,,,A*6b
$GPGGA,205226.44,3731.4797140,N,12221.1608480,W,1,0,0.0,139.4459,M,0.0000,M,0.0000,0000*69
$GPRMC,205226.44,A,3731.4797140,N,12221.1608480,W,7.6823,300.2640,140721,,,,A*64
$GPGGA,205227.44,3731.4800440,N,12221.1635360,W,1,0,0.0,139.3647,M,0.0000,M,0.0000,0000*61
$GPRMC,205227.44,A,3731.4800440,N,12221.1635360,W,7.8146,278.3889,140721,,,,A*66
$GPGGA,205228.44,3731.4793480,N,12221.1662960,W,1,0,0.0,139.2095,M,0.0000,M,0.0000,0000*67
$GPRMC,205228.44,A,3731.4793480,N,12221.1662960,W,8.8149,252.2897,140721,,,,A*6e
$GPGGA,205229.44,3731.4778240,N,12221.1689720,W,1,0,0.0,139.0411,M,0.0000,M,0.0000,0000*6c
$GPRMC,205229.44,A,3731.4778240,N,12221.1689720,W,10.1381,234.9504,140721,,,,A*55
$GPGGA,205230.44,3731.4758620,N,12221.1719240,W,1,0,0.0,138.8453,M,0.0000,M,0.0000,0000*60
$GPRMC,205230.44,A,3731.4758620,N,12221.1719240,W,12.0273,230.0050,140721,,,,A*50
$GPGGA,205231.44,3731.4734560,N,12221.1753980,W,1,0,0.0,138.5714,M,0.0000,M,0.0000,0000*68
$GPRMC,205231.44,A,3731.4734560,N,12221.1753980,W,14.3664,229.1030,140721,,,,A*5d
$GPGGA,205232.44,3731.4706900,N,12221.1793820,W,1,0,0.0,138.1843,M,0.0000,M,0.0000,0000*6e
$GPRMC,205232.44,A,3731.4706900,N,12221.1793820,W,16.0719,228.9021,140721,,,,A*51
$GPGGA,205233.44,3731.4674860,N,12221.1838400,W,1,0,0.0,137.7340,M,0.0000,M,0.0000,0000*6d
$GPRMC,205233.44,A,3731.4674860,N,12221.1838400,W,18.2821,227.5329,140721,,,,A*53
$GPGGA,205234.44,3731.4637240,N,12221.1885680,W,1,0,0.0,137.2089,M,0.0000,M,0.0000,0000*6a
$GPRMC,205234.44,A,3731.4637240,N,12221.1885680,W,19.8366,224.2129,140721,,,,A*52
$GPGGA,205235.44,3731.4596080,N,12221.1934820,W,1,0,0.0,136.7047,M,0.0000,M,0.0000,0000*64
$GPRMC,205235.44,A,3731.4596080,N,12221.1934820,W,21.0445,223.7014,140721,,,,A*52
$GPGGA,205236.44,3731.4552460,N,12221.1986900,W,1,0,0.0,136.1215,M,0.0000,M,0.0000,0000*6c
$GPRMC,205236.44,A,3731.4552460,N,12221.1986900,W,22.1423,223.6751,140721,,,,A*5c
$GPGGA,205237.44,3731.4507040,N,12221.2040780,W,1,0,0.0,135.4240,M,0.0000,M,0.0000,0000*6b
$GPRMC,205237.44,A,3731.4507040,N,12221.2040780,W,22.7814,223.3387,140721,,,,A*59
$GPGGA,205238.44,3731.4459880,N,12221.2094720,W,1,0,0.0,134.6345,M,0.0000,M,0.0000,0000*6e
$GPRMC,205238.44,A,3731.4459880,N,12221.2094720,W,22.9387,221.8636,140721,,,,A*52
$GPGGA,205239.44,3731.4410740,N,12221.2145060,W,1,0,0.0,133.7355,M,0.0000,M,0.0000,0000*68
$GPRMC,205239.44,A,3731.4410740,N,12221.2145060,W,22.6931,217.8838,140721,,,,A*5e
$GPGGA,205240.44,3731.4359200,N,12221.2190600,W,1,0,0.0,132.7561,M,0.0000,M,0.0000,0000*65
$GPRMC,205240.44,A,3731.4359200,N,12221.2190600,W,22.8579,213.7126,140721,,,,A*50
$GPGGA,205241.44,3731.4303880,N,12221.2231100,W,1,0,0.0,131.7061,M,0.0000,M,0.0000,0000*60
$GPRMC,205241.44,A,3731.4303880,N,12221.2231100,W,23.2070,208.4010,140721,,,,A*59
$GPGGA,205242.44,3731.4245140,N,12221.2265120,W,1,0,0.0,130.6028,M,0.0000,M,0.0000,0000*6b
$GPRMC,205242.44,A,3731.4245140,N,12221.2265120,W,23.3639,202.8004,140721,,,,A*56
$GPGGA,205243.44,3731.4184000,N,12221.2295000,W,1,0,0.0,129.4916,M,0.0000,M,0.0000,0000*63
$GPRMC,205243.44,A,3731.4184000,N,12221.2295000,W,24.0292,200.7160,140721,,,,A*5f
$GPGGA,205244.44,3731.4120640,N,12221.2325420,W,1,0,0.0,128.3913,M,0.0000,M,0.0000,0000*67
$GPRMC,205244.44,A,3731.4120640,N,12221.2325420,W,24.5207,201.3362,140721,,,,A*54
$GPGGA,205245.44,3731.4059620,N,12221.2361120,W,1,0,0.0,127.2575,M,0.0000,M,0.0000,0000*68
$GPRMC,205245.44,A,3731.4059620,N,12221.2361120,W,23.8565,208.1053,140721,,,,A*5a
$GPGGA,205246.44,3731.4005740,N,12221.2408940,W,1,0,0.0,126.1081,M,0.0000,M,0.0000,0000*6f
$GPRMC,205246.44,A,3731.4005740,N,12221.2408940,W,23.5825,219.7993,140721,,,,A*56
$GPGGA,205247.44,3731.3961400,N,12221.2469060,W,1,0,0.0,124.9683,M,0.0000,M,0.0000,0000*67
$GPRMC,205247.44,A,3731.3961400,N,12221.2469060,W,23.2588,231.4493,140721,,,,A*59
$GPGGA,205248.44,3731.3928760,N,12221.2537820,W,1,0,0.0,123.8579,M,0.0000,M,0.0000,0000*66
$GPRMC,205248.44,A,3731.3928760,N,12221.2537820,W,22.5855,243.7003,140721,,,,A*58
$GPGGA,205249.44,3731.3908540,N,12221.2612280,W,1,0,0.0,122.8608,M,0.0000,M,0.0000,0000*65
$GPRMC,205249.44,A,3731.3908540,N,12221.2612280,W,22.4541,255.1259,140721,,,,A*5a
$GPGGA,205250.44,3731.3900500,N,12221.2691600,W,1,0,0.0,121.7653,M,0.0000,M,0.0000,0000*64
$GPRMC,205250.44,A,3731.3900500,N,12221.2691600,W,23.3204,267.0837,140721,,,,A*5b
$GPGGA,205251.44,3731.3905600,N,12221.2774160,W,1,0,0.0,120.7361,M,0.0000,M,0.0000,0000*6d
$GPRMC,205251.44,A,3731.3905600,N,12221.2774160,W,24.0284,278.8903,140721,,,,A*5b
$GPGGA,205252.44,3731.3923240,N,12221.2856840,W,1,0,0.0,119.7143,M,0.0000,M,0.0000,0000*66
$GPRMC,205252.44,A,3731.3923240,N,12221.2856840,W,25.1657,287.7305,140721,,,,A*51
$GPGGA,205253.44,3731.3950120,N,12221.2942460,W,1,0,0.0,118.6440,M,0.0000,M,0.0000,0000*6a
$GPRMC,205253.44,A,3731.3950120,N,12221.2942460,W,27.4586,294.0146,140721,,,,A*53
$GPGGA,205254.44,3731.3986240,N,12221.3029580,W,1,0,0.0,117.3396,M,0.0000,M,0.0000,0000*6f
$GPRMC,205254.44,A,3731.3986240,N,12221.3029580,W,29.0071,299.8299,140721,,,,A*53
$GPGGA,205255.44,3731.4032320,N,12221.3118140,W,1,0,0.0,115.8093,M,0.0000,M,0.0000,0000*6c
$GPRMC,205255.44,A,3731.4032320,N,12221.3118140,W,31.6084,305.3711,140721,,,,A*50
$GPGGA,205256.44,3731.4088360,N,12221.3209280,W,1,0,0.0,114.3346,M,0.0000,M,0.0000,0000*67
$GPRMC,205256.44,A,3731.4088360,N,12221.3209280,W,34.2967,309.4476,140721,,,,A*56
$GPGGA,205257.44,3731.4154000,N,12221.3302460,W,1,0,0.0,112.8371,M,0.0000,M,0.0000,0000*68
$GPRMC,205257.44,A,3731.4154000,N,12221.3302460,W,36.8553,312.7493,140721,,,,A*51
$GPGGA,205258.44,3731.4226360,N,12221.3399720,W,1,0,0.0,111.4036,M,0.0000,M,0.0000,0000*6e
$GPRMC,205258.44,A,3731.4226360,N,12221.3399720,W,39.3328,313.2673,140721,,,,A*5e
$GPGGA,205259.44,3731.4303400,N,12221.3502740,W,1,0,0.0,110.1623,M,0.0000,M,0.0000,0000*6c
$GPRMC,205259.44,A,3731.4303400,N,12221.3502740,W,41.5895,313.1853,140721,,,,A*51
$GPGGA,205300.44,3731.4385300,N,12221.3611040,W,1,0,0.0,108.8116,M,0.0000,M,0.0000,0000*6f
$GPRMC,205300.44,A,3731.4385300,N,12221.3611040,W,43.9307,314.1271,140721,,,,A*50
$GPGGA,205301.44,3731.4473620,N,12221.3722460,W,1,0,0.0,107.4250,M,0.0000,M,0.0000,0000*62
$GPRMC,205301.44,A,3731.4473620,N,12221.3722460,W,46.0986,315.6176,140721,,,,A*52
$GPGGA,205302.44,3731.4568240,N,12221.3836520,W,1,0,0.0,106.0613,M,0.0000,M,0.0000,0000*61
$GPRMC,205302.44,A,3731.4568240,N,12221.3836520,W,48.1689,316.9644,140721,,,,A*52
$GPGGA,205303.44,3731.4668920,N,12221.3951840,W,1,0,0.0,104.8769,M,0.0000,M,0.0000,0000*63
$GPRMC,205303.44,A,3731.4668920,N,12221.3951840,W,49.6773,318.4308,140721,,,,A*5a
$GPGGA,205304.44,3731.4773920,N,12221.4067340,W,1,0,0.0,104.0341,M,0.0000,M,0.0000,0000*69
$GPRMC,205304.44,A,3731.4773920,N,12221.4067340,W,50.6382,319.8426,140721,,,,A*52
$GPGGA,205305.44,3731.4883840,N,12221.4180080,W,1,0,0.0,103.3266,M,0.0000,M,0.0000,0000*68
$GPRMC,205305.44,A,3731.4883840,N,12221.4180080,W,51.3986,322.0676,140721,,,,A*5e
$GPGGA,205306.44,3731.4998260,N,12221.4290360,W,1,0,0.0,102.4785,M,0.0000,M,0.0000,0000*69
$GPRMC,205306.44,A,3731.4998260,N,12221.4290360,W,52.4821,322.8563,140721,,,,A*56
$GPGGA,205307.44,3731.5117000,N,12221.4402440,W,1,0,0.0,101.5763,M,0.0000,M,0.0000,0000*60
$GPRMC,205307.44,A,3731.5117000,N,12221.4402440,W,54.5738,323.2080,140721,,,,A*56
$GPGGA,205308.44,3731.5240660,N,12221.4519800,W,1,0,0.0,100.5380,M,0.0000,M,0.0000,0000*65
$GPRMC,205308.44,A,3731.5240660,N,12221.4519800,W,56.5368,322.6666,140721,,,,A*53
$GPGGA,205309.44,3731.5365400,N,12221.4640160,W,1,0,0.0,99.4157,M,0.0000,M,0.0000,0000*5e
$GPRMC,205309.44,A,3731.5365400,N,12221.4640160,W,56.6434,322.5033,140721,,,,A*58
$GPGGA,205310.44,3731.5490260,N,12221.4760820,W,1,0,0.0,98.2284,M,0.0000,M,0.0000,0000*5f
$GPRMC,205310.44,A,3731.5490260,N,12221.4760820,W,56.5705,322.5711,140721,,,,A*56
$GPGGA,205311.44,3731.5615840,N,12221.4879080,W,1,0,0.0,97.0468,M,0.0000,M,0.0000,0000*55
$GPRMC,205311.44,A,3731.5615840,N,12221.4879080,W,56.3574,323.8573,140721,,,,A*5d
$GPGGA,205312.44,3731.5743640,N,12221.4992720,W,1,0,0.0,95.7864,M,0.0000,M,0.0000,0000*56
$GPRMC,205312.44,A,3731.5743640,N,12221.4992720,W,56.3367,325.6245,140721,,,,A*55
$GPGGA,205313.44,3731.5875040,N,12221.5101740,W,1,0,0.0,94.5524,M,0.0000,M,0.0000,0000*54
$GPRMC,205313.44,A,3731.5875040,N,12221.5101740,W,56.9200,327.5688,140721,,,,A*53
$GPGGA,205314.44,3731.6011060,N,12221.5205540,W,1,0,0.0,93.4164,M,0.0000,M,0.0000,0000*5b
$GPRMC,205314.44,A,3731.6011060,N,12221.5205540,W,57.5966,330.0491,140721,,,,A*55
$GPGGA,205315.44,3731.6152240,N,12221.5302920,W,1,0,0.0,92.4831,M,0.0000,M,0.0000,0000*58
$GPRMC,205315.44,A,3731.6152240,N,12221.5302920,W,58.1889,332.4456,140721,,,,A*58
$GPGGA,205316.44,3731.6298100,N,12221.5393220,W,1,0,0.0,91.7619,M,0.0000,M,0.0000,0000*5e
$GPRMC,205316.44,A,3731.6298100,N,12221.5393220,W,58.7039,335.1506,140721,,,,A*59
$GPGGA,205317.44,3731.6448040,N,12221.5476260,W,1,0,0.0,91.2610,M,0.0000,M,0.0000,0000*55
$GPRMC,205317.44,A,3731.6448040,N,12221.5476260,W,59.0920,337.3466,140721,,,,A*5e
$GPGGA,205318.44,3731.6600980,N,12221.5552580,W,1,0,0.0,91.0056,M,0.0000,M,0.0000,0000*59
$GPRMC,205318.44,A,3731.6600980,N,12221.5552580,W,59.2279,339.4882,140721,,,,A*5e
$GPGGA,205319.44,3731.6756260,N,12221.5621460,W,1,0,0.0,91.2450,M,0.0000,M,0.0000,0000*57
$GPRMC,205319.44,A,3731.6756260,N,12221.5621460,W,59.1511,341.4399,140721,,,,A*54
$GPGGA,205320.44,3731.6912140,N,12221.5686860,W,1,0,0.0,91.5084,M,0.0000,M,0.0000,0000*59
$GPRMC,205320.44,A,3731.6912140,N,12221.5686860,W,59.0574,341.7884,140721,,,,A*56
$GPGGA,205321.44,3731.7068140,N,12221.5750580,W,1,0,0.0,91.9263,M,0.0000,M,0.0000,0000*53
$GPRMC,205321.44,A,3731.7068140,N,12221.5750580,W,58.8694,342.0854,140721,,,,A*56
$GPGGA,205322.44,3731.7223360,N,12221.5814480,W,1,0,0.0,92.4388,M,0.0000,M,0.0000,0000*59
$GPRMC,205322.44,A,3731.7223360,N,12221.5814480,W,58.6072,341.8075,140721,,,,A*56
$GPGGA,205323.44,3731.7377320,N,12221.5879520,W,1,0,0.0,93.1790,M,0.0000,M,0.0000,0000*55
$GPRMC,205323.44,A,3731.7377320,N,12221.5879520,W,58.2145,341.0619,140721,,,,A*56
$GPGGA,205324.44,3731.7529840,N,12221.5945400,W,1,0,0.0,94.0652,M,0.0000,M,0.0000,0000*56
$GPRMC,205324.44,A,3731.7529840,N,12221.5945400,W,57.8068,341.1871,140721,,,,A*56
$GPGGA,205325.44,3731.7681700,N,12221.6010020,W,1,0,0.0,95.0007,M,0.0000,M,0.0000,0000*56
$GPRMC,205325.44,A,3731.7681700,N,12221.6010020,W,57.4351,341.4935,140721,,,,A*50
$GPGGA,205326.44,3731.7832480,N,12221.6073380,W,1,0,0.0,95.8780,M,0.0000,M,0.0000,0000*54
$GPRMC,205326.44,A,3731.7832480,N,12221.6073380,W,56.9552,341.4911,140721,,,,A*5d
$GPGGA,205327.44,3731.7982120,N,12221.6136320,W,1,0,0.0,96.7026,M,0.0000,M,0.0000,0000*5d
$GPRMC,205327.44,A,3731.7982120,N,12221.6136320,W,56.5496,341.4656,140721,,,,A*5a
$GPGGA,205328.44,3731.8130680,N,12221.6199800,W,1,0,0.0,97.5633,M,0.0000,M,0.0000,0000*5c
$GPRMC,205328.44,A,3731.8130680,N,12221.6199800,W,56.3074,341.0723,140721,,,,A*53
$GPGGA,205329.44,3731.8278640,N,12221.6263580,W,1,0,0.0,98.5062,M,0.0000,M,0.0000,0000*50
$GPRMC,205329.44,A,3731.8278640,N,12221.6263580,W,56.1699,340.9761,140721,,,,A*5b
$GPGGA,205330.44,3731.8426120,N,12221.6327540,W,1,0,0.0,99.3552,M,0.0000,M,0.0000,0000*58
$GPRMC,205330.44,A,3731.8426120,N,12221.6327540,W,56.0746,340.9137,140721,,,,A*55
$GPGGA,205331.44,3731.8573480,N,12221.6391440,W,1,0,0.0,100.1753,M,0.0000,M,0.0000,0000*6b
$GPRMC,205331.44,A,3731.8573480,N,12221.6391440,W,56.0101,341.0418,140721,,,,A*53
$GPGGA,205332.44,3731.8720600,N,12221.6455160,W,1,0,0.0,101.0825,M,0.0000,M,0.0000,0000*60
$GPRMC,205332.44,A,3731.8720600,N,12221.6455160,W,55.9196,341.1903,140721,,,,A*54
$GPGGA,205333.44,3731.8867900,N,12221.6517440,W,1,0,0.0,101.9439,M,0.0000,M,0.0000,0000*6a
$GPRMC,205333.44,A,3731.8867900,N,12221.6517440,W,55.8053,341.6028,140721,,,,A*58
$GPGGA,205334.44,3731.9014960,N,12221.6579300,W,1,0,0.0,102.7893,M,0.0000,M,0.0000,0000*6c
$GPRMC,205334.44,A,3731.9014960,N,12221.6579300,W,55.7392,341.4746,140721,,,,A*53
$GPGGA,205335.44,3731.9161900,N,12221.6641340,W,1,0,0.0,103.6540,M,0.0000,M,0.0000,0000*67
$GPRMC,205335.44,A,3731.9161900,N,12221.6641340,W,55.7575,341.3709,140721,,,,A*58
$GPGGA,205336.44,3731.9308660,N,12221.6703980,W,1,0,0.0,104.5147,M,0.0000,M,0.0000,0000*66
$GPRMC,205336.44,A,3731.9308660,N,12221.6703980,W,55.6934,341.1776,140721,,,,A*5c
$GPGGA,205337.44,3731.9455120,N,12221.6767040,W,1,0,0.0,105.3785,M,0.0000,M,0.0000,0000*63
$GPRMC,205337.44,A,3731.9455120,N,12221.6767040,W,55.6347,341.0741,140721,,,,A*5d
$GPGGA,205338.44,3731.9601460,N,12221.6830220,W,1,0,0.0,106.1961,M,0.0000,M,0.0000,0000*62
$GPRMC,205338.44,A,3731.9601460,N,12221.6830220,W,55.6697,341.1494,140721,,,,A*5b
$GPGGA,205339.44,3731.9747800,N,12221.6893220,W,1,0,0.0,107.1272,M,0.0000,M,0.0000,0000*6b
$GPRMC,205339.44,A,3731.9747800,N,12221.6893220,W,55.6144,341.1331,140721,,,,A*5b
$GPGGA,205340.44,3731.9894020,N,12221.6956100,W,1,0,0.0,108.0839,M,0.0000,M,0.0000,0000*6c
$GPRMC,205340.44,A,3731.9894020,N,12221.6956100,W,55.5305,341.2668,140721,,,,A*59
$GPGGA,205341.44,3732.0040060,N,12221.7018440,W,1,0,0.0,109.1423,M,0.0000,M,0.0000,0000*66
$GPRMC,205341.44,A,3732.0040060,N,12221.7018440,W,55.3655,341.3629,140721,,,,A*56
$GPGGA,205342.44,3732.0185380,N,12221.7081020,W,1,0,0.0,110.2633,M,0.0000,M,0.0000,0000*6a
$GPRMC,205342.44,A,3732.0185380,N,12221.7081020,W,55.1803,340.8476,140721,,,,A*5f
$GPGGA,205343.44,3732.0330040,N,12221.7144680,W,1,0,0.0,111.3597,M,0.0000,M,0.0000,0000*61
$GPRMC,205343.44,A,3732.0330040,N,12221.7144680,W,54.9999,340.9829,140721,,,,A*55
$GPGGA,205344.44,3732.0474280,N,12221.7207560,W,1,0,0.0,112.4818,M,0.0000,M,0.0000,0000*68
$GPRMC,205344.44,A,3732.0474280,N,12221.7207560,W,54.8072,341.0135,140721,,,,A*53
$GPGGA,205345.44,3732.0618040,N,12221.7269480,W,1,0,0.0,113.6018,M,0.0000,M,0.0000,0000*63
$GPRMC,205345.44,A,3732.0618040,N,12221.7269480,W,54.4978,341.0769,140721,,,,A*53
$GPGGA,205346.44,3732.0760360,N,12221.7332540,W,1,0,0.0,114.7328,M,0.0000,M,0.0000,0000*6b
$GPRMC,205346.44,A,3732.0760360,N,12221.7332540,W,54.0484,340.2720,140721,,,,A*59
$GPGGA,205347.44,3732.0900280,N,12221.7397040,W,1,0,0.0,115.8347,M,0.0000,M,0.0000,0000*60
$GPRMC,205347.44,A,3732.0900280,N,12221.7397040,W,52.9962,339.5859,140721,,,,A*57
$GPGGA,205348.44,3732.1036480,N,12221.7462020,W,1,0,0.0,116.9090,M,0.0000,M,0.0000,0000*64
$GPRMC,205348.44,A,3732.1036480,N,12221.7462020,W,51.8834,339.2094,140721,,,,A*56
$GPGGA,205349.44,3732.1169920,N,12221.7526460,W,1,0,0.0,117.9860,M,0.0000,M,0.0000,0000*6e
$GPRMC,205349.44,A,3732.1169920,N,12221.7526460,W,50.9447,338.8979,140721,,,,A*53
$GPGGA,205350.44,3732.1300360,N,12221.7592280,W,1,0,0.0,119.0247,M,0.0000,M,0.0000,0000*6a
$GPRMC,205350.44,A,3732.1300360,N,12221.7592280,W,50.1906,337.3729,140721,,,,A*50
$GPGGA,205351.44,3732.1428220,N,12221.7660980,W,1,0,0.0,120.0346,M,0.0000,M,0.0000,0000*6c
$GPRMC,205351.44,A,3732.1428220,N,12221.7660980,W,49.8852,336.6212,140721,,,,A*54
$GPGGA,205352.44,3732.1555120,N,12221.7731360,W,1,0,0.0,121.0526,M,0.0000,M,0.0000,0000*67
$GPRMC,205352.44,A,3732.1555120,N,12221.7731360,W,49.9365,335.8978,140721,,,,A*5a
$GPGGA,205353.44,3732.1681600,N,12221.7803540,W,1,0,0.0,122.0659,M,0.0000,M,0.0000,0000*6b
$GPRMC,205353.44,A,3732.1681600,N,12221.7803540,W,49.9591,335.7195,140721,,,,A*57
$GPGGA,205354.44,3732.1808020,N,12221.7875960,W,1,0,0.0,123.0923,M,0.0000,M,0.0000,0000*6b
$GPRMC,205354.44,A,3732.1808020,N,12221.7875960,W,49.9765,335.3287,140721,,,,A*59
$GPGGA,205355.44,3732.1933960,N,12221.7950000,W,1,0,0.0,124.0544,M,0.0000,M,0.0000,0000*6d
$GPRMC,205355.44,A,3732.1933960,N,12221.7950000,W,49.9290,334.9311,140721,,,,A*5f
$GPGGA,205356.44,3732.2058400,N,12221.8023020,W,1,0,0.0,124.9423,M,0.0000,M,0.0000,0000*6b
$GPRMC,205356.44,A,3732.2058400,N,12221.8023020,W,48.7934,335.1070,140721,,,,A*57
$GPGGA,205357.44,3732.2179780,N,12221.8094720,W,1,0,0.0,125.7986,M,0.0000,M,0.0000,0000*65
$GPRMC,205357.44,A,3732.2179780,N,12221.8094720,W,47.7823,334.6397,140721,,,,A*50
$GPGGA,205358.44,3732.2299000,N,12221.8165940,W,1,0,0.0,126.6487,M,0.0000,M,0.0000,0000*61
$GPRMC,205358.44,A,3732.2299000,N,12221.8165940,W,47.1791,334.6375,140721,,,,A*56
$GPGGA,205359.44,3732.2417200,N,12221.8236440,W,1,0,0.0,127.5679,M,0.0000,M,0.0000,0000*6b
$GPRMC,205359.44,A,3732.2417200,N,12221.8236440,W,47.0912,334.6745,140721,,,,A*5e
$GPGGA,205400.44,3732.2536240,N,12221.8307120,W,1,0,0.0,128.5375,M,0.0000,M,0.0000,0000*60
$GPRMC,205400.44,A,3732.2536240,N,12221.8307120,W,47.6403,334.6809,140721,,,,A*5f
$GPGGA,205401.44,3732.2656780,N,12221.8379060,W,1,0,0.0,129.5219,M,0.0000,M,0.0000,0000*6b
$GPRMC,205401.44,A,3732.2656780,N,12221.8379060,W,48.3576,334.6293,140721,,,,A*5e
$GPGGA,205402.44,3732.2779120,N,12221.8452200,W,1,0,0.0,130.5306,M,0.0000,M,0.0000,0000*65
$GPRMC,205402.44,A,3732.2779120,N,12221.8452200,W,49.0517,334.5413,140721,,,,A*5f
$GPGGA,205403.44,3732.2903080,N,12221.8526540,W,1,0,0.0,131.5510,M,0.0000,M,0.0000,0000*6d
$GPRMC,205403.44,A,3732.2903080,N,12221.8526540,W,49.7484,334.6273,140721,,,,A*58
$GPGGA,205404.44,3732.3028780,N,12221.8601900,W,1,0,0.0,132.5837,M,0.0000,M,0.0000,0000*69
$GPRMC,205404.44,A,3732.3028780,N,12221.8601900,W,50.4121,334.4572,140721,,,,A*52
$GPGGA,205405.44,3732.3156100,N,12221.8678280,W,1,0,0.0,133.6274,M,0.0000,M,0.0000,0000*6c
$GPRMC,205405.44,A,3732.3156100,N,12221.8678280,W,51.0387,334.6824,140721,,,,A*5f
$GPGGA,205406.44,3732.3285100,N,12221.8755140,W,1,0,0.0,134.6784,M,0.0000,M,0.0000,0000*6e
$GPRMC,205406.44,A,3732.3285100,N,12221.8755140,W,51.6189,334.6481,140721,,,,A*59
$GPGGA,205407.44,3732.3415480,N,12221.8832960,W,1,0,0.0,135.7484,M,0.0000,M,0.0000,0000*6a
$GPRMC,205407.44,A,3732.3415480,N,12221.8832960,W,52.1768,334.6594,140721,,,,A*56
$GPGGA,205408.44,3732.3547240,N,12221.8911260,W,1,0,0.0,136.8615,M,0.0000,M,0.0000,0000*64
$GPRMC,205408.44,A,3732.3547240,N,12221.8911260,W,52.6975,334.6849,140721,,,,A*56
$GPGGA,205409.44,3732.3680320,N,12221.8990700,W,1,0,0.0,137.9292,M,0.0000,M,0.0000,0000*6b
$GPRMC,205409.44,A,3732.3680320,N,12221.8990700,W,53.2214,334.5792,140721,,,,A*51
$GPGGA,205410.44,3732.3814420,N,12221.9071340,W,1,0,0.0,139.0284,M,0.0000,M,0.0000,0000*60
$GPRMC,205410.44,A,3732.3814420,N,12221.9071340,W,53.7614,334.3837,140721,,,,A*5d
$GPGGA,205411.44,3732.3949900,N,12221.9153060,W,1,0,0.0,140.1333,M,0.0000,M,0.0000,0000*65
$GPRMC,205411.44,A,3732.3949900,N,12221.9153060,W,54.2079,334.5325,140721,,,,A*5b
$GPGGA,205412.44,3732.4086400,N,12221.9234600,W,1,0,0.0,141.3141,M,0.0000,M,0.0000,0000*60
$GPRMC,205412.44,A,3732.4086400,N,12221.9234600,W,54.5577,334.5061,140721,,,,A*55
$GPGGA,205413.44,3732.4223680,N,12221.9317340,W,1,0,0.0,142.6273,M,0.0000,M,0.0000,0000*63
$GPRMC,205413.44,A,3732.4223680,N,12221.9317340,W,54.9426,334.4022,140721,,,,A*5d
$GPGGA,205414.44,3732.4361800,N,12221.9400920,W,1,0,0.0,143.9757,M,0.0000,M,0.0000,0000*65
$GPRMC,205414.44,A,3732.4361800,N,12221.9400920,W,55.3162,334.4501,140721,,,,A*5c
$GPGGA,205415.44,3732.4500760,N,12221.9485340,W,1,0,0.0,145.2616,M,0.0000,M,0.0000,0000*64
$GPRMC,205415.44,A,3732.4500760,N,12221.9485340,W,55.7344,333.9533,140721,,,,A*5d
$GPGGA,205416.44,3732.4639780,N,12221.9573060,W,1,0,0.0,146.4096,M,0.0000,M,0.0000,0000*62
$GPRMC,205416.44,A,3732.4639780,N,12221.9573060,W,56.1080,332.9062,140721,,,,A*5e
$GPGGA,205417.44,3732.4778080,N,12221.9664080,W,1,0,0.0,147.5576,M,0.0000,M,0.0000,0000*60
$GPRMC,205417.44,A,3732.4778080,N,12221.9664080,W,56.1764,331.9316,140721,,,,A*59
$GPGGA,205418.44,3732.4915240,N,12221.9758400,W,1,0,0.0,148.7023,M,0.0000,M,0.0000,0000*6e
$GPRMC,205418.44,A,3732.4915240,N,12221.9758400,W,56.3348,330.8176,140721,,,,A*53
$GPGGA,205419.44,3732.5051380,N,12221.9856260,W,1,0,0.0,149.8499,M,0.0000,M,0.0000,0000*60
$GPRMC,205419.44,A,3732.5051380,N,12221.9856260,W,56.4896,329.7356,140721,,,,A*5e
$GPGGA,205420.44,3732.5186440,N,12221.9957960,W,1,0,0.0,150.9427,M,0.0000,M,0.0000,0000*6d
$GPRMC,205420.44,A,3732.5186440,N,12221.9957960,W,56.7936,328.4845,140721,,,,A*5c
$GPGGA,205421.44,3732.5320540,N,12222.0063200,W,1,0,0.0,151.9285,M,0.0000,M,0.0000,0000*65
$GPRMC,205421.44,A,3732.5320540,N,12222.0063200,W,56.8001,327.6362,140721,,,,A*5a
$GPGGA,205422.44,3732.5452840,N,12222.0170720,W,1,0,0.0,152.8076,M,0.0000,M,0.0000,0000*61
$GPRMC,205422.44,A,3732.5452840,N,12222.0170720,W,56.6781,326.6235,140721,,,,A*51
$GPGGA,205423.44,3732.5583940,N,12222.0281660,W,1,0,0.0,153.5787,M,0.0000,M,0.0000,0000*61
$GPRMC,205423.44,A,3732.5583940,N,12222.0281660,W,57.0132,325.6045,140721,,,,A*5b
$GPGGA,205424.44,3732.5714440,N,12222.0395900,W,1,0,0.0,154.2592,M,0.0000,M,0.0000,0000*6c
$GPRMC,205424.44,A,3732.5714440,N,12222.0395900,W,57.4010,324.7355,140721,,,,A*57
$GPGGA,205425.44,3732.5844280,N,12222.0513680,W,1,0,0.0,154.8397,M,0.0000,M,0.0000,0000*6b
$GPRMC,205425.44,A,3732.5844280,N,12222.0513680,W,57.7253,323.6895,140721,,,,A*5e
$GPGGA,205426.44,3732.5972440,N,12222.0634220,W,1,0,0.0,155.2884,M,0.0000,M,0.0000,0000*6c
$GPRMC,205426.44,A,3732.5972440,N,12222.0634220,W,57.3830,322.7698,140721,,,,A*53
$GPGGA,205427.44,3732.6098200,N,12222.0756680,W,1,0,0.0,155.5109,M,0.0000,M,0.0000,0000*61
$GPRMC,205427.44,A,3732.6098200,N,12222.0756680,W,57.1384,321.7580,140721,,,,A*5a
$GPGGA,205428.44,3732.6222100,N,12222.0881120,W,1,0,0.0,155.5476,M,0.0000,M,0.0000,0000*6b
$GPRMC,205428.44,A,3732.6222100,N,12222.0881120,W,56.8027,321.1666,140721,,,,A*52
$GPGGA,205429.44,3732.6343780,N,12222.1005620,W,1,0,0.0,155.5321,M,0.0000,M,0.0000,0000*65
$GPRMC,205429.44,A,3732.6343780,N,12222.1005620,W,56.1303,320.5359,140721,,,,A*59
$GPGGA,205430.44,3732.6463360,N,12222.1129460,W,1,0,0.0,155.6467,M,0.0000,M,0.0000,0000*6d
$GPRMC,205430.44,A,3732.6463360,N,12222.1129460,W,55.3424,320.6035,140721,,,,A*5e
$GPGGA,205431.44,3732.6581620,N,12222.1251980,W,1,0,0.0,155.8086,M,0.0000,M,0.0000,0000*6a
$GPRMC,205431.44,A,3732.6581620,N,12222.1251980,W,54.9578,320.4691,140721,,,,A*55
$GPGGA,205432.44,3732.6699340,N,12222.1373900,W,1,0,0.0,155.9566,M,0.0000,M,0.0000,0000*63
$GPRMC,205432.44,A,3732.6699340,N,12222.1373900,W,54.7264,320.5606,140721,,,,A*5d
$GPGGA,205433.44,3732.6816160,N,12222.1494620,W,1,0,0.0,156.1436,M,0.0000,M,0.0000,0000*67
$GPRMC,205433.44,A,3732.6816160,N,12222.1494620,W,54.0764,320.7308,140721,,,,A*5d
$GPGGA,205434.44,3732.6931960,N,12222.1613300,W,1,0,0.0,156.3170,M,0.0000,M,0.0000,0000*63
$GPRMC,205434.44,A,3732.6931960,N,12222.1613300,W,53.3603,320.6911,140721,,,,A*5b
$GPGGA,205435.44,3732.7045960,N,12222.1730660,W,1,0,0.0,156.4604,M,0.0000,M,0.0000,0000*69
$GPRMC,205435.44,A,3732.7045960,N,12222.1730660,W,52.6663,320.9049,140721,,,,A*5b
$GPGGA,205436.44,3732.7159900,N,12222.1844240,W,1,0,0.0,156.6293,M,0.0000,M,0.0000,0000*62
$GPRMC,205436.44,A,3732.7159900,N,12222.1844240,W,51.9689,322.3953,140721,,,,A*5a
$GPGGA,205437.44,3732.7274920,N,12222.1952240,W,1,0,0.0,156.7479,M,0.0000,M,0.0000,0000*68
$GPRMC,205437.44,A,3732.7274920,N,12222.1952240,W,51.2900,324.0700,140721,,,,A*5b
$GPGGA,205438.44,3732.7390360,N,12222.2055380,W,1,0,0.0,156.9241,M,0.0000,M,0.0000,0000*61
$GPRMC,205438.44,A,3732.7390360,N,12222.2055380,W,50.5657,325.2698,140721,,,,A*59
$GPGGA,205439.44,3732.7505500,N,12222.2154620,W,1,0,0.0,157.0769,M,0.0000,M,0.0000,0000*62
$GPRMC,205439.44,A,3732.7505500,N,12222.2154620,W,49.8567,325.8370,140721,,,,A*51
$GPGGA,205440.44,3732.7619080,N,12222.2252060,W,1,0,0.0,157.4007,M,0.0000,M,0.0000,0000*63
$GPRMC,205440.44,A,3732.7619080,N,12222.2252060,W,48.9785,325.6103,140721,,,,A*5d
$GPGGA,205441.44,3732.7730440,N,12222.2347640,W,1,0,0.0,157.8058,M,0.0000,M,0.0000,0000*67
$GPRMC,205441.44,A,3732.7730440,N,12222.2347640,W,48.0863,325.8568,140721,,,,A*56
$GPGGA,205442.44,3732.7840000,N,12222.2441180,W,1,0,0.0,158.2566,M,0.0000,M,0.0000,0000*6b
$GPRMC,205442.44,A,3732.7840000,N,12222.2441180,W,47.2251,326.0015,140721,,,,A*55
$GPGGA,205443.44,3732.7948000,N,12222.2532980,W,1,0,0.0,158.4412,M,0.0000,M,0.0000,0000*6a
$GPRMC,205443.44,A,3732.7948000,N,12222.2532980,W,46.5818,325.7296,140721,,,,A*5c
$GPGGA,205444.44,3732.8053960,N,12222.2625020,W,1,0,0.0,158.4225,M,0.0000,M,0.0000,0000*6a
$GPRMC,205444.44,A,3732.8053960,N,12222.2625020,W,46.1009,325.2420,140721,,,,A*5c
$GPGGA,205445.44,3732.8158540,N,12222.2716220,W,1,0,0.0,158.2327,M,0.0000,M,0.0000,0000*69
$GPRMC,205445.44,A,3732.8158540,N,12222.2716220,W,45.1526,325.3565,140721,,,,A*50
$GPGGA,205446.44,3732.8258260,N,12222.2802860,W,1,0,0.0,158.0575,M,0.0000,M,0.0000,0000*6b
$GPRMC,205446.44,A,3732.8258260,N,12222.2802860,W,41.7714,325.5281,140721,,,,A*5b
$GPGGA,205447.44,3732.8348800,N,12222.2881340,W,1,0,0.0,157.8631,M,0.0000,M,0.0000,0000*60
$GPRMC,205447.44,A,3732.8348800,N,12222.2881340,W,37.3858,325.5476,140721,,,,A*58
$GPGGA,205448.44,3732.8428360,N,12222.2949740,W,1,0,0.0,157.7085,M,0.0000,M,0.0000,0000*64
$GPRMC,205448.44,A,3732.8428360,N,12222.2949740,W,31.8257,325.8658,140721,,,,A*51
$GPGGA,205449.44,3732.8495080,N,12222.3006320,W,1,0,0.0,157.5909,M,0.0000,M,0.0000,0000*60
$GPRMC,205449.44,A,3732.8495080,N,12222.3006320,W,25.9466,326.0552,140721,,,,A*58
$GPGGA,205450.44,3732.8547580,N,12222.3050900,W,1,0,0.0,157.4536,M,0.0000,M,0.0000,0000*69
$GPRMC,205450.44,A,3732.8547580,N,12222.3050900,W,19.3454,325.7044,140721,,,,A*52
$GPGGA,205451.44,3732.8582800,N,12222.3081560,W,1,0,0.0,157.5136,M,0.0000,M,0.0000,0000*67
$GPRMC,205451.44,A,3732.8582800,N,12222.3081560,W,11.6012,325.2817,140721,,,,A*59
$GPGGA,205452.44,3732.8601520,N,12222.3097940,W,1,0,0.0,157.5982,M,0.0000,M,0.0000,0000*6d
$GPRMC,205452.44,A,3732.8601520,N,12222.3097940,W,5.0440,325.2953,140721,,,,A*65
$GPGGA,205453.44,3732.8607520,N,12222.3103160,W,1,0,0.0,157.6090,M,0.0000,M,0.0000,0000*65
$GPRMC,205453.44,A,3732.8607520,N,12222.3103160,W,0.9841,325.2970,140721,,,,A*64
$GPGGA,205454.44,3732.8610580,N,12222.3105980,W,1,0,0.0,157.6071,M,0.0000,M,0.0000,0000*61
$GPRMC,205454.44,A,3732.8610580,N,12222.3105980,W,2.2845,324.7767,140721,,,,A*6e
$GPGGA,205455.44,3732.8619760,N,12222.3116420,W,1,0,0.0,157.6529,M,0.0000,M,0.0000,0000*68
$GPRMC,205455.44,A,3732.8619760,N,12222.3116420,W,6.9273,319.6580,140721,,,,A*6b
$GPGGA,205456.44,3732.8632540,N,12222.3142640,W,1,0,0.0,157.7691,M,0.0000,M,0.0000,0000*66
$GPRMC,205456.44,A,3732.8632540,N,12222.3142640,W,10.1710,299.3881,140721,,,,A*5b
$GPGGA,205457.44,3732.8632960,N,12222.3180260,W,1,0,0.0,157.8752,M,0.0000,M,0.0000,0000*60
$GPRMC,205457.44,A,3732.8632960,N,12222.3180260,W,11.8842,265.5430,140721,,,,A*5f
$GPGGA,205458.44,3732.8615560,N,12222.3219980,W,1,0,0.0,157.9031,M,0.0000,M,0.0000,0000*63
$GPRMC,205458.44,A,3732.8615560,N,12222.3219980,W,14.4214,236.4563,140721,,,,A*5f
$GPGGA,205459.44,3732.8586460,N,12222.3262760,W,1,0,0.0,157.8938,M,0.0000,M,0.0000,0000*67
$GPRMC,205459.44,A,3732.8586460,N,12222.3262760,W,18.0776,229.4093,140721,,,,A*57
$GPGGA,205500.44,3732.8550220,N,12222.3315740,W,1,0,0.0,157.9349,M,0.0000,M,0.0000,0000*6d
$GPRMC,205500.44,A,3732.8550220,N,12222.3315740,W,21.8011,229.4814,140721,,,,A*53
$GPGGA,205501.44,3732.8508820,N,12222.3377060,W,1,0,0.0,158.0158,M,0.0000,M,0.0000,0000*6e
$GPRMC,205501.44,A,3732.8508820,N,12222.3377060,W,23.8256,229.8818,140721,,,,A*57
$GPGGA,205502.44,3732.8466340,N,12222.3440360,W,1,0,0.0,158.0739,M,0.0000,M,0.0000,0000*68
$GPRMC,205502.44,A,3732.8466340,N,12222.3440360,W,23.4606,230.0544,140721,,,,A*59
$GPGGA,205503.44,3732.8424640,N,12222.3502100,W,1,0,0.0,158.1516,M,0.0000,M,0.0000,0000*67
$GPRMC,205503.44,A,3732.8424640,N,12222.3502100,W,22.9075,229.5716,140721,,,,A*5e
$GPGGA,205504.44,3732.8383960,N,12222.3561380,W,1,0,0.0,158.2463,M,0.0000,M,0.0000,0000*68
$GPRMC,205504.44,A,3732.8383960,N,12222.3561380,W,21.6583,229.4061,140721,,,,A*57
$GPGGA,205505.44,3732.8347600,N,12222.3614900,W,1,0,0.0,158.3703,M,0.0000,M,0.0000,0000*6f
$GPRMC,205505.44,A,3732.8347600,N,12222.3614900,W,18.4383,229.6485,140721,,,,A*56
$GPGGA,205506.44,3732.8317420,N,12222.3658940,W,1,0,0.0,158.5548,M,0.0000,M,0.0000,0000*6e
$GPRMC,205506.44,A,3732.8317420,N,12222.3658940,W,14.8817,229.2008,140721,,,,A*5f
$GPGGA,205507.44,3732.8289280,N,12222.3691400,W,1,0,0.0,158.7361,M,0.0000,M,0.0000,0000*66
$GPRMC,205507.44,A,3732.8289280,N,12222.3691400,W,13.2179,218.4170,140721,,,,A*5e
$GPGGA,205508.44,3732.8255620,N,12222.3708080,W,1,0,0.0,158.9363,M,0.0000,M,0.0000,0000*67
$GPRMC,205508.44,A,3732.8255620,N,12222.3708080,W,13.4911,197.3459,140721,,,,A*5e
$GPGGA,205509.44,3732.8215420,N,12222.3708080,W,1,0,0.0,159.0184,M,0.0000,M,0.0000,0000*63
$GPRMC,205509.44,A,3732.8215420,N,12222.3708080,W,16.0674,174.4436,140721,,,,A*57
$GPGGA,205510.44,3732.8170960,N,12222.3685100,W,1,0,0.0,158.9258,M,0.0000,M,0.0000,0000*65
$GPRMC,205510.44,A,3732.8170960,N,12222.3685100,W,18.6156,152.3653,140721,,,,A*56
$GPGGA,205511.44,3732.8125360,N,12222.3643820,W,1,0,0.0,159.0413,M,0.0000,M,0.0000,0000*6e
$GPRMC,205511.44,A,3732.8125360,N,12222.3643820,W,22.0905,140.6352,140721,,,,A*5f
$GPGGA,205512.44,3732.8075800,N,12222.3588380,W,1,0,0.0,159.1089,M,0.0000,M,0.0000,0000*67
$GPRMC,205512.44,A,3732.8075800,N,12222.3588380,W,25.7341,138.1400,140721,,,,A*52
$GPGGA,205513.44,3732.8018500,N,12222.3523580,W,1,0,0.0,159.2209,M,0.0000,M,0.0000,0000*6e
$GPRMC,205513.44,A,3732.8018500,N,12222.3523580,W,29.6809,138.0642,140721,,,,A*5d
$GPGGA,205514.44,3732.7953340,N,12222.3449420,W,1,0,0.0,159.2875,M,0.0000,M,0.0000,0000*65
$GPRMC,205514.44,A,3732.7953340,N,12222.3449420,W,33.5370,137.7680,140721,,,,A*5c
$GPGGA,205515.44,3732.7880320,N,12222.3366620,W,1,0,0.0,159.3636,M,0.0000,M,0.0000,0000*6d
$GPRMC,205515.44,A,3732.7880320,N,12222.3366620,W,37.1468,138.0330,140721,,,,A*54
$GPGGA,205516.44,3732.7800100,N,12222.3275720,W,1,0,0.0,159.4579,M,0.0000,M,0.0000,0000*6b
$GPRMC,205516.44,A,3732.7800100,N,12222.3275720,W,40.4182,137.9081,140721,,,,A*56
$GPGGA,205517.44,3732.7713340,N,12222.3177440,W,1,0,0.0,159.4895,M,0.0000,M,0.0000,0000*6a
$GPRMC,205517.44,A,3732.7713340,N,12222.3177440,W,43.5453,137.9813,140721,,,,A*50
$GPGGA,205518.44,3732.7619980,N,12222.3071540,W,1,0,0.0,159.3293,M,0.0000,M,0.0000,0000*65
$GPRMC,205518.44,A,3732.7619980,N,12222.3071540,W,46.9545,137.8993,140721,,,,A*53
$GPGGA,205519.44,3732.7519720,N,12222.2957780,W,1,0,0.0,158.9396,M,0.0000,M,0.0000,0000*6e
$GPRMC,205519.44,A,3732.7519720,N,12222.2957780,W,50.0445,138.1707,140721,,,,A*5d
$GPGGA,205520.44,3732.7412500,N,12222.2839700,W,1,0,0.0,158.3100,M,0.0000,M,0.0000,0000*68
$GPRMC,205520.44,A,3732.7412500,N,12222.2839700,W,52.5878,139.5681,140721,,,,A*53
$GPGGA,205521.44,3732.7297060,N,12222.2720060,W,1,0,0.0,157.5042,M,0.0000,M,0.0000,0000*69
$GPRMC,205521.44,A,3732.7297060,N,12222.2720060,W,55.0375,141.4377,140721,,,,A*5a
$GPGGA,205522.44,3732.7174480,N,12222.2598560,W,1,0,0.0,156.6676,M,0.0000,M,0.0000,0000*69
$GPRMC,205522.44,A,3732.7174480,N,12222.2598560,W,57.2975,142.1055,140721,,,,A*56
$GPGGA,205523.44,3732.7046740,N,12222.2472920,W,1,0,0.0,155.7860,M,0.0000,M,0.0000,0000*61
$GPRMC,205523.44,A,3732.7046740,N,12222.2472920,W,59.0495,141.9593,140721,,,,A*5e
$GPGGA,205524.44,3732.6917080,N,12222.2344280,W,1,0,0.0,154.9431,M,0.0000,M,0.0000,0000*65
$GPRMC,205524.44,A,3732.6917080,N,12222.2344280,W,59.6475,141.5501,140721,,,,A*52
$GPGGA,205525.44,3732.6787180,N,12222.2215220,W,1,0,0.0,154.0618,M,0.0000,M,0.0000,0000*6d
$GPRMC,205525.44,A,3732.6787180,N,12222.2215220,W,59.4090,141.8199,140721,,,,A*5f
$GPGGA,205526.44,3732.6657820,N,12222.2086880,W,1,0,0.0,153.1799,M,0.0000,M,0.0000,0000*67
$GPRMC,205526.44,A,3732.6657820,N,12222.2086880,W,59.2387,141.9956,140721,,,,A*52
$GPGGA,205527.44,3732.6527320,N,12222.1959680,W,1,0,0.0,152.3568,M,0.0000,M,0.0000,0000*60
$GPRMC,205527.44,A,3732.6527320,N,12222.1959680,W,59.6561,142.4242,140721,,,,A*50
$GPGGA,205528.44,3732.6395320,N,12222.1831760,W,1,0,0.0,151.5546,M,0.0000,M,0.0000,0000*69
$GPRMC,205528.44,A,3732.6395320,N,12222.1831760,W,60.2649,142.5018,140721,,,,A*5b
$GPGGA,205529.44,3732.6261460,N,12222.1703720,W,1,0,0.0,150.8435,M,0.0000,M,0.0000,0000*62
$GPRMC,205529.44,A,3732.6261460,N,12222.1703720,W,60.6827,143.0787,140721,,,,A*5e
$GPGGA,205530.44,3732.6126100,N,12222.1576280,W,1,0,0.0,150.2103,M,0.0000,M,0.0000,0000*6c
$GPRMC,205530.44,A,3732.6126100,N,12222.1576280,W,60.9181,143.1721,140721,,,,A*5d
$GPGGA,205531.44,3732.5990260,N,12222.1448960,W,1,0,0.0,149.6069,M,0.0000,M,0.0000,0000*66
$GPRMC,205531.44,A,3732.5990260,N,12222.1448960,W,60.9990,143.5185,140721,,,,A*52
$GPGGA,205532.44,3732.5853760,N,12222.1321940,W,1,0,0.0,149.0116,M,0.0000,M,0.0000,0000*6b
$GPRMC,205532.44,A,3732.5853760,N,12222.1321940,W,61.2080,143.5385,140721,,,,A*50
$GPGGA,205533.44,3732.5716600,N,12222.1194740,W,1,0,0.0,148.4012,M,0.0000,M,0.0000,0000*61
$GPRMC,205533.44,A,3732.5716600,N,12222.1194740,W,61.3562,143.7053,140721,,,,A*58
$GPGGA,205534.44,3732.5578780,N,12222.1068140,W,1,0,0.0,147.8132,M,0.0000,M,0.0000,0000*61
$GPRMC,205534.44,A,3732.5578780,N,12222.1068140,W,61.5023,144.2438,140721,,,,A*55
$GPGGA,205535.44,3732.5439400,N,12222.0942860,W,1,0,0.0,147.1993,M,0.0000,M,0.0000,0000*6e
$GPRMC,205535.44,A,3732.5439400,N,12222.0942860,W,61.7358,144.9111,140721,,,,A*58
$GPGGA,205536.44,3732.5298100,N,12222.0819620,W,1,0,0.0,146.5892,M,0.0000,M,0.0000,0000*65
$GPRMC,205536.44,A,3732.5298100,N,12222.0819620,W,61.9664,145.7049,140721,,,,A*51
$GPGGA,205537.44,3732.5154880,N,12222.0698360,W,1,0,0.0,145.9679,M,0.0000,M,0.0000,0000*64
$GPRMC,205537.44,A,3732.5154880,N,12222.0698360,W,62.2330,146.4847,140721,,,,A*5e
$GPGGA,205538.44,3732.5010040,N,12222.0578840,W,1,0,0.0,145.3519,M,0.0000,M,0.0000,0000*65
$GPRMC,205538.44,A,3732.5010040,N,12222.0578840,W,62.4192,147.1329,140721,,,,A*5b
$GPGGA,205539.44,3732.4863760,N,12222.0461240,W,1,0,0.0,144.7423,M,0.0000,M,0.0000,0000*62
$GPRMC,205539.44,A,3732.4863760,N,12222.0461240,W,62.4779,147.8040,140721,,,,A*57
$GPGGA,205540.44,3732.4716160,N,12222.0345740,W,1,0,0.0,144.1272,M,0.0000,M,0.0000,0000*67
$GPRMC,205540.44,A,3732.4716160,N,12222.0345740,W,62.6049,148.7449,140721,,,,A*5d
$GPGGA,205541.44,3732.4566340,N,12222.0233360,W,1,0,0.0,143.5109,M,0.0000,M,0.0000,0000*69
$GPRMC,205541.44,A,3732.4566340,N,12222.0233360,W,62.9500,149.6710,140721,,,,A*57
$GPGGA,205542.44,3732.4414360,N,12222.0122420,W,1,0,0.0,142.9096,M,0.0000,M,0.0000,0000*66
$GPRMC,205542.44,A,3732.4414360,N,12222.0122420,W,63.4653,150.2305,140721,,,,A*57
$GPGGA,205543.44,3732.4260220,N,12222.0012680,W,1,0,0.0,142.2792,M,0.0000,M,0.0000,0000*65
$GPRMC,205543.44,A,3732.4260220,N,12222.0012680,W,63.9108,150.9446,140721,,,,A*53
$GPGGA,205544.44,3732.4104100,N,12221.9905220,W,1,0,0.0,141.6096,M,0.0000,M,0.0000,0000*6d
$GPRMC,205544.44,A,3732.4104100,N,12221.9905220,W,64.0717,151.6177,140721,,,,A*50
$GPGGA,205545.44,3732.3947140,N,12221.9798720,W,1,0,0.0,140.8456,M,0.0000,M,0.0000,0000*68
$GPRMC,205545.44,A,3732.3947140,N,12221.9798720,W,64.2088,151.7143,140721,,,,A*57
$GPGGA,205546.44,3732.3790300,N,12221.9692640,W,1,0,0.0,139.9809,M,0.0000,M,0.0000,0000*6c
$GPRMC,205546.44,A,3732.3790300,N,12221.9692640,W,63.8584,151.7925,140721,,,,A*56
$GPGGA,205547.44,3732.3634540,N,12221.9587040,W,1,0,0.0,139.0061,M,0.0000,M,0.0000,0000*6e
$GPRMC,205547.44,A,3732.3634540,N,12221.9587040,W,63.4527,151.6877,140721,,,,A*59
$GPGGA,205548.44,3732.3479980,N,12221.9481740,W,1,0,0.0,137.9278,M,0.0000,M,0.0000,0000*67
$GPRMC,205548.44,A,3732.3479980,N,12221.9481740,W,63.0056,151.6522,140721,,,,A*57
$GPGGA,205549.44,3732.3326020,N,12221.9377880,W,1,0,0.0,136.7328,M,0.0000,M,0.0000,0000*6e
$GPRMC,205549.44,A,3732.3326020,N,12221.9377880,W,62.7051,151.9357,140721,,,,A*5f
$GPGGA,205550.44,3732.3172540,N,12221.9274560,W,1,0,0.0,135.5307,M,0.0000,M,0.0000,0000*6b
$GPRMC,205550.44,A,3732.3172540,N,12221.9274560,W,62.4775,151.7795,140721,,,,A*50
$GPGGA,205551.44,3732.3020020,N,12221.9171000,W,1,0,0.0,134.2455,M,0.0000,M,0.0000,0000*6c
$GPRMC,205551.44,A,3732.3020020,N,12221.9171000,W,62.2461,151.7519,140721,,,,A*57
$GPGGA,205552.44,3732.2867920,N,12221.9067920,W,1,0,0.0,132.9280,M,0.0000,M,0.0000,0000*62
$GPRMC,205552.44,A,3732.2867920,N,12221.9067920,W,62.0423,151.7119,140721,,,,A*5a
$GPGGA,205553.44,3732.2716420,N,12221.8964840,W,1,0,0.0,131.6448,M,0.0000,M,0.0000,0000*65
$GPRMC,205553.44,A,3732.2716420,N,12221.8964840,W,61.8269,151.6048,140721,,,,A*54
$GPGGA,205554.44,3732.2565340,N,12221.8862420,W,1,0,0.0,130.3645,M,0.0000,M,0.0000,0000*63
$GPRMC,205554.44,A,3732.2565340,N,12221.8862420,W,61.8082,151.8105,140721,,,,A*58
$GPGGA,205555.44,3732.2413420,N,12221.8759940,W,1,0,0.0,129.0913,M,0.0000,M,0.0000,0000*68
$GPRMC,205555.44,A,3732.2413420,N,12221.8759940,W,62.2254,151.7291,140721,,,,A*55
$GPGGA,205556.44,3732.2260660,N,12221.8655960,W,1,0,0.0,127.8184,M,0.0000,M,0.0000,0000*60
$GPRMC,205556.44,A,3732.2260660,N,12221.8655960,W,62.7304,151.5672,140721,,,,A*57
$GPGGA,205557.44,3732.2106640,N,12221.8551080,W,1,0,0.0,126.5122,M,0.0000,M,0.0000,0000*60
$GPRMC,205557.44,A,3732.2106640,N,12221.8551080,W,63.1813,151.6343,140721,,,,A*59
$GPGGA,205558.44,3732.1951780,N,12221.8446620,W,1,0,0.0,125.2161,M,0.0000,M,0.0000,0000*63
$GPRMC,205558.44,A,3732.1951780,N,12221.8446620,W,63.2120,152.0130,140721,,,,A*50
$GPGGA,205559.44,3732.1796920,N,12221.8342580,W,1,0,0.0,123.9110,M,0.0000,M,0.0000,0000*62
$GPRMC,205559.44,A,3732.1796920,N,12221.8342580,W,63.0596,151.7000,140721,,,,A*57
$GPGGA,205600.44,3732.1642840,N,12221.8238120,W,1,0,0.0,122.6173,M,0.0000,M,0.0000,0000*6b
$GPRMC,205600.44,A,3732.1642840,N,12221.8238120,W,62.8835,151.7108,140721,,,,A*51
$GPGGA,205601.44,3732.1489180,N,12221.8133780,W,1,0,0.0,121.3193,M,0.0000,M,0.0000,0000*66
$GPRMC,205601.44,A,3732.1489180,N,12221.8133780,W,62.7718,151.5805,140721,,,,A*5d
$GPGGA,205602.44,3732.1335700,N,12221.8029500,W,1,0,0.0,120.0417,M,0.0000,M,0.0000,0000*60
$GPRMC,205602.44,A,3732.1335700,N,12221.8029500,W,62.7252,151.7719,140721,,,,A*5b
$GPGGA,205603.44,3732.1182100,N,12221.7925820,W,1,0,0.0,118.7584,M,0.0000,M,0.0000,0000*6b
$GPRMC,205603.44,A,3732.1182100,N,12221.7925820,W,62.6781,151.8561,140721,,,,A*5f
$GPGGA,205604.44,3732.1028620,N,12221.7822140,W,1,0,0.0,117.4626,M,0.0000,M,0.0000,0000*66
$GPRMC,205604.44,A,3732.1028620,N,12221.7822140,W,62.6546,151.7817,140721,,,,A*5f
$GPGGA,205605.44,3732.0874540,N,12221.7719900,W,1,0,0.0,116.1043,M,0.0000,M,0.0000,0000*68
$GPRMC,205605.44,A,3732.0874540,N,12221.7719900,W,62.6428,152.6475,140721,,,,A*53
$GPGGA,205606.44,3732.0719200,N,12221.7621140,W,1,0,0.0,114.8019,M,0.0000,M,0.0000,0000*6e
$GPRMC,205606.44,A,3732.0719200,N,12221.7621140,W,62.5491,153.9241,140721,,,,A*5f
$GPGGA,205607.44,3732.0562360,N,12221.7527240,W,1,0,0.0,113.5060,M,0.0000,M,0.0000,0000*64
$GPRMC,205607.44,A,3732.0562360,N,12221.7527240,W,62.4334,155.3401,140721,,,,A*56
$GPGGA,205608.44,3732.0403900,N,12221.7438500,W,1,0,0.0,112.2139,M,0.0000,M,0.0000,0000*66
$GPRMC,205608.44,A,3732.0403900,N,12221.7438500,W,62.2910,156.6816,140721,,,,A*59
$GPGGA,205609.44,3732.0244540,N,12221.7353720,W,1,0,0.0,110.9484,M,0.0000,M,0.0000,0000*6a
$GPRMC,205609.44,A,3732.0244540,N,12221.7353720,W,62.1875,157.5446,140721,,,,A*55
$GPGGA,205610.44,3732.0084100,N,12221.7273200,W,1,0,0.0,109.7796,M,0.0000,M,0.0000,0000*6e
$GPRMC,205610.44,A,3732.0084100,N,12221.7273200,W,62.0323,158.9259,140721,,,,A*55
$GPGGA,205611.44,3731.9922700,N,12221.7197420,W,1,0,0.0,108.6867,M,0.0000,M,0.0000,0000*6a
$GPRMC,205611.44,A,3731.9922700,N,12221.7197420,W,61.8605,160.3486,140721,,,,A*5f
$GPGGA,205612.44,3731.9760520,N,12221.7126680,W,1,0,0.0,107.7343,M,0.0000,M,0.0000,0000*60
$GPRMC,205612.44,A,3731.9760520,N,12221.7126680,W,61.5997,161.4427,140721,,,,A*52
$GPGGA,205613.44,3731.9598340,N,12221.7058640,W,1,0,0.0,106.7979,M,0.0000,M,0.0000,0000*62
$GPRMC,205613.44,A,3731.9598340,N,12221.7058640,W,61.3770,161.5398,140721,,,,A*51
$GPGGA,205614.44,3731.9436820,N,12221.6990720,W,1,0,0.0,105.8378,M,0.0000,M,0.0000,0000*61
$GPRMC,205614.44,A,3731.9436820,N,12221.6990720,W,61.1526,161.4651,140721,,,,A*57
$GPGGA,205615.44,3731.9275960,N,12221.6922560,W,1,0,0.0,104.8667,M,0.0000,M,0.0000,0000*61
$GPRMC,205615.44,A,3731.9275960,N,12221.6922560,W,60.9509,161.3512,140721,,,,A*5a
$GPGGA,205616.44,3731.9116000,N,12221.6853860,W,1,0,0.0,103.9437,M,0.0000,M,0.0000,0000*60
$GPRMC,205616.44,A,3731.9116000,N,12221.6853860,W,60.6186,161.1192,140721,,,,A*58
$GPGGA,205617.44,3731.8957000,N,12221.6785340,W,1,0,0.0,102.9845,M,0.0000,M,0.0000,0000*68
$GPRMC,205617.44,A,3731.8957000,N,12221.6785340,W,60.2244,161.2354,140721,,,,A*5a
$GPGGA,205618.44,3731.8799080,N,12221.6717780,W,1,0,0.0,102.0988,M,0.0000,M,0.0000,0000*69
$GPRMC,205618.44,A,3731.8799080,N,12221.6717780,W,59.7667,161.2359,140721,,,,A*55
$GPGGA,205619.44,3731.8642360,N,12221.6650520,W,1,0,0.0,101.1885,M,0.0000,M,0.0000,0000*66
$GPRMC,205619.44,A,3731.8642360,N,12221.6650520,W,59.3738,161.1949,140721,,,,A*53
$GPGGA,205620.44,3731.8486420,N,12221.6583980,W,1,0,0.0,100.2169,M,0.0000,M,0.0000,0000*67
$GPRMC,205620.44,A,3731.8486420,N,12221.6583980,W,59.0682,161.4382,140721,,,,A*50
$GPGGA,205621.44,3731.8331320,N,12221.6517800,W,1,0,0.0,99.3466,M,0.0000,M,0.0000,0000*54
$GPRMC,205621.44,A,3731.8331320,N,12221.6517800,W,58.6799,161.2077,140721,,,,A*5a
$GPGGA,205622.44,3731.8177660,N,12221.6451500,W,1,0,0.0,98.4454,M,0.0000,M,0.0000,0000*5f
$GPRMC,205622.44,A,3731.8177660,N,12221.6451500,W,58.2005,161.1496,140721,,,,A*58
$GPGGA,205623.44,3731.8025620,N,12221.6386460,W,1,0,0.0,97.4750,M,0.0000,M,0.0000,0000*5e
$GPRMC,205623.44,A,3731.8025620,N,12221.6386460,W,57.0992,161.5258,140721,,,,A*5b
$GPGGA,205624.44,3731.7876820,N,12221.6324420,W,1,0,0.0,96.6426,M,0.0000,M,0.0000,0000*5b
$GPRMC,205624.44,A,3731.7876820,N,12221.6324420,W,55.6483,161.5579,140721,,,,A*52
$GPGGA,205625.44,3731.7732340,N,12221.6262680,W,1,0,0.0,95.8366,M,0.0000,M,0.0000,0000*5d
$GPRMC,205625.44,A,3731.7732340,N,12221.6262680,W,54.1508,161.1480,140721,,,,A*5d
$GPGGA,205626.44,3731.7591280,N,12221.6202320,W,1,0,0.0,95.0132,M,0.0000,M,0.0000,0000*5a
$GPRMC,205626.44,A,3731.7591280,N,12221.6202320,W,53.0626,161.3174,140721,,,,A*54
$GPGGA,205627.44,3731.7452800,N,12221.6142620,W,1,0,0.0,94.1805,M,0.0000,M,0.0000,0000*58
$GPRMC,205627.44,A,3731.7452800,N,12221.6142620,W,52.3191,161.1624,140721,,,,A*52
$GPGGA,205628.44,3731.7315820,N,12221.6083460,W,1,0,0.0,93.3982,M,0.0000,M,0.0000,0000*50
$GPRMC,205628.44,A,3731.7315820,N,12221.6083460,W,51.8436,161.1545,140721,,,,A*55
$GPGGA,205629.44,3731.7179620,N,12221.6025440,W,1,0,0.0,92.6930,M,0.0000,M,0.0000,0000*54
$GPRMC,205629.44,A,3731.7179620,N,12221.6025440,W,51.6189,161.5654,140721,,,,A*54
$GPGGA,205630.44,3731.7043720,N,12221.5969040,W,1,0,0.0,92.1655,M,0.0000,M,0.0000,0000*58
$GPRMC,205630.44,A,3731.7043720,N,12221.5969040,W,51.3188,161.9951,140721,,,,A*51
$GPGGA,205631.44,3731.6907940,N,12221.5915340,W,1,0,0.0,91.7684,M,0.0000,M,0.0000,0000*58
$GPRMC,205631.44,A,3731.6907940,N,12221.5915340,W,51.0783,163.1686,140721,,,,A*59
$GPGGA,205632.44,3731.6771800,N,12221.5865180,W,1,0,0.0,91.5367,M,0.0000,M,0.0000,0000*53
$GPRMC,205632.44,A,3731.6771800,N,12221.5865180,W,50.8720,164.2109,140721,,,,A*5c
$GPGGA,205633.44,3731.6635840,N,12221.5818200,W,1,0,0.0,91.6774,M,0.0000,M,0.0000,0000*53
