MessageType,Provider,LatitudeDegrees,LongitudeDegrees,AltitudeMeters,SpeedMps,AccuracyMeters,BearingDegrees,UnixTimeMillis,SpeedAccuracyMps,BearingAccuracyDegrees,elapsedRealtimeNanos,VerticalAccuracyMeters
Fix,GT,37.4441072000,-122.2327688000,11.180049563048783,0.0014142136,0.1,30.312223,1626727758441,,,,
Fix,GT,37.4441072000,-122.2327688000,11.180049896240234,0.0014142136,0.1,30.31241,1626727759441,,,,
Fix,GT,37.4441072000,-122.2327688000,11.179049158720687,0.0018973898,0.1,30.312466,1626727760441,,,,
Fix,GT,37.4441072000,-122.2327688000,11.179049491882324,0.002236068,0.1,30.312561,1626727761441,,,,
Fix,GT,37.4441072000,-122.2327688000,11.17805004119873,0.002236068,0.1,30.312515,1626727762441,,,,
Fix,GT,37.4441072000,-122.2327688000,11.179049158720687,0.0025508767,0.1,30.312365,1626727763441,,,,
Fix,GT,37.4441072000,-122.2327688000,11.18104901370259,0.005099019,0.1,30.31175,1626727764441,,,,
Fix,GT,37.4441071000,-122.2327687000,11.18946158439985,0.123889685,0.1,30.420025,1626727765441,,,,
Fix,GT,37.4441046000,-122.2327721000,11.186637609027684,0.58915675,0.1,26.813501,1626727766441,,,,
Fix,GT,37.4440994000,-122.2327793000,11.174637525104345,0.91711867,0.1,17.020927,1626727767441,,,,
Fix,GT,37.4440909000,-122.2327869000,11.156225058686914,1.0679067,0.1,3.9650981,1626727768441,,,,
Fix,GT,37.4440827000,-122.2327914000,11.137636929947035,0.61688584,0.1,352.95883,1626727769441,,,,
Fix,GT,37.4440800000,-122.2327923000,11.136461195534167,0.03138615,0.1,349.80875,1626727770441,,,,
Fix,GT,37.4440807000,-122.2327925000,11.132461817420733,0.36190253,0.1,349.3276,1626727771441,,,,
Fix,GT,37.4440874000,-122.2327985000,11.15510963512591,1.4423419,0.1,340.11188,1626727772441,,,,
Fix,GT,37.4440969000,-122.2328180000,11.177637451163207,2.3190851,0.1,315.39883,1626727773441,,,,
Fix,GT,37.4440992000,-122.2328501000,11.131752943478205,3.2414238,0.1,283.46994,1626727774441,,,,
Fix,GT,37.4440884000,-122.2328892000,11.069340474079212,3.8811498,0.1,252.96495,1626727775441,,,,
Fix,GT,37.4440634000,-122.2329211000,10.97034082616534,3.8554149,0.1,226.31018,1626727776441,,,,
Fix,GT,37.4440379000,-122.2329382000,10.875989350306156,2.3053224,0.1,211.10136,1626727777441,,,,
Fix,GT,37.4440216000,-122.2329485000,10.815401666729713,2.2112978,0.1,208.45377,1626727778441,,,,
Fix,GT,37.4440020000,-122.2329613000,10.725335607813719,2.753378,0.1,207.71016,1626727779441,,,,
Fix,GT,37.4439751000,-122.2329783000,10.685928883018846,4.0116444,0.1,206.91537,1626727780441,,,,
Fix,GT,37.4439395000,-122.2330012000,10.609164725364167,4.559926,0.1,207.219,1626727781441,,,,
Fix,GT,37.4439050000,-122.2330253000,10.542401019597605,4.157595,0.1,209.5027,1626727782441,,,,
Fix,GT,37.4438775000,-122.2330504000,10.47575249027264,3.2068944,0.1,215.7649,1626727783441,,,,
Fix,GT,37.4438607000,-122.2330699000,10.376692881234277,1.9708165,0.1,221.38615,1626727784441,,,,
Fix,GT,37.4438505000,-122.2330900000,10.249280764967551,2.221758,0.1,232.65256,1626727785441,,,,
Fix,GT,37.4438471000,-122.2331199000,10.116576966085262,2.95535,0.1,255.33522,1626727786441,,,,
Fix,GT,37.4438537000,-122.2331622000,10.089812907457855,4.479842,0.1,279.2851,1626727787441,,,,
Fix,GT,37.4438747000,-122.2332189000,9.974279886721433,6.5020046,0.1,295.29092,1626727788441,,,,
Fix,GT,37.4439065000,-122.2332935000,9.734396042704361,8.389983,0.1,298.8771,1626727789441,,,,
Fix,GT,37.4439478000,-122.2333801000,9.516450614528196,9.438034,0.1,301.39474,1626727790441,,,,
Fix,GT,37.4439949000,-122.2334759000,9.256396064518185,10.348316,0.1,301.65106,1626727791441,,,,
Fix,GT,37.4440448000,-122.2335763000,8.950632158217587,10.662658,0.1,302.16226,1626727792441,,,,
Fix,GT,37.4440973000,-122.2336796000,8.699164891631312,10.9413395,0.1,302.6144,1626727793441,,,,
Fix,GT,37.4441511000,-122.2337839000,8.48933547394168,11.015968,0.1,303.27933,1626727794441,,,,
Fix,GT,37.4442060000,-122.2338873000,8.254571785193747,10.877935,0.1,303.66876,1626727795441,,,,
Fix,GT,37.4442579000,-122.2339861000,8.024808211035747,9.934056,0.1,303.32135,1626727796441,,,,
Fix,GT,37.4443040000,-122.2340737000,7.854456331070338,8.645185,0.1,303.48544,1626727797441,,,,
Fix,GT,37.4443429000,-122.2341486000,7.676044531676894,6.9659824,0.1,302.31534,1626727798441,,,,
Fix,GT,37.4443681000,-122.2342051000,7.569341503931284,4.4657154,0.1,298.7028,1626727799441,,,,
Fix,GT,37.4443830000,-122.2342397000,7.495050176830588,2.6914306,0.1,298.44986,1626727800441,,,,
Fix,GT,37.4443915000,-122.2342596000,7.458813727353913,1.2885721,0.1,298.46585,1626727801441,,,,
Fix,GT,37.4443939000,-122.2342651000,7.444814010388072,0.042390425,0.1,298.4733,1626727802441,,,,
Fix,GT,37.4443939000,-122.2342651000,7.439050197601318,0.0009214626,0.1,298.47592,1626727803441,,,,
Fix,GT,37.4443939000,-122.2342651000,7.438050048409394,0.0030067966,0.1,298.47562,1626727804441,,,,
Fix,GT,37.4443939000,-122.2342652000,7.437049865722656,0.0011706935,0.1,298.47394,1626727805441,,,,
Fix,GT,37.4443939000,-122.2342652000,7.4370496440812985,0.00041209065,0.1,298.4739,1626727806441,,,,
Fix,GT,37.4443939000,-122.2342652000,7.4370496440812985,0.0011706935,0.1,298.474,1626727807441,,,,
Fix,GT,37.4443939000,-122.2342652000,7.438050048409394,0.001,0.1,298.4739,1626727808441,,,,
Fix,GT,37.4443939000,-122.2342653000,7.4380504917517385,0.0011706937,0.1,298.47363,1626727809441,,,,
Fix,GT,37.4443939000,-122.2342653000,7.4380504917517385,0.00092146284,0.1,298.47366,1626727810441,,,,
Fix,GT,37.4443939000,-122.2342653000,7.4380504917517385,0.00058278424,0.1,298.47372,1626727811441,,,,
Fix,GT,37.4443939000,-122.2342653000,7.438050048409394,0.0012435201,0.1,298.4738,1626727812441,,,,
Fix,GT,37.4443939000,-122.2342652000,7.438050048409394,0.001752892,0.1,298.4739,1626727813441,,,,
Fix,GT,37.4443947000,-122.2342671000,7.418165450095557,0.8614472,0.1,298.45425,1626727814441,,,,
Fix,GT,37.4444042000,-122.2342913000,7.371516714224171,3.9060168,0.1,296.75476,1626727815441,,,,
Fix,GT,37.4444193000,-122.2343444000,7.340522668727445,5.7761374,0.1,288.4795,1626727816441,,,,
Fix,GT,37.4444263000,-122.2344160000,7.410171010238088,7.072589,0.1,273.84247,1626727817441,,,,
Fix,GT,37.4444139000,-122.2344985000,7.566115931773254,7.88017,0.1,254.08673,1626727818441,,,,
Fix,GT,37.4443748000,-122.2345812000,7.627759112556561,9.248589,0.1,233.66045,1626727819441,,,,
Fix,GT,37.4443100000,-122.2346547000,7.746995525911387,10.293889,0.1,217.86612,1626727820441,,,,
Fix,GT,37.4442265000,-122.2347234000,7.977000774618119,11.952938,0.1,212.29301,1626727821441,,,,
Fix,GT,37.4441282000,-122.2347973000,8.305060570174334,13.347367,0.1,209.94046,1626727822441,,,,
Fix,GT,37.4440188000,-122.2348719000,8.693533259407388,14.284685,0.1,207.8727,1626727823441,,,,
Fix,GT,37.4439001000,-122.2349486000,9.208121622572008,15.45868,0.1,207.12184,1626727824441,,,,
Fix,GT,37.4437712000,-122.2350315000,9.528412400322509,16.561558,0.1,207.04942,1626727825441,,,,
Fix,GT,37.4436345000,-122.2351197000,9.785818282901886,17.594822,0.1,207.424,1626727826441,,,,
Fix,GT,37.4434902000,-122.2352149000,9.91375848199894,18.551237,0.1,207.79456,1626727827441,,,,
Fix,GT,37.4433404000,-122.2353150000,10.060231001296358,18.8806,0.1,208.09877,1626727828441,,,,
Fix,GT,37.4431919000,-122.2354152000,10.236642902450171,18.527987,0.1,208.25699,1626727829441,,,,
Fix,GT,37.4430468000,-122.2355133000,10.462703633040348,18.05944,0.1,208.13116,1626727830441,,,,
Fix,GT,37.4429035000,-122.2356091000,10.757649359332163,18.02742,0.1,207.97218,1626727831441,,,,
Fix,GT,37.4427600000,-122.2357046000,11.22706677302017,18.020805,0.1,207.74895,1626727832441,,,,
Fix,GT,37.4426160000,-122.2357991000,11.899132338910619,18.08552,0.1,207.40889,1626727833441,,,,
Fix,GT,37.4424719000,-122.2358927000,12.736670868636168,17.808569,0.1,207.39575,1626727834441,,,,
Fix,GT,37.4423324000,-122.2359841000,13.799379649747607,17.139153,0.1,207.61313,1626727835441,,,,
Fix,GT,37.4421987000,-122.2360726000,14.812198196123347,16.403736,0.1,208.08002,1626727836441,,,,
Fix,GT,37.4420706000,-122.2361595000,15.65325380989907,15.973949,0.1,208.63121,1626727837441,,,,
Fix,GT,37.4419445000,-122.2362469000,16.42566641435809,16.0066,0.1,208.9341,1626727838441,,,,
Fix,GT,37.4418188000,-122.2363351000,17.168897216921323,15.9724455,0.1,209.26472,1626727839441,,,,
Fix,GT,37.4416922000,-122.2364251000,17.840776802757546,16.4276,0.1,209.14142,1626727840441,,,,
Fix,GT,37.4415601000,-122.2365184000,18.537309130206268,17.338272,0.1,209.4926,1626727841441,,,,
Fix,GT,37.4414248000,-122.2366225000,19.370491304749294,17.873947,0.1,213.32806,1626727842441,,,,
Fix,GT,37.4412918000,-122.2367446000,20.29702432930617,18.709469,0.1,217.98727,1626727843441,,,,
Fix,GT,37.4411593000,-122.2368833000,21.25319883213581,19.588623,0.1,221.43575,1626727844441,,,,
Fix,GT,37.4410288000,-122.2370393000,22.365331715914124,20.405752,0.1,225.14555,1626727845441,,,,
Fix,GT,37.4409028000,-122.2372124000,23.54702945819099,20.869598,0.1,229.64285,1626727846441,,,,
Fix,GT,37.4407882000,-122.2373997000,24.757209977959292,20.921,0.1,234.50264,1626727847441,,,,
Fix,GT,37.4406815000,-122.2375958000,26.017684086798113,21.077265,0.1,236.27281,1626727848441,,,,
Fix,GT,37.4405773000,-122.2377950000,27.24114344491852,21.045204,0.1,236.69868,1626727849441,,,,
Fix,GT,37.4404707000,-122.2379906000,28.539451417978455,20.910007,0.1,234.42479,1626727850441,,,,
Fix,GT,37.4403569000,-122.2381787000,29.82009036452382,20.881918,0.1,231.80386,1626727851441,,,,
Fix,GT,37.4402388000,-122.2383627000,30.93755630636366,20.933844,0.1,230.6974,1626727852441,,,,
Fix,GT,37.4401170000,-122.2385441000,31.986198764006758,21.069725,0.1,229.28427,1626727853441,,,,
Fix,GT,37.4399900000,-122.2387234000,33.06002720814183,21.380056,0.1,227.60126,1626727854441,,,,
Fix,GT,37.4398569000,-122.2388976000,34.16184493590845,21.345367,0.1,225.16403,1626727855441,,,,
Fix,GT,37.4397197000,-122.2390658000,35.07584745963004,21.228321,0.1,223.40434,1626727856441,,,,
Fix,GT,37.4395793000,-122.2392268000,36.13867802542552,20.869896,0.1,221.36604,1626727857441,,,,
Fix,GT,37.4394373000,-122.2393747000,37.32549817867971,20.17963,0.1,218.5607,1626727858441,,,,
Fix,GT,37.4392957000,-122.2395152000,38.44508861321947,19.876448,0.1,217.9163,1626727859441,,,,
Fix,GT,37.4391534000,-122.2396485000,39.45160977183832,19.605335,0.1,215.93816,1626727860441,,,,
Fix,GT,37.4390089000,-122.2397747000,40.32967016360749,19.457024,0.1,214.06686,1626727861441,,,,
Fix,GT,37.4388627000,-122.2398941000,41.217076556993106,19.284893,0.1,212.28194,1626727862441,,,,
Fix,GT,37.4387146000,-122.2400078000,41.93148418700366,19.336666,0.1,210.80138,1626727863441,,,,
Fix,GT,37.4385623000,-122.2401170000,42.44577354161106,19.62412,0.1,208.95442,1626727864441,,,,
Fix,GT,37.4384047000,-122.2402206000,42.90753137971603,19.865612,0.1,206.63388,1626727865441,,,,
Fix,GT,37.4382423000,-122.2403176000,43.256113280602676,20.0909,0.1,204.57817,1626727866441,,,,
Fix,GT,37.4380752000,-122.2404090000,43.486879657722966,20.3677,0.1,202.93053,1626727867441,,,,
Fix,GT,37.4379043000,-122.2404958000,43.64734359045599,20.513165,0.1,201.44392,1626727868441,,,,
Fix,GT,37.4377320000,-122.2405780000,43.814346952385904,20.465084,0.1,200.18228,1626727869441,,,,
Fix,GT,37.4375587000,-122.2406586000,43.85275335198082,20.551134,0.1,200.49556,1626727870441,,,,
Fix,GT,37.4373857000,-122.2407425000,44.12017898270301,20.619144,0.1,201.73358,1626727871441,,,,
Fix,GT,37.4372139000,-122.2408322000,44.476943505609256,20.645168,0.1,203.1035,1626727872441,,,,
Fix,GT,37.4370459000,-122.2409271000,44.93800673980991,20.224813,0.1,205.25882,1626727873441,,,,
Fix,GT,37.4368855000,-122.2410306000,45.49131410874645,19.808002,0.1,208.7403,1626727874441,,,,
Fix,GT,37.4367350000,-122.2411470000,46.172896487198614,19.369755,0.1,214.41658,1626727875441,,,,
Fix,GT,37.4365998000,-122.2412796000,46.964779696527785,18.696692,0.1,221.05988,1626727876441,,,,
Fix,GT,37.4364814000,-122.2414249000,47.613950915231726,18.06556,0.1,226.2411,1626727877441,,,,
Fix,GT,37.4363746000,-122.2415742000,48.17812581396356,17.418226,0.1,229.19876,1626727878441,,,,
Fix,GT,37.4362763000,-122.2417222000,48.8663078387674,16.610416,0.1,230.90736,1626727879441,,,,
Fix,GT,37.4361885000,-122.2418668000,49.56783585370954,15.53925,0.1,233.43814,1626727880441,,,,
Fix,GT,37.4361108000,-122.2420040000,50.17588928700968,14.037298,0.1,235.74187,1626727881441,,,,
Fix,GT,37.4360498000,-122.2421290000,50.77276689895916,11.735603,0.1,240.36269,1626727882441,,,,
Fix,GT,37.4360096000,-122.2422334000,51.147470930278246,8.825792,0.1,246.56348,1626727883441,,,,
Fix,GT,37.4359885000,-122.2423130000,51.433525663712885,6.073618,0.1,253.4348,1626727884441,,,,
Fix,GT,37.4359796000,-122.2423661000,51.61640562354944,3.5725577,0.1,258.61526,1626727885441,,,,
Fix,GT,37.4359764000,-122.2423951000,51.70046222842211,1.9438539,0.1,261.33493,1626727886441,,,,
Fix,GT,37.4359746000,-122.2424180000,51.74910682730831,2.3233712,0.1,263.32156,1626727887441,,,,
Fix,GT,37.4359730000,-122.2424572000,51.83099387475136,4.7837977,0.1,266.6307,1626727888441,,,,
Fix,GT,37.4359740000,-122.2425244000,51.99670109489489,6.936011,0.1,272.09598,1626727889441,,,,
Fix,GT,37.4359830000,-122.2426091000,52.31253671893967,8.045444,0.1,279.32645,1626727890441,,,,
Fix,GT,37.4360021000,-122.2427022000,52.728120150972245,9.041561,0.1,285.87265,1626727891441,,,,
Fix,GT,37.4360296000,-122.2428052000,53.106004859258064,10.103473,0.1,289.11325,1626727892441,,,,
Fix,GT,37.4360634000,-122.2429172000,53.63342063782068,11.04059,0.1,291.4996,1626727893441,,,,
Fix,GT,37.4361031000,-122.2430354000,54.207774958302934,11.626834,0.1,293.5221,1626727894441,,,,
Fix,GT,37.4361476000,-122.2431568000,54.843309333838306,11.962025,0.1,295.17673,1626727895441,,,,
Fix,GT,37.4361941000,-122.2432768000,55.546072308000134,11.551676,0.1,296.07516,1626727896441,,,,
Fix,GT,37.4362389000,-122.2433903000,56.191011210263014,10.948654,0.1,296.32248,1626727897441,,,,
Fix,GT,37.4362829000,-122.2435006000,56.81560113897274,10.944403,0.1,296.59744,1626727898441,,,,
Fix,GT,37.4363283000,-122.2436122000,57.421360559592586,11.2891245,0.1,297.26065,1626727899441,,,,
Fix,GT,37.4363777000,-122.2437280000,58.114483374773044,11.949795,0.1,298.53882,1626727900441,,,,
Fix,GT,37.4364315000,-122.2438466000,58.830484744876685,12.165049,0.1,300.0911,1626727901441,,,,
Fix,GT,37.4364894000,-122.2439647000,59.57013329012261,12.409872,0.1,302.5261,1626727902441,,,,
Fix,GT,37.4365535000,-122.2440818000,60.282896354916716,12.7012005,0.1,305.47055,1626727903441,,,,
Fix,GT,37.4366231000,-122.2441979000,61.03883969962226,13.000542,0.1,307.53336,1626727904441,,,,
Fix,GT,37.4366976000,-122.2443134000,61.8351925328825,13.282266,0.1,309.79733,1626727905441,,,,
Fix,GT,37.4367772000,-122.2444275000,62.672078769552286,13.543375,0.1,311.80447,1626727906441,,,,
Fix,GT,37.4368603000,-122.2445418000,63.517316209997375,13.821018,0.1,312.52054,1626727907441,,,,
Fix,GT,37.4369455000,-122.2446573000,64.36984676962925,14.00787,0.1,312.67905,1626727908441,,,,
Fix,GT,37.4370316000,-122.2447753000,65.14760736032667,14.342423,0.1,312.3016,1626727909441,,,,
Fix,GT,37.4371197000,-122.2448971000,65.89236306286602,14.767696,0.1,312.20538,1626727910441,,,,
Fix,GT,37.4372108000,-122.2450223000,66.57854273027965,15.238188,0.1,312.47565,1626727911441,,,,
Fix,GT,37.4373057000,-122.2451512000,67.2542494050781,15.830492,0.1,312.83813,1626727912441,,,,
Fix,GT,37.4374047000,-122.2452850000,67.93689985984815,16.479755,0.1,312.7668,1626727913441,,,,
Fix,GT,37.4375080000,-122.2454241000,68.62107164942972,17.13557,0.1,313.26276,1626727914441,,,,
Fix,GT,37.4376160000,-122.2455665000,69.33189657786716,17.533087,0.1,313.72397,1626727915441,,,,
Fix,GT,37.4377260000,-122.2457089000,70.05107407590685,17.551682,0.1,314.28052,1626727916441,,,,
Fix,GT,37.4378366000,-122.2458502000,70.80654478751421,17.49431,0.1,314.24048,1626727917441,,,,
Fix,GT,37.4379450000,-122.2459935000,71.58818897788979,17.559036,0.1,312.75937,1626727918441,,,,
Fix,GT,37.4380529000,-122.2461420000,72.30836804031605,17.968912,0.1,312.09912,1626727919441,,,,
Fix,GT,37.4381645000,-122.2462953000,73.09525543999644,18.784525,0.1,312.77142,1626727920441,,,,
Fix,GT,37.4382822000,-122.2464508000,73.87925204181647,19.186813,0.1,313.9625,1626727921441,,,,
Fix,GT,37.4384054000,-122.2466078000,74.71731093271933,19.600323,0.1,314.9249,1626727922441,,,,
Fix,GT,37.4385307000,-122.2467624000,75.51960060113356,19.423168,0.1,315.7258,1626727923441,,,,
Fix,GT,37.4386562000,-122.2469150000,76.2537820003929,19.382765,0.1,315.9484,1626727924441,,,,
Fix,GT,37.4387808000,-122.2470664000,77.03218921786402,19.065662,0.1,315.73718,1626727925441,,,,
Fix,GT,37.4389030000,-122.2472171000,77.79195747524636,19.043972,0.1,315.1852,1626727926441,,,,
Fix,GT,37.4390247000,-122.2473696000,78.55678354627253,19.19693,0.1,314.88565,1626727927441,,,,
Fix,GT,37.4391478000,-122.2475249000,79.33043194091442,19.59104,0.1,314.72452,1626727928441,,,,
Fix,GT,37.4392735000,-122.2476844000,80.12407932400583,20.075645,0.1,314.63004,1626727929441,,,,
Fix,GT,37.4394013000,-122.2478469000,80.93384070479988,20.360079,0.1,314.53067,1626727930441,,,,
Fix,GT,37.4395309000,-122.2480118000,81.75166827967837,20.564812,0.1,314.56195,1626727931441,,,,
Fix,GT,37.4396613000,-122.2481773000,82.57184370911432,20.590591,0.1,314.6556,1626727932441,,,,
Fix,GT,37.4397918000,-122.2483430000,83.38749429601194,20.686073,0.1,314.55188,1626727933441,,,,
Fix,GT,37.4399226000,-122.2485108000,84.21225509229498,20.834118,0.1,314.10696,1626727934441,,,,
Fix,GT,37.4400535000,-122.2486803000,85.07590281202283,20.908607,0.1,314.00214,1626727935441,,,,
Fix,GT,37.4401844000,-122.2488506000,85.93524965071606,21.001707,0.1,313.83472,1626727936441,,,,
Fix,GT,37.4403157000,-122.2490228000,86.81113968969976,21.159027,0.1,313.58636,1626727937441,,,,
Fix,GT,37.4404473000,-122.2491961000,87.65066551363157,21.164185,0.1,313.6086,1626727938441,,,,
Fix,GT,37.4405790000,-122.2493688000,88.515490340822,21.123583,0.1,313.77463,1626727939441,,,,
Fix,GT,37.4407108000,-122.2495409000,89.34890243755763,21.12508,0.1,313.84833,1626727940441,,,,
Fix,GT,37.4408430000,-122.2497132000,90.17301778854062,21.245956,0.1,313.9285,1626727941441,,,,
Fix,GT,37.4409770000,-122.2498867000,91.02148756209408,21.462534,0.1,314.11212,1626727942441,,,,
Fix,GT,37.4411122000,-122.2500618000,91.87266565006598,21.693987,0.1,313.98438,1626727943441,,,,
Fix,GT,37.4412488000,-122.2502391000,92.72555011430677,21.942188,0.1,314.01096,1626727944441,,,,
Fix,GT,37.4413869000,-122.2504183000,93.62602725970828,22.172815,0.1,313.93875,1626727945441,,,,
Fix,GT,37.4415261000,-122.2505996000,94.61790893230182,22.365677,0.1,313.84506,1626727946441,,,,
Fix,GT,37.4416662000,-122.2507828000,95.63732120278019,22.548023,0.1,313.79312,1626727947441,,,,
Fix,GT,37.4418074000,-122.2509676000,96.66532111200331,22.735056,0.1,313.81876,1626727948441,,,,
Fix,GT,37.4419496000,-122.2511535000,97.72455838812925,22.816875,0.1,313.80292,1626727949441,,,,
Fix,GT,37.4420908000,-122.2513400000,98.73308555067479,22.724497,0.1,313.2793,1626727950441,,,,
Fix,GT,37.4422291000,-122.2515288000,99.7110265407573,22.650415,0.1,311.94067,1626727951441,,,,
Fix,GT,37.4423630000,-122.2517215000,100.60531753035161,22.614109,0.1,310.37033,1626727952441,,,,
Fix,GT,37.4424927000,-122.2519183000,101.518725324363,22.575832,0.1,309.05212,1626727953441,,,,
Fix,GT,37.4426184000,-122.2521183000,102.41013617987187,22.495317,0.1,307.465,1626727954441,,,,
Fix,GT,37.4427391000,-122.2523221000,103.29525335294193,22.446852,0.1,305.90753,1626727955441,,,,
Fix,GT,37.4428551000,-122.2525295000,104.1773177220557,22.39154,0.1,304.3704,1626727956441,,,,
Fix,GT,37.4429664000,-122.2527401000,105.04855168507129,22.348904,0.1,302.9351,1626727957441,,,,
Fix,GT,37.4430734000,-122.2529537000,105.91790003175197,22.299557,0.1,301.53287,1626727958441,,,,
Fix,GT,37.4431761000,-122.2531699000,106.79731605165853,22.25679,0.1,300.19797,1626727959441,,,,
Fix,GT,37.4432750000,-122.2533886000,107.66231714653895,22.259253,0.1,299.11813,1626727960441,,,,
Fix,GT,37.4433705000,-122.2536099000,108.5304935559177,22.267836,0.1,297.8235,1626727961441,,,,
Fix,GT,37.4434617000,-122.2538340000,109.41590763384852,22.27425,0.1,296.40344,1626727962441,,,,
Fix,GT,37.4435483000,-122.2540608000,110.31172468047657,22.234955,0.1,294.97748,1626727963441,,,,
Fix,GT,37.4436303000,-122.2542894000,111.19214494000494,22.121521,0.1,293.61377,1626727964441,,,,
Fix,GT,37.4437072000,-122.2545192000,112.05508002727083,22.016129,0.1,292.15143,1626727965441,,,,
Fix,GT,37.4437793000,-122.2547508000,112.91549591509784,22.04303,0.1,290.7027,1626727966441,,,,
Fix,GT,37.4438466000,-122.2549842000,113.77308238207115,21.767185,0.1,289.37183,1626727967441,,,,
Fix,GT,37.4439091000,-122.2552152000,114.62231766339755,21.531849,0.1,288.26035,1626727968441,,,,
Fix,GT,37.4439678000,-122.2554474000,115.49990757340652,21.546013,0.1,287.09137,1626727969441,,,,
Fix,GT,37.4440223000,-122.2556806000,116.32666375636563,21.467194,0.1,285.76593,1626727970441,,,,
Fix,GT,37.4440721000,-122.2559144000,117.1704293023522,21.373402,0.1,284.35645,1626727971441,,,,
Fix,GT,37.4441172000,-122.2561487000,118.0030211165813,21.28838,0.1,282.9689,1626727972441,,,,
Fix,GT,37.4441575000,-122.2563834000,118.81060437307087,21.205173,0.1,281.57544,1626727973441,,,,
Fix,GT,37.4441933000,-122.2566182000,119.56413419410819,21.13063,0.1,280.34888,1626727974441,,,,
Fix,GT,37.4442252000,-122.2568533000,120.27630784075245,21.075428,0.1,279.2162,1626727975441,,,,
Fix,GT,37.4442535000,-122.2570887000,120.95142597619997,21.078196,0.1,278.07535,1626727976441,,,,
Fix,GT,37.4442776000,-122.2573250000,121.59966533076772,21.079704,0.1,276.65857,1626727977441,,,,
Fix,GT,37.4442969000,-122.2575619000,122.22953415753136,21.073235,0.1,275.26794,1626727978441,,,,
Fix,GT,37.4443114000,-122.2577993000,122.82871614161718,21.09442,0.1,273.8139,1626727979441,,,,
Fix,GT,37.4443214000,-122.2580376000,123.3571205916951,21.152634,0.1,272.44998,1626727980441,,,,
Fix,GT,37.4443271000,-122.2582769000,123.87048424477007,21.21845,0.1,271.1987,1626727981441,,,,
Fix,GT,37.4443286000,-122.2585171000,124.35601183968333,21.300213,0.1,269.84604,1626727982441,,,,
Fix,GT,37.4443253000,-122.2587586000,124.80195041460502,21.45694,0.1,268.37506,1626727983441,,,,
Fix,GT,37.4443173000,-122.2590018000,125.1748877950231,21.636898,0.1,267.16147,1626727984441,,,,
Fix,GT,37.4443054000,-122.2592471000,125.48659506294098,21.86999,0.1,266.04828,1626727985441,,,,
Fix,GT,37.4442899000,-122.2594949000,125.73835773032442,22.130978,0.1,265.0291,1626727986441,,,,
Fix,GT,37.4442708000,-122.2597463000,125.95970657390353,22.586006,0.1,264.27063,1626727987441,,,,
Fix,GT,37.4442505000,-122.2600019000,126.1376398761372,22.858768,0.1,264.3856,1626727988441,,,,
Fix,GT,37.4442304000,-122.2602602000,126.27693428856219,23.087269,0.1,264.39493,1626727989441,,,,
Fix,GT,37.4442099000,-122.2605215000,126.36811021591757,23.412216,0.1,264.33673,1626727990441,,,,
Fix,GT,37.4441886000,-122.2607872000,126.4669973277023,23.77927,0.1,264.1413,1626727991441,,,,
Fix,GT,37.4441670000,-122.2610533000,126.59822650947012,23.524933,0.1,264.12842,1626727992441,,,,
Fix,GT,37.4441453000,-122.2613158000,126.76946729776319,23.163784,0.1,264.00113,1626727993441,,,,
Fix,GT,37.4441236000,-122.2615741000,126.9436434095901,22.79059,0.1,263.92487,1626727994441,,,,
Fix,GT,37.4441024000,-122.2618280000,127.08552050466824,22.425655,0.1,264.1,1626727995441,,,,
Fix,GT,37.4440824000,-122.2620782000,127.2146388627209,22.065828,0.1,264.351,1626727996441,,,,
Fix,GT,37.4440631000,-122.2623244000,127.34140979261065,21.710192,0.1,264.3238,1626727997441,,,,
Fix,GT,37.4440441000,-122.2625666000,127.46093620775059,21.367172,0.1,264.4362,1626727998441,,,,
Fix,GT,37.4440262000,-122.2628051000,127.52198454626227,21.04021,0.1,264.65472,1626727999441,,,,
Fix,GT,37.4440090000,-122.2630401000,127.58928274345226,20.717747,0.1,264.77792,1626728000441,,,,
Fix,GT,37.4439922000,-122.2632714000,127.70458060830629,20.38749,0.1,264.72818,1626728001441,,,,
Fix,GT,37.4439751000,-122.2634991000,127.77775430293786,20.107174,0.1,264.46176,1626728002441,,,,
Fix,GT,37.4439576000,-122.2637236000,127.84705522092918,19.783829,0.1,264.39993,1626728003441,,,,
Fix,GT,37.4439412000,-122.2639459000,127.88628361913379,19.829586,0.1,264.86414,1626728004441,,,,
Fix,GT,37.4439268000,-122.2641719000,127.92023103284146,20.272186,0.1,265.9218,1626728005441,,,,
Fix,GT,37.4439166000,-122.2644031000,127.9078180917245,20.718601,0.1,267.5566,1626728006441,,,,
Fix,GT,37.4439118000,-122.2646394000,127.87663725987841,21.093327,0.1,268.9825,1626728007441,,,,
Fix,GT,37.4439105000,-122.2648780000,127.82616483398124,21.156189,0.1,270.14395,1626728008441,,,,
Fix,GT,37.4439133000,-122.2651193000,127.75899165326177,21.550602,0.1,271.24847,1626728009441,,,,
Fix,GT,37.4439199000,-122.2653651000,127.6596849932555,21.990698,0.1,272.36118,1626728010441,,,,
Fix,GT,37.4439307000,-122.2656157000,127.53227798903117,22.411062,0.1,273.6306,1626728011441,,,,
Fix,GT,37.4439466000,-122.2658706000,127.37045175177741,22.82696,0.1,275.10782,1626728012441,,,,
Fix,GT,37.4439680000,-122.2661296000,127.15339519723784,23.26408,0.1,276.46567,1626728013441,,,,
Fix,GT,37.4439947000,-122.2663930000,126.90544982482425,23.724873,0.1,277.85355,1626728014441,,,,
Fix,GT,37.4440268000,-122.2666614000,126.6078569396941,24.350857,0.1,278.9547,1626728015441,,,,
Fix,GT,37.4440638000,-122.2669359000,126.27585997229107,24.895897,0.1,280.1169,1626728016441,,,,
Fix,GT,37.4441064000,-122.2672148000,125.9416240597684,25.352457,0.1,281.48007,1626728017441,,,,
Fix,GT,37.4441558000,-122.2674968000,125.56997441875342,25.725477,0.1,283.1299,1626728018441,,,,
Fix,GT,37.4442126000,-122.2677795000,125.21197643973937,25.78098,0.1,284.9849,1626728019441,,,,
Fix,GT,37.4442757000,-122.2680591000,124.85373472878632,25.609997,0.1,286.52863,1626728020441,,,,
Fix,GT,37.4443443000,-122.2683343000,124.46580229395522,25.426603,0.1,288.02933,1626728021441,,,,
Fix,GT,37.4444182000,-122.2686052000,124.10403163422598,25.23815,0.1,289.56052,1626728022441,,,,
Fix,GT,37.4444969000,-122.2688716000,123.74239076979075,25.046719,0.1,290.99197,1626728023441,,,,
Fix,GT,37.4445807000,-122.2691339000,123.36738706905544,25.020374,0.1,292.48816,1626728024441,,,,
Fix,GT,37.4446700000,-122.2693952000,122.92974241471757,25.319643,0.1,293.778,1626728025441,,,,
Fix,GT,37.4447645000,-122.2696573000,122.5582731144898,25.540443,0.1,294.78613,1626728026441,,,,
Fix,GT,37.4448639000,-122.2699185000,122.20309809310993,25.681377,0.1,296.0208,1626728027441,,,,
Fix,GT,37.4449688000,-122.2701785000,121.89368129069476,25.876759,0.1,297.41196,1626728028441,,,,
Fix,GT,37.4450794000,-122.2704373000,121.5654488523769,26.085611,0.1,298.82495,1626728029441,,,,
Fix,GT,37.4451966000,-122.2706940000,121.2772236218625,26.241106,0.1,300.7,1626728030441,,,,
Fix,GT,37.4453205000,-122.2709474000,121.0624523154811,26.383572,0.1,302.138,1626728031441,,,,
Fix,GT,37.4454505000,-122.2711982000,120.92868993039428,26.534851,0.1,303.82077,1626728032441,,,,
Fix,GT,37.4455870000,-122.2714453000,120.80751930581278,26.668617,0.1,305.45688,1626728033441,,,,
Fix,GT,37.4457298000,-122.2716885000,120.79222122231204,26.76635,0.1,307.1205,1626728034441,,,,
Fix,GT,37.4458779000,-122.2719277000,120.85040498591843,26.835636,0.1,308.35294,1626728035441,,,,
Fix,GT,37.4460303000,-122.2721633000,121.04611667832796,26.849659,0.1,309.64774,1626728036441,,,,
Fix,GT,37.4461866000,-122.2723948000,121.28776219370775,26.799862,0.1,310.67154,1626728037441,,,,
Fix,GT,37.4463452000,-122.2726227000,121.59129997546916,26.735563,0.1,311.18326,1626728038441,,,,
Fix,GT,37.4465033000,-122.2728501000,121.96147521305465,26.666513,0.1,311.12674,1626728039441,,,,
Fix,GT,37.4466614000,-122.2730765000,122.331125877246,26.5929,0.1,311.19373,1626728040441,,,,
Fix,GT,37.4468191000,-122.2733021000,122.75241995521401,26.511147,0.1,311.23846,1626728041441,,,,
Fix,GT,37.4469766000,-122.2735267000,123.24388618583566,26.400375,0.1,311.3197,1626728042441,,,,
Fix,GT,37.4471329000,-122.2737505000,123.76971153492514,26.268257,0.1,311.07755,1626728043441,,,,
Fix,GT,37.4472880000,-122.2739738000,124.3598323435915,26.131092,0.1,311.0122,1626728044441,,,,
Fix,GT,37.4474425000,-122.2741955000,125.02124736576957,25.993328,0.1,311.1515,1626728045441,,,,
Fix,GT,37.4475963000,-122.2744160000,125.73155089141324,25.850416,0.1,311.19855,1626728046441,,,,
Fix,GT,37.4477495000,-122.2746350000,126.46231744716056,25.715462,0.1,311.2245,1626728047441,,,,
Fix,GT,37.4479020000,-122.2748529000,127.17837014771203,25.592533,0.1,311.2279,1626728048441,,,,
Fix,GT,37.4480536000,-122.2750696000,127.92137333519122,25.43208,0.1,311.3021,1626728049441,,,,
Fix,GT,37.4482051000,-122.2752853000,128.64602823540554,25.448412,0.1,311.34976,1626728050441,,,,
Fix,GT,37.4483571000,-122.2755010000,129.4017317862108,25.514267,0.1,311.51248,1626728051441,,,,
Fix,GT,37.4485108000,-122.2757170000,130.12008294608358,25.73838,0.1,311.82193,1626728052441,,,,
Fix,GT,37.4486662000,-122.2759344000,130.8451490012376,25.920311,0.1,311.79706,1626728053441,,,,
Fix,GT,37.4488221000,-122.2761531000,131.58032153800514,25.965462,0.1,311.6516,1626728054441,,,,
Fix,GT,37.4489760000,-122.2763733000,132.33061326381358,25.853468,0.1,310.79675,1626728055441,,,,
Fix,GT,37.4491272000,-122.2765951000,133.05148997331298,25.823574,0.1,310.16083,1626728056441,,,,
Fix,GT,37.4492772000,-122.2768190000,133.75802607390187,25.935751,0.1,309.91476,1626728057441,,,,
Fix,GT,37.4494277000,-122.2770440000,134.41307841564412,26.00127,0.1,309.95816,1626728058441,,,,
Fix,GT,37.4495773000,-122.2772675000,135.03936889753595,25.613184,0.1,309.87347,1626728059441,,,,
Fix,GT,37.4497235000,-122.2774886000,135.54994854582583,25.20731,0.1,309.4453,1626728060441,,,,
Fix,GT,37.4498667000,-122.2777068000,135.9912433756408,24.833326,0.1,309.39417,1626728061441,,,,
Fix,GT,37.4500080000,-122.2779226000,136.42236661276547,24.637005,0.1,309.42294,1626728062441,,,,
Fix,GT,37.4501492000,-122.2781377000,136.80836820718832,24.698746,0.1,309.34528,1626728063441,,,,
Fix,GT,37.4502907000,-122.2783536000,137.20550100470427,24.717178,0.1,309.53986,1626728064441,,,,
Fix,GT,37.4504326000,-122.2785680000,137.61558556103137,24.60263,0.1,309.81314,1626728065441,,,,
Fix,GT,37.4505743000,-122.2787811000,137.89899713105706,24.52029,0.1,309.7093,1626728066441,,,,
Fix,GT,37.4507161000,-122.2789945000,138.1170035624582,24.666735,0.1,309.78796,1626728067441,,,,
Fix,GT,37.4508584000,-122.2792099000,138.27082727882043,24.83828,0.1,309.4607,1626728068441,,,,
Fix,GT,37.4510013000,-122.2794271000,138.36536001768218,25.011402,0.1,309.5527,1626728069441,,,,
Fix,GT,37.4511460000,-122.2796451000,138.38870624221636,25.166798,0.1,309.78183,1626728070441,,,,
Fix,GT,37.4512915000,-122.2798639000,138.41728988831574,25.264072,0.1,309.6172,1626728071441,,,,
Fix,GT,37.4514367000,-122.2800844000,138.43023282731383,25.352303,0.1,309.46426,1626728072441,,,,
Fix,GT,37.4515822000,-122.2803059000,138.40458720016522,25.443779,0.1,309.29797,1626728073441,,,,
Fix,GT,37.4517270000,-122.2805295000,138.35311342112345,25.486149,0.1,308.77155,1626728074441,,,,
Fix,GT,37.4518707000,-122.2807535000,138.23052326375182,25.439753,0.1,308.83435,1626728075441,,,,
Fix,GT,37.4520152000,-122.2809769000,138.09063841761053,25.478188,0.1,309.24197,1626728076441,,,,
Fix,GT,37.4521613000,-122.2811994000,137.87257224948007,25.545128,0.1,309.59766,1626728077441,,,,
Fix,GT,37.4523090000,-122.2814221000,137.60934403040483,25.716232,0.1,309.79587,1626728078441,,,,
Fix,GT,37.4524576000,-122.2816466000,137.28328242805537,25.959599,0.1,309.51343,1626728079441,,,,
Fix,GT,37.4526069000,-122.2818743000,136.9262239329464,26.236343,0.1,309.28296,1626728080441,,,,
Fix,GT,37.4527575000,-122.2821053000,136.53675268812458,26.558323,0.1,309.22083,1626728081441,,,,
Fix,GT,37.4529103000,-122.2823391000,136.08851381911109,26.955807,0.1,309.3817,1626728082441,,,,
Fix,GT,37.4530661000,-122.2825760000,135.5880411644198,27.387405,0.1,309.55075,1626728083441,,,,
Fix,GT,37.4532249000,-122.2828162000,135.02949794136248,27.87057,0.1,309.6281,1626728084441,,,,
Fix,GT,37.4533869000,-122.2830606000,134.3962655430114,28.354998,0.1,309.68222,1626728085441,,,,
Fix,GT,37.4535514000,-122.2833089000,133.77291321772645,28.7778,0.1,309.5763,1626728086441,,,,
Fix,GT,37.4537173000,-122.2835623000,133.12709405127953,29.228,0.1,309.23096,1626728087441,,,,
Fix,GT,37.4538852000,-122.2838195000,132.50167501716714,29.539593,0.1,309.3505,1626728088441,,,,
Fix,GT,37.4540536000,-122.2840771000,131.87627016683473,29.408997,0.1,309.29343,1626728089441,,,,
Fix,GT,37.4542216000,-122.2843332000,131.1990273888514,29.294582,0.1,309.60614,1626728090441,,,,
Fix,GT,37.4543903000,-122.2845878000,130.5670964175797,29.278114,0.1,309.74445,1626728091441,,,,
Fix,GT,37.4545591000,-122.2848422000,129.9182008497105,29.298645,0.1,309.72952,1626728092441,,,,
Fix,GT,37.4547279000,-122.2850968000,129.26192432831476,29.307234,0.1,309.6057,1626728093441,,,,
Fix,GT,37.4548960000,-122.2853524000,128.62532302538693,29.33319,0.1,309.33136,1626728094441,,,,
Fix,GT,37.4550635000,-122.2856091000,127.96873345496306,29.376663,0.1,309.2332,1626728095441,,,,
Fix,GT,37.4552314000,-122.2858662000,127.28648438916935,29.440346,0.1,309.37305,1626728096441,,,,
Fix,GT,37.4554005000,-122.2861230000,126.62308394646288,29.47578,0.1,309.45746,1626728097441,,,,
Fix,GT,37.4555692000,-122.2863804000,125.92320245571409,29.513256,0.1,309.22144,1626728098441,,,,
Fix,GT,37.4557382000,-122.2866387000,125.16249128531558,29.630245,0.1,309.4189,1626728099441,,,,
Fix,GT,37.4559097000,-122.2868964000,124.41014113934466,29.765587,0.1,310.1857,1626728100441,,,,
Fix,GT,37.4560851000,-122.2871519000,123.7397901705126,29.865437,0.1,311.24948,1626728101441,,,,
Fix,GT,37.4562657000,-122.2874022000,123.2822687134501,29.883917,0.1,313.06436,1626728102441,,,,
Fix,GT,37.4564532000,-122.2876452000,122.91586231507472,29.974804,0.1,315.24738,1626728103441,,,,
Fix,GT,37.4566490000,-122.2878796000,122.70044885738821,30.09934,0.1,317.3153,1626728104441,,,,
Fix,GT,37.4568525000,-122.2881056000,122.5838054220817,30.21724,0.1,319.3143,1626728105441,,,,
Fix,GT,37.4570620000,-122.2883248000,122.59758611030838,30.318447,0.1,321.02304,1626728106441,,,,
Fix,GT,37.4572767000,-122.2885356000,122.76252927172936,30.142595,0.1,322.94434,1626728107441,,,,
Fix,GT,37.4574960000,-122.2887351000,123.0630576000101,29.979172,0.1,324.91962,1626728108441,,,,
Fix,GT,37.4577192000,-122.2889247000,123.4998950872482,29.857685,0.1,326.83484,1626728109441,,,,
Fix,GT,37.4579466000,-122.2891039000,124.02253522666388,29.755312,0.1,328.8388,1626728110441,,,,
Fix,GT,37.4581776000,-122.2892731000,124.6223649697049,29.613396,0.1,330.4938,1626728111441,,,,
Fix,GT,37.4584113000,-122.2894330000,125.20512883209767,29.465942,0.1,332.3465,1626728112441,,,,
Fix,GT,37.4586481000,-122.2895816000,125.8305407833177,29.300602,0.1,334.44547,1626728113441,,,,
Fix,GT,37.4588876000,-122.2897185000,126.46460110110729,29.132753,0.1,336.52716,1626728114441,,,,
Fix,GT,37.4591293000,-122.2898451000,127.05613664911152,29.00631,0.1,338.21802,1626728115441,,,,
Fix,GT,37.4593731000,-122.2899614000,127.6244870889866,28.912395,0.1,340.12094,1626728116441,,,,
Fix,GT,37.4596194000,-122.2900672000,128.1492590010912,28.84515,0.1,341.9817,1626728117441,,,,
Fix,GT,37.4598673000,-122.2901636000,128.7339610151589,28.746105,0.1,343.52075,1626728118441,,,,
Fix,GT,37.4601161000,-122.2902513000,129.35190476654407,28.622225,0.1,345.14636,1626728119441,,,,
Fix,GT,37.4603662000,-122.2903285000,129.97119757312248,28.600925,0.1,347.1718,1626728120441,,,,
Fix,GT,37.4606190000,-122.2903942000,130.60231988625128,28.705963,0.1,349.3212,1626728121441,,,,
Fix,GT,37.4608747000,-122.2904492000,131.17272704999777,28.885662,0.1,351.18423,1626728122441,,,,
Fix,GT,37.4611333000,-122.2904945000,131.75249467014964,29.076937,0.1,352.8799,1626728123441,,,,
Fix,GT,37.4613947000,-122.2905287000,132.3564392998178,29.241375,0.1,355.17926,1626728124441,,,,
Fix,GT,37.4616578000,-122.2905508000,132.98696558459415,29.266666,0.1,357.052,1626728125441,,,,
Fix,GT,37.4619211000,-122.2905656000,133.77120932940306,29.248478,0.1,357.74857,1626728126441,,,,
Fix,GT,37.4621845000,-122.2905775000,134.476372851826,29.25493,0.1,358.12482,1626728127441,,,,
Fix,GT,37.4624481000,-122.2905872000,135.08019356204113,29.297073,0.1,358.38245,1626728128441,,,,
Fix,GT,37.4627123000,-122.2905963000,135.6579727077965,29.348984,0.1,358.45715,1626728129441,,,,
Fix,GT,37.4629768000,-122.2906051000,136.23702737094482,29.396328,0.1,358.4549,1626728130441,,,,
Fix,GT,37.4632415000,-122.2906139000,136.87078294859748,29.350657,0.1,358.5514,1626728131441,,,,
Fix,GT,37.4635048000,-122.2906219000,137.56138601373186,29.026073,0.1,358.61926,1626728132441,,,,
Fix,GT,37.4637641000,-122.2906314000,138.35933038233088,28.571907,0.1,358.13174,1626728133441,,,,
Fix,GT,37.4640195000,-122.2906450000,139.07161014003213,28.19283,0.1,357.112,1626728134441,,,,
Fix,GT,37.4642719000,-122.2906636000,139.49912738858393,27.941229,0.1,356.30066,1626728135441,,,,
Fix,GT,37.4645218000,-122.2906857000,139.87430579045213,27.686838,0.1,355.84576,1626728136441,,,,
Fix,GT,37.4647697000,-122.2907093000,140.2558945069086,27.493456,0.1,355.58292,1626728137441,,,,
Fix,GT,37.4650157000,-122.2907353000,140.6004869460212,27.305883,0.1,354.75455,1626728138441,,,,
Fix,GT,37.4652594000,-122.2907674000,140.934773778019,27.087337,0.1,353.21402,1626728139441,,,,
Fix,GT,37.4655007000,-122.2908087000,141.22511400032772,27.052853,0.1,351.43317,1626728140441,,,,
Fix,GT,37.4657412000,-122.2908588000,141.48488290693876,27.022488,0.1,350.02744,1626728141441,,,,
Fix,GT,37.4659805000,-122.2909122000,141.74225157513683,26.923744,0.1,350.19763,1626728142441,,,,
Fix,GT,37.4662187000,-122.2909634000,142.0839614936931,26.665012,0.1,350.2949,1626728143441,,,,
Fix,GT,37.4664531000,-122.2910147000,142.39925111732646,26.057558,0.1,349.93723,1626728144441,,,,
Fix,GT,37.4666792000,-122.2910684000,142.73518995512177,25.0107,0.1,348.7086,1626728145441,,,,
Fix,GT,37.4668947000,-122.2911269000,142.86041702504826,23.957165,0.1,347.23746,1626728146441,,,,
Fix,GT,37.4670995000,-122.2911882000,142.70310152523052,22.777496,0.1,346.0283,1626728147441,,,,
Fix,GT,37.4672923000,-122.2912515000,142.3795132785117,21.469719,0.1,344.93622,1626728148441,,,,
Fix,GT,37.4674732000,-122.2913152000,141.80662543643484,20.242989,0.1,343.91724,1626728149441,,,,
Fix,GT,37.4676440000,-122.2913789000,141.305812928038,19.326668,0.1,343.12146,1626728150441,,,,
Fix,GT,37.4678055000,-122.2914444000,140.66079321184588,18.314697,0.1,341.23492,1626728151441,,,,
Fix,GT,37.4679561000,-122.2915129000,139.86225854547047,17.253538,0.1,339.3435,1626728152441,,,,
Fix,GT,37.4680963000,-122.2915798000,139.03178389256027,16.00883,0.1,339.44125,1626728153441,,,,
Fix,GT,37.4682270000,-122.2916386000,138.200794315419,14.96188,0.1,340.90924,1626728154441,,,,
Fix,GT,37.4683505000,-122.2916887000,137.38549840262021,13.742867,0.1,342.77106,1626728155441,,,,
Fix,GT,37.4684610000,-122.2917300000,136.75568794139053,11.765563,0.1,343.63745,1626728156441,,,,
Fix,GT,37.4685534000,-122.2917645000,136.36168916352835,9.654666,0.1,342.8626,1626728157441,,,,
Fix,GT,37.4686256000,-122.2917958000,136.1663525623967,7.171177,0.1,339.45312,1626728158441,,,,
Fix,GT,37.4686722000,-122.2918243000,136.10157797645115,4.298206,0.1,332.87515,1626728159441,,,,
Fix,GT,37.4686947000,-122.2918418000,136.0592346907415,1.8212402,0.1,329.22717,1626728160441,,,,
Fix,GT,37.4687015000,-122.2918474000,136.053646792996,0.10134145,0.1,328.30994,1626728161441,,,,
Fix,GT,37.4687026000,-122.2918483000,136.04106545570676,0.43603176,0.1,328.1666,1626728162441,,,,
Fix,GT,37.4687095000,-122.2918541000,136.0306428274871,1.6164144,0.1,327.29974,1626728163441,,,,
Fix,GT,37.4687278000,-122.2918703000,136.02870164665,3.3710058,0.1,325.29318,1626728164441,,,,
Fix,GT,37.4687561000,-122.2919002000,136.07040418640463,4.779557,0.1,319.32278,1626728165441,,,,
Fix,GT,37.4687844000,-122.2919493000,136.27540859947112,5.964403,0.1,302.31482,1626728166441,,,,
Fix,GT,37.4687951000,-122.2920203000,136.4325935237075,7.0141373,0.1,275.39954,1626728167441,,,,
Fix,GT,37.4687806000,-122.2921028000,136.47864087205653,8.066156,0.1,252.35692,1626728168441,,,,
Fix,GT,37.4687422000,-122.2921880000,136.46564038330234,9.475121,0.1,236.74403,1626728169441,,,,
Fix,GT,37.4686814000,-122.2922749000,136.4780619286912,11.03612,0.1,225.61032,1626728170441,,,,
Fix,GT,37.4686049000,-122.2923642000,136.45417899300764,12.157795,0.1,222.66344,1626728171441,,,,
Fix,GT,37.4685213000,-122.2924615000,136.3513433727494,13.075287,0.1,222.95091,1626728172441,,,,
Fix,GT,37.4684342000,-122.2925664000,136.1020455024409,13.653662,0.1,224.64297,1626728173441,,,,
Fix,GT,37.4683490000,-122.2926793000,135.7673217624365,13.807018,0.1,227.97487,1626728174441,,,,
Fix,GT,37.4682690000,-122.2927985000,135.3060912803303,13.670393,0.1,230.23058,1626728175441,,,,
Fix,GT,37.4681880000,-122.2929116000,134.7445600496976,13.206219,0.1,225.86588,1626728176441,,,,
Fix,GT,37.4681063000,-122.2930115000,134.14368121802545,12.091468,0.1,224.09576,1626728177441,,,,
Fix,GT,37.4680340000,-122.2931061000,133.44532578965664,11.154837,0.1,228.58002,1626728178441,,,,
Fix,GT,37.4679806000,-122.2932034000,132.7740308099419,9.706291,0.1,239.62251,1626728179441,,,,
Fix,GT,37.4679551000,-122.2933033000,131.95031389494125,9.050629,0.1,259.69794,1626728180441,,,,
Fix,GT,37.4679684000,-122.2934060000,131.26551383149263,9.287805,0.1,288.07278,1626728181441,,,,
Fix,GT,37.4680168000,-122.2934998000,131.07776170435864,10.686361,0.1,307.46426,1626728182441,,,,
Fix,GT,37.4680900000,-122.2935951000,131.14787916438945,12.535322,0.1,316.07236,1626728183441,,,,
Fix,GT,37.4681768000,-122.2936949000,131.2710060018685,13.525472,0.1,317.78812,1626728184441,,,,
Fix,GT,37.4682707000,-122.2938010000,131.42324876037083,14.571665,0.1,317.9326,1626728185441,,,,
Fix,GT,37.4683720000,-122.2939149000,131.8872521255762,15.516565,0.1,318.1097,1626728186441,,,,
Fix,GT,37.4684786000,-122.2940327000,132.4983203700085,15.787349,0.1,318.71625,1626728187441,,,,
Fix,GT,37.4685861000,-122.2941441000,133.2213315775607,15.011616,0.1,322.2237,1626728188441,,,,
Fix,GT,37.4686945000,-122.2942322000,133.94538445284707,13.611029,0.1,331.42203,1626728189441,,,,
Fix,GT,37.4688058000,-122.2942830000,134.77461749678514,12.750984,0.1,346.06714,1626728190441,,,,
Fix,GT,37.4689183000,-122.2942919000,135.65909716689248,12.368287,0.1,2.2533662,1626728191441,,,,
Fix,GT,37.4690270000,-122.2942626000,136.49403173876135,12.423636,0.1,17.909044,1626728192441,,,,
Fix,GT,37.4691275000,-122.2941959000,137.30520837558288,12.797228,0.1,33.783348,1626728193441,,,,
Fix,GT,37.4692123000,-122.2940947000,138.10286565641036,13.174385,0.1,49.386826,1626728194441,,,,
Fix,GT,37.4692737000,-122.2939663000,138.92633254625252,13.21861,0.1,65.24851,1626728195441,,,,
Fix,GT,37.4693031000,-122.2938223000,139.6876211144563,13.146846,0.1,82.17574,1626728196441,,,,
Fix,GT,37.4692973000,-122.2936730000,140.47720561792084,13.331889,0.1,99.38791,1626728197441,,,,
Fix,GT,37.4692558000,-122.2935302000,141.1846722511018,13.595783,0.1,116.63802,1626728198441,,,,
Fix,GT,37.4691828000,-122.2934025000,141.8394385451188,14.342398,0.1,130.47621,1626728199441,,,,
Fix,GT,37.4690878000,-122.2932832000,142.39313488546668,15.486057,0.1,136.78838,1626728200441,,,,
Fix,GT,37.4689793000,-122.2931619000,142.89242998716827,16.794565,0.1,139.1552,1626728201441,,,,
Fix,GT,37.4688578000,-122.2930357000,143.32630282663376,18.217463,0.1,141.20132,1626728202441,,,,
Fix,GT,37.4687224000,-122.2929044000,143.59847237576287,19.7993,0.1,142.83392,1626728203441,,,,
Fix,GT,37.4685726000,-122.2927667000,143.5069408759905,21.231943,0.1,144.68639,1626728204441,,,,
Fix,GT,37.4684104000,-122.2926302000,143.35504957569083,22.089804,0.1,147.33324,1626728205441,,,,
Fix,GT,37.4682374000,-122.2924993000,143.16775230970052,22.750368,0.1,150.086,1626728206441,,,,
Fix,GT,37.4680549000,-122.2923740000,142.96010445703814,23.519625,0.1,152.20395,1626728207441,,,,
Fix,GT,37.4678613000,-122.2922520000,142.7306988991959,24.566933,0.1,154.11977,1626728208441,,,,
Fix,GT,37.4676562000,-122.2921322000,142.5226379644664,25.649529,0.1,155.68651,1626728209441,,,,
Fix,GT,37.4674401000,-122.2920155000,142.29945096197116,26.450989,0.1,157.56796,1626728210441,,,,
Fix,GT,37.4672155000,-122.2919041000,141.9762829757833,27.170002,0.1,159.09106,1626728211441,,,,
Fix,GT,37.4669826000,-122.2917971000,141.76040356815793,27.875053,0.1,160.49286,1626728212441,,,,
Fix,GT,37.4667425000,-122.2916936000,141.49221208805739,28.426737,0.1,161.37445,1626728213441,,,,
Fix,GT,37.4664986000,-122.2915939000,141.2138153119804,28.379002,0.1,162.58339,1626728214441,,,,
Fix,GT,37.4662550000,-122.2915017000,140.91210020291055,28.102215,0.1,163.74681,1626728215441,,,,
Fix,GT,37.4660122000,-122.2914174000,140.62139177177824,27.815453,0.1,165.34628,1626728216441,,,,
Fix,GT,37.4657699000,-122.2913436000,140.38992914176015,27.540134,0.1,167.19238,1626728217441,,,,
Fix,GT,37.4655278000,-122.2912793000,140.1049212934031,27.430126,0.1,168.92545,1626728218441,,,,
Fix,GT,37.4652840000,-122.2912239000,139.83910210762497,27.632658,0.1,170.40451,1626728219441,,,,
Fix,GT,37.4650360000,-122.2911754000,139.50599056761348,28.056993,0.1,171.8004,1626728220441,,,,
Fix,GT,37.4647833000,-122.2911345000,139.21821885742975,28.522068,0.1,173.34119,1626728221441,,,,
Fix,GT,37.4645255000,-122.2911014000,138.8497985315189,28.986816,0.1,174.89493,1626728222441,,,,
Fix,GT,37.4642631000,-122.2910760000,138.44856965770668,29.434212,0.1,176.20996,1626728223441,,,,
Fix,GT,37.4639965000,-122.2910579000,138.0552195723376,29.828682,0.1,177.47441,1626728224441,,,,
Fix,GT,37.4637268000,-122.2910459000,137.7033976594148,30.022354,0.1,178.28639,1626728225441,,,,
Fix,GT,37.4634572000,-122.2910364000,137.26244101547763,29.83078,0.1,178.2894,1626728226441,,,,
Fix,GT,37.4631893000,-122.2910265000,136.71761966879285,29.69886,0.1,178.19757,1626728227441,,,,
Fix,GT,37.4629220000,-122.2910161000,136.1759672479875,29.65517,0.1,178.16426,1626728228441,,,,
Fix,GT,37.4626551000,-122.2910058000,135.6054410871766,29.610428,0.1,178.22493,1626728229441,,,,
Fix,GT,37.4623889000,-122.2909952000,135.2300994856414,29.50312,0.1,178.1576,1626728230441,,,,
Fix,GT,37.4621238000,-122.2909844000,134.94216296675586,29.364485,0.1,178.21938,1626728231441,,,,
Fix,GT,37.4618601000,-122.2909732000,134.7001006873361,29.22548,0.1,177.8548,1626728232441,,,,
Fix,GT,37.4615975000,-122.2909569000,134.34009467384385,29.12544,0.1,176.39677,1626728233441,,,,
Fix,GT,37.4613363000,-122.2909303000,133.8159126334367,29.081394,0.1,174.32927,1626728234441,,,,
Fix,GT,37.4610761000,-122.2908923000,133.21873039389084,29.07629,0.1,172.77167,1626728235441,,,,
Fix,GT,37.4608166000,-122.2908477000,132.6145023708791,29.071651,0.1,171.62885,1626728236441,,,,
Fix,GT,37.4605583000,-122.2907948000,132.05432795606657,29.012844,0.1,169.73846,1626728237441,,,,
Fix,GT,37.4603023000,-122.2907300000,131.47980320701208,28.980984,0.1,167.59987,1626728238441,,,,
Fix,GT,37.4600486000,-122.2906550000,130.9435572868024,28.873697,0.1,165.84543,1626728239441,,,,
Fix,GT,37.4597982000,-122.2905698000,130.29767113209527,28.776352,0.1,163.80118,1626728240441,,,,
Fix,GT,37.4595506000,-122.2904737000,129.7293887588139,28.748936,0.1,161.9305,1626728241441,,,,
Fix,GT,37.4593059000,-122.2903690000,129.1683826765343,28.666634,0.1,160.41365,1626728242441,,,,
Fix,GT,37.4590641000,-122.2902551000,128.6588008483941,28.68208,0.1,158.48952,1626728243441,,,,
Fix,GT,37.4588252000,-122.2901314000,128.0943813719132,28.690987,0.1,156.8194,1626728244441,,,,
Fix,GT,37.4585890000,-122.2899995000,127.50084182180035,28.714664,0.1,155.21283,1626728245441,,,,
Fix,GT,37.4583558000,-122.2898586000,126.87531538750773,28.75637,0.1,153.38371,1626728246441,,,,
Fix,GT,37.4581259000,-122.2897081000,126.30496473362655,28.7884,0.1,151.49841,1626728247441,,,,
Fix,GT,37.4579003000,-122.2895476000,125.75096386578298,28.822529,0.1,149.47354,1626728248441,,,,
Fix,GT,37.4576774000,-122.2893787000,125.23467138457681,29.015896,0.1,148.21938,1626728249441,,,,
Fix,GT,37.4574563000,-122.2892011000,124.76991080667358,29.284637,0.1,146.60104,1626728250441,,,,
Fix,GT,37.4572378000,-122.2890134000,124.43315195718105,29.496754,0.1,144.6914,1626728251441,,,,
Fix,GT,37.4570229000,-122.2888156000,124.2087415023002,29.664654,0.1,142.72478,1626728252441,,,,
Fix,GT,37.4568125000,-122.2886078000,124.05616443587405,29.797699,0.1,140.90831,1626728253441,,,,
Fix,GT,37.4566067000,-122.2883907000,123.99334719419858,29.89996,0.1,139.01369,1626728254441,,,,
Fix,GT,37.4564061000,-122.2881646000,124.08547138416384,29.9653,0.1,136.99738,1626728255441,,,,
Fix,GT,37.4562121000,-122.2879290000,124.31899845305657,29.967846,0.1,134.90619,1626728256441,,,,
Fix,GT,37.4560246000,-122.2876855000,124.63188814543446,29.955544,0.1,133.14749,1626728257441,,,,
Fix,GT,37.4558433000,-122.2874350000,125.04600666123793,29.922688,0.1,131.44016,1626728258441,,,,
Fix,GT,37.4556673000,-122.2871789000,125.46912207094692,29.904606,0.1,130.10664,1626728259441,,,,
Fix,GT,37.4554950000,-122.2869191000,125.74094642146292,29.926744,0.1,129.6084,1626728260441,,,,
Fix,GT,37.4553231000,-122.2866583000,126.05113030992152,29.9379,0.1,129.42548,1626728261441,,,,
Fix,GT,37.4551515000,-122.2863973000,126.53306721467106,29.948212,0.1,129.54169,1626728262441,,,,
Fix,GT,37.4549792000,-122.2861358000,127.18814169200778,30.084827,0.1,129.56075,1626728263441,,,,
Fix,GT,37.4548055000,-122.2858736000,127.84431540098376,30.283634,0.1,129.80185,1626728264441,,,,
Fix,GT,37.4546300000,-122.2856094000,128.52084431287585,30.56583,0.1,129.61432,1626728265441,,,,
Fix,GT,37.4544546000,-122.2853427000,129.18455906614327,30.603893,0.1,129.34915,1626728266441,,,,
Fix,GT,37.4542795000,-122.2850749000,129.84374262228675,30.68475,0.1,129.3287,1626728267441,,,,
Fix,GT,37.4541038000,-122.2848067000,130.528321189071,30.671906,0.1,129.36926,1626728268441,,,,
Fix,GT,37.4539290000,-122.2845408000,131.17967310264612,30.358578,0.1,129.647,1626728269441,,,,
Fix,GT,37.4537544000,-122.2842763000,131.83926163836531,30.449085,0.1,129.46014,1626728270441,,,,
Fix,GT,37.4535795000,-122.2840102000,132.526264400105,30.600498,0.1,129.5861,1626728271441,,,,
Fix,GT,37.4534029000,-122.2837433000,133.23538221284525,30.78004,0.1,129.66437,1626728272441,,,,
Fix,GT,37.4532254000,-122.2834746000,133.90014417597922,30.977215,0.1,129.54845,1626728273441,,,,
Fix,GT,37.4530473000,-122.2832037000,134.53143714760517,31.160913,0.1,129.33963,1626728274441,,,,
Fix,GT,37.4528685000,-122.2829307000,135.1164962697444,31.318378,0.1,129.40231,1626728275441,,,,
Fix,GT,37.4526899000,-122.2826592000,135.64384226606853,30.994696,0.1,129.48874,1626728276441,,,,
Fix,GT,37.4525126000,-122.2823895000,136.1144313813138,30.873844,0.1,129.41667,1626728277441,,,,
Fix,GT,37.4523360000,-122.2821200000,136.5550755129807,30.899616,0.1,129.30156,1626728278441,,,,
Fix,GT,37.4521594000,-122.2818495000,136.9083003163214,30.94933,0.1,129.23463,1626728279441,,,,
Fix,GT,37.4519827000,-122.2815787000,137.22695044850752,30.97379,0.1,129.2844,1626728280441,,,,
Fix,GT,37.4518060000,-122.2813094000,137.4597111432804,30.810833,0.1,129.57431,1626728281441,,,,
Fix,GT,37.4516284000,-122.2810412000,137.66524069689785,30.899601,0.1,129.72263,1626728282441,,,,
Fix,GT,37.4514502000,-122.2807717000,137.80340901749878,31.058556,0.1,129.56929,1626728283441,,,,
Fix,GT,37.4512715000,-122.2805007000,137.89752831522856,31.184034,0.1,129.43407,1626728284441,,,,
Fix,GT,37.4510930000,-122.2802272000,137.92988177182542,31.364918,0.1,129.06699,1626728285441,,,,
Fix,GT,37.4509144000,-122.2799513000,137.90228669343605,31.541656,0.1,129.01152,1626728286441,,,,
Fix,GT,37.4507345000,-122.2796736000,137.7945861237231,31.771397,0.1,129.15314,1626728287441,,,,
Fix,GT,37.4505523000,-122.2793951000,137.6316414955554,31.997425,0.1,129.52194,1626728288441,,,,
Fix,GT,37.4503676000,-122.2791157000,137.37509927397605,32.245453,0.1,129.58333,1626728289441,,,,
Fix,GT,37.4501824000,-122.2788345000,137.13044877322227,32.207066,0.1,129.58641,1626728290441,,,,
Fix,GT,37.4499984000,-122.2785551000,136.67267043405627,31.903736,0.1,129.49382,1626728291441,,,,
Fix,GT,37.4498166000,-122.2782783000,136.33292806786176,31.557888,0.1,129.41402,1626728292441,,,,
Fix,GT,37.4496369000,-122.2780042000,135.8870291538824,31.263237,0.1,129.39543,1626728293441,,,,
Fix,GT,37.4494583000,-122.2777328000,135.3611087531117,31.051308,0.1,129.60904,1626728294441,,,,
Fix,GT,37.4492800000,-122.2774638000,134.80413612351458,30.879204,0.1,129.86873,1626728295441,,,,
Fix,GT,37.4491012000,-122.2771965000,134.1416194757253,30.877758,0.1,130.04288,1626728296441,,,,
Fix,GT,37.4489216000,-122.2769296000,133.42313605049185,30.939644,0.1,130.26503,1626728297441,,,,
Fix,GT,37.4487405000,-122.2766631000,132.61907489635814,31.026138,0.1,130.75151,1626728298441,,,,
Fix,GT,37.4485569000,-122.2763980000,131.7277141148088,31.11773,0.1,131.05125,1626728299441,,,,
Fix,GT,37.4483720000,-122.2761332000,130.84453778601028,31.1646,0.1,131.30719,1626728300441,,,,
Fix,GT,37.4481863000,-122.2758688000,129.9637859869672,31.194174,0.1,131.31822,1626728301441,,,,
Fix,GT,37.4480002000,-122.2756045000,129.06530258868588,31.207253,0.1,131.46748,1626728302441,,,,
Fix,GT,37.4478141000,-122.2753401000,128.14877336442078,31.212816,0.1,131.23108,1626728303441,,,,
Fix,GT,37.4476291000,-122.2750748000,127.24395312175261,31.168537,0.1,131.05417,1626728304441,,,,
Fix,GT,37.4474448000,-122.2748091000,126.34794871553277,31.18047,0.1,131.04868,1626728305441,,,,
Fix,GT,37.4472597000,-122.2745435000,125.45853672954809,31.256437,0.1,131.19855,1626728306441,,,,
Fix,GT,37.4470735000,-122.2742774000,124.5595957427613,31.436674,0.1,131.32057,1626728307441,,,,
Fix,GT,37.4468855000,-122.2740096000,123.73689535164885,31.715185,0.1,131.38013,1626728308441,,,,
Fix,GT,37.4466955000,-122.2737395000,123.00719646177595,32.0375,0.1,131.33441,1626728309441,,,,
Fix,GT,37.4465038000,-122.2734664000,122.39278944961802,32.375706,0.1,131.252,1626728310441,,,,
Fix,GT,37.4463108000,-122.2731910000,121.97185226394367,32.37743,0.1,131.51555,1626728311441,,,,
Fix,GT,37.4461175000,-122.2729175000,121.69892116537471,32.36004,0.1,131.4691,1626728312441,,,,
Fix,GT,37.4459252000,-122.2726417000,121.436745536138,32.510544,0.1,130.71103,1626728313441,,,,
Fix,GT,37.4457357000,-122.2723608000,121.32974990041112,32.59888,0.1,129.65424,1626728314441,,,,
Fix,GT,37.4455524000,-122.2720749000,121.2699852968592,32.30432,0.1,127.91827,1626728315441,,,,
Fix,GT,37.4453779000,-122.2717845000,121.21863553811045,32.078453,0.1,126.21048,1626728316441,,,,
Fix,GT,37.4452115000,-122.2714902000,121.263762750041,31.748756,0.1,124.58454,1626728317441,,,,
Fix,GT,37.4450538000,-122.2711934000,121.3898233533439,31.42084,0.1,122.815575,1626728318441,,,,
Fix,GT,37.4449046000,-122.2708930000,121.63664900303456,31.219852,0.1,121.01306,1626728319441,,,,
Fix,GT,37.4447636000,-122.2705892000,121.94076100039842,31.018978,0.1,119.379486,1626728320441,,,,
Fix,GT,37.4446305000,-122.2702824000,122.30412563694335,30.810211,0.1,117.75335,1626728321441,,,,
Fix,GT,37.4445049000,-122.2699733000,122.65824434575688,30.602741,0.1,116.219444,1626728322441,,,,
Fix,GT,37.4443870000,-122.2696621000,123.05182955367604,30.408447,0.1,114.61717,1626728323441,,,,
Fix,GT,37.4442771000,-122.2693483000,123.26406729085079,30.251408,0.1,112.87829,1626728324441,,,,
Fix,GT,37.4441749000,-122.2690326000,123.66382911319602,30.051586,0.1,111.38249,1626728325441,,,,
Fix,GT,37.4440804000,-122.2687158000,124.04942992282736,29.856792,0.1,109.695786,1626728326441,,,,
Fix,GT,37.4439936000,-122.2683973000,124.37353800606752,29.715708,0.1,108.05508,1626728327441,,,,
Fix,GT,37.4439145000,-122.2680774000,124.72465468911514,29.568966,0.1,106.52457,1626728328441,,,,
Fix,GT,37.4438415000,-122.2677569000,125.0756526276873,29.445292,0.1,105.37763,1626728329441,,,,
Fix,GT,37.4437748000,-122.2674350000,125.41471010994496,29.436758,0.1,103.78112,1626728330441,,,,
Fix,GT,37.4437156000,-122.2671109000,125.76323969780105,29.438519,0.1,102.02131,1626728331441,,,,
Fix,GT,37.4436644000,-122.2667847000,126.09306612475984,29.411015,0.1,100.304634,1626728332441,,,,
Fix,GT,37.4436208000,-122.2664570000,126.42541079853459,29.410646,0.1,98.66932,1626728333441,,,,
Fix,GT,37.4435846000,-122.2661276000,126.70400189307293,29.428753,0.1,97.11783,1626728334441,,,,
Fix,GT,37.4435553000,-122.2657970000,126.98529805189196,29.453861,0.1,95.699615,1626728335441,,,,
Fix,GT,37.4435323000,-122.2654653000,127.17435775685112,29.47358,0.1,94.21412,1626728336441,,,,
Fix,GT,37.4435165000,-122.2651329000,127.34499710323507,29.475452,0.1,92.69946,1626728337441,,,,
Fix,GT,37.4435079000,-122.2647997000,127.46299712225073,29.532055,0.1,91.04133,1626728338441,,,,
Fix,GT,37.4435068000,-122.2644658000,127.50763319252292,29.595232,0.1,89.53674,1626728339441,,,,
Fix,GT,37.4435129000,-122.2641308000,127.44404981863636,29.700974,0.1,87.964676,1626728340441,,,,
Fix,GT,37.4435258000,-122.2637953000,127.4873393997459,29.766647,0.1,86.48291,1626728341441,,,,
Fix,GT,37.4435453000,-122.2634594000,127.41345601318562,29.83537,0.1,85.16008,1626728342441,,,,
Fix,GT,37.4435730000,-122.2631237000,127.30920494525458,29.912933,0.1,83.09576,1626728343441,,,,
Fix,GT,37.4436089000,-122.2627880000,127.00844219518308,30.074638,0.1,81.74359,1626728344441,,,,
Fix,GT,37.4436484000,-122.2624513000,126.66408960604849,30.051636,0.1,81.7488,1626728345441,,,,
Fix,GT,37.4436856000,-122.2621164000,126.32861729473984,29.787127,0.1,82.31493,1626728346441,,,,
Fix,GT,37.4437209000,-122.2617835000,126.01591532945667,29.721184,0.1,82.3076,1626728347441,,,,
Fix,GT,37.4437568000,-122.2614503000,125.80438681431337,29.7884,0.1,82.232475,1626728348441,,,,
Fix,GT,37.4437930000,-122.2611163000,125.61597813978324,29.88073,0.1,82.176636,1626728349441,,,,
Fix,GT,37.4438300000,-122.2607812000,125.4358673724505,29.971888,0.1,81.9944,1626728350441,,,,
Fix,GT,37.4438676000,-122.2604454000,125.23615313143273,30.044724,0.1,81.99346,1626728351441,,,,
Fix,GT,37.4439042000,-122.2601086000,124.96262425615805,30.12017,0.1,82.51021,1626728352441,,,,
Fix,GT,37.4439377000,-122.2597704000,124.588436321068,30.192612,0.1,83.23006,1626728353441,,,,
Fix,GT,37.4439673000,-122.2594311000,124.14808676076836,30.192856,0.1,84.45807,1626728354441,,,,
Fix,GT,37.4439881000,-122.2590912000,123.66384974786433,30.163275,0.1,86.71057,1626728355441,,,,
Fix,GT,37.4439997000,-122.2587503000,123.13072334255844,30.229149,0.1,88.334595,1626728356441,,,,
Fix,GT,37.4440025000,-122.2584081000,122.51919611631342,30.318825,0.1,90.527466,1626728357441,,,,
Fix,GT,37.4439948000,-122.2580650000,121.82878160414475,30.446766,0.1,92.504585,1626728358441,,,,
Fix,GT,37.4439782000,-122.2577216000,121.05789287918742,30.391354,0.1,94.42268,1626728359441,,,,
Fix,GT,37.4439524000,-122.2573805000,120.22876442775896,30.241411,0.1,96.406555,1626728360441,,,,
Fix,GT,37.4439174000,-122.2570423000,119.33988669079918,30.118168,0.1,98.26577,1626728361441,,,,
Fix,GT,37.4438736000,-122.2567070000,118.36906137697133,30.02633,0.1,100.32792,1626728362441,,,,
Fix,GT,37.4438211000,-122.2563743000,117.31693692088083,30.016743,0.1,102.052574,1626728363441,,,,
Fix,GT,37.4437598000,-122.2560435000,116.21728258656435,30.103811,0.1,103.96317,1626728364441,,,,
Fix,GT,37.4436899000,-122.2557141000,115.02610831233028,30.214851,0.1,105.963,1626728365441,,,,
Fix,GT,37.4436108000,-122.2553864000,113.77616606680385,30.367546,0.1,107.80113,1626728366441,,,,
Fix,GT,37.4435219000,-122.2550609000,112.5439271297846,30.542267,0.1,109.964645,1626728367441,,,,
Fix,GT,37.4434233000,-122.2547373000,111.2891052170603,30.767376,0.1,111.86848,1626728368441,,,,
Fix,GT,37.4433155000,-122.2544156000,110.03010247894235,30.999548,0.1,113.61372,1626728369441,,,,
Fix,GT,37.4431990000,-122.2540959000,108.77810351749395,31.198772,0.1,115.53984,1626728370441,,,,
Fix,GT,37.4430731000,-122.2537793000,107.49434673227711,31.404299,0.1,117.39015,1626728371441,,,,
Fix,GT,37.4429381000,-122.2534664000,106.22845878624344,31.575924,0.1,119.45157,1626728372441,,,,
