MessageType,Provider,LatitudeDegrees,LongitudeDegrees,AltitudeMeters,SpeedMps,AccuracyMeters,BearingDegrees,UnixTimeMillis,SpeedAccuracyMps,BearingAccuracyDegrees,elapsedRealtimeNanos,VerticalAccuracyMeters
Fix,GT,37.4282890000,-122.0725270000,-28.20880126953125,0.008032393,0.1,238.64082,1593045252447,,,,
Fix,GT,37.4282889000,-122.0725270000,-28.20880211021904,0.013538857,0.1,238.64096,1593045253447,,,,
Fix,GT,37.4282888000,-122.0725270000,-28.209799879497268,0.020699322,0.1,238.64215,1593045254447,,,,
Fix,GT,37.4282882000,-122.0725278000,-28.221800916737266,0.48250806,0.1,238.29805,1593045255447,,,,
Fix,GT,37.4282812000,-122.0725364000,-28.207882892857185,1.557615,0.1,232.9659,1593045256447,,,,
Fix,GT,37.4282703000,-122.0725539000,-28.190198627078473,2.3215017,0.1,233.99725,1593045257447,,,,
Fix,GT,37.4282657000,-122.0725838000,-28.2393607859276,3.0217004,0.1,255.80428,1593045258447,,,,
Fix,GT,37.4282760000,-122.0726221000,-28.183402445864772,4.0689116,0.1,286.77316,1593045259447,,,,
Fix,GT,37.4283031000,-122.0726682000,-28.232076641334515,6.0902834,0.1,306.0996,1593045260447,,,,
Fix,GT,37.4283381000,-122.0727351000,-28.313679010708483,8.01054,0.1,301.19894,1593045261447,,,,
Fix,GT,37.4283675000,-122.0728254000,-28.402117284869007,9.26646,0.1,288.47964,1593045262447,,,,
Fix,GT,37.4283820000,-122.0729354000,-28.472719914921072,10.4391365,0.1,275.83383,1593045263447,,,,
Fix,GT,37.4283856000,-122.0730590000,-28.440525069610715,11.484282,0.1,270.41992,1593045264447,,,,
Fix,GT,37.4283839000,-122.0731947000,-28.34615803261954,12.511393,0.1,268.8172,1593045265447,,,,
Fix,GT,37.4283814000,-122.0733405000,-28.18308447964273,13.324852,0.1,269.07538,1593045266447,,,,
Fix,GT,37.4283804000,-122.0734965000,-28.073085779977646,14.283155,0.1,269.5223,1593045267447,,,,
Fix,GT,37.4283797000,-122.0736627000,-28.02027970308643,14.95309,0.1,269.7549,1593045268447,,,,
Fix,GT,37.4283792000,-122.0738314000,-28.075157282769283,14.868091,0.1,269.8267,1593045269447,,,,
Fix,GT,37.4283787000,-122.0739997000,-28.195476004299962,15.072347,0.1,269.71765,1593045270447,,,,
Fix,GT,37.4283777000,-122.0741738000,-28.282199426366105,15.665352,0.1,269.51074,1593045271447,,,,
Fix,GT,37.4283767000,-122.0743522000,-28.361037506383582,15.937968,0.1,269.64948,1593045272447,,,,
Fix,GT,37.4283760000,-122.0745351000,-28.48999663340328,16.449139,0.1,269.91678,1593045273447,,,,
Fix,GT,37.4283763000,-122.0747247000,-28.751109438209312,17.110851,0.1,270.33838,1593045274447,,,,
Fix,GT,37.4283778000,-122.0749214000,-29.15563061996818,17.703539,0.1,270.56885,1593045275447,,,,
Fix,GT,37.4283792000,-122.0751238000,-29.611746745813434,18.054447,0.1,270.35748,1593045276447,,,,
Fix,GT,37.4283801000,-122.0753280000,-29.934312898089274,18.045021,0.1,270.40625,1593045277447,,,,
Fix,GT,37.4283812000,-122.0755310000,-30.078320767098376,17.908447,0.1,270.35135,1593045278447,,,,
Fix,GT,37.4283819000,-122.0757329000,-30.13124001316089,17.801075,0.1,270.16516,1593045279447,,,,
Fix,GT,37.4283823000,-122.0759327000,-30.18963785108963,17.572271,0.1,270.2867,1593045280447,,,,
Fix,GT,37.4283817000,-122.0761299000,-30.239361642680137,17.340916,0.1,268.97623,1593045281447,,,,
Fix,GT,37.4283743000,-122.0763250000,-30.299558113065814,17.292189,0.1,265.46506,1593045282447,,,,
Fix,GT,37.4283546000,-122.0765188000,-30.25504446300556,17.319407,0.1,260.4128,1593045283447,,,,
Fix,GT,37.4283214000,-122.0767102000,-30.186922752678242,17.34861,0.1,255.81792,1593045284447,,,,
Fix,GT,37.4282784000,-122.0768971000,-30.130523918774315,17.044155,0.1,252.86884,1593045285447,,,,
Fix,GT,37.4282327000,-122.0770778000,-30.048402249759988,16.412727,0.1,252.26717,1593045286447,,,,
Fix,GT,37.4281897000,-122.0772492000,-30.011882913344948,15.422006,0.1,253.27213,1593045287447,,,,
Fix,GT,37.4281567000,-122.0774125000,-30.036199111409815,14.355079,0.1,258.04514,1593045288447,,,,
Fix,GT,37.4281374000,-122.0775658000,-30.093639065595426,13.040329,0.1,263.032,1593045289447,,,,
Fix,GT,37.4281289000,-122.0777023000,-30.159199291819732,11.104692,0.1,266.69336,1593045290447,,,,
Fix,GT,37.4281260000,-122.0778143000,-30.235678934279235,8.689738,0.1,268.69156,1593045291447,,,,
Fix,GT,37.4281255000,-122.0778981000,-30.27323929764185,6.223653,0.1,269.76685,1593045292447,,,,
Fix,GT,37.4281252000,-122.0779628000,-30.366636961230256,5.5836096,0.1,269.36536,1593045293447,,,,
Fix,GT,37.4281183000,-122.0780259000,-30.541076493368735,5.902335,0.1,259.151,1593045294447,,,,
Fix,GT,37.4280933000,-122.0780882000,-30.58824164310238,6.4857216,0.1,238.95847,1593045295447,,,,
Fix,GT,37.4280477000,-122.0781409000,-30.574605366709875,7.463049,0.1,217.58272,1593045296447,,,,
Fix,GT,37.4279818000,-122.0781781000,-30.65268056935912,8.7199955,0.1,199.28526,1593045297447,,,,
Fix,GT,37.4278970000,-122.0781977000,-30.709037894578955,10.442175,0.1,186.6859,1593045298447,,,,
Fix,GT,37.4277960000,-122.0782018000,-30.763518175732884,11.980858,0.1,180.14796,1593045299447,,,,
Fix,GT,37.4276812000,-122.0781982000,-30.786435791348026,13.437682,0.1,177.76065,1593045300447,,,,
Fix,GT,37.4275552000,-122.0781891000,-30.779687493088034,14.4832535,0.1,175.94656,1593045301447,,,,
Fix,GT,37.4274227000,-122.0781742000,-30.70240259223806,15.006446,0.1,173.99948,1593045302447,,,,
Fix,GT,37.4272865000,-122.0781536000,-30.64980125427246,15.43424,0.1,172.83176,1593045303447,,,,
Fix,GT,37.4271454000,-122.0781324000,-30.610922572664435,16.164341,0.1,173.68187,1593045304447,,,,
Fix,GT,37.4269968000,-122.0781139000,-30.573922910378997,17.008465,0.1,174.92769,1593045305447,,,,
Fix,GT,37.4268408000,-122.0780988000,-30.521362161176796,17.678417,0.1,176.20412,1593045306447,,,,
Fix,GT,37.4266796000,-122.0780884000,-30.438043207629335,18.1364,0.1,177.77374,1593045307447,,,,
Fix,GT,37.4265146000,-122.0780834000,-30.406321797956025,18.487236,0.1,179.2705,1593045308447,,,,
Fix,GT,37.4263468000,-122.0780825000,-30.34200566210717,18.75935,0.1,180.19775,1593045309447,,,,
Fix,GT,37.4261762000,-122.0780854000,-30.29408471090801,19.138063,0.1,181.3338,1593045310447,,,,
Fix,GT,37.4260023000,-122.0780928000,-30.237483654213975,19.456917,0.1,182.51979,1593045311447,,,,
Fix,GT,37.4258271000,-122.0781048000,-30.157922556686117,19.393858,0.1,183.61777,1593045312447,,,,
Fix,GT,37.4256552000,-122.0781192000,-30.0919225737332,18.69809,0.1,183.98584,1593045313447,,,,
Fix,GT,37.4254947000,-122.0781318000,-30.04328032721287,16.82484,0.1,183.20279,1593045314447,,,,
Fix,GT,37.4253544000,-122.0781401000,-29.974280082714813,14.319088,0.1,182.29938,1593045315447,,,,
Fix,GT,37.4252370000,-122.0781455000,-29.928921581143527,11.6938305,0.1,182.12738,1593045316447,,,,
Fix,GT,37.4251436000,-122.0781494000,-29.89732191379005,9.085718,0.1,181.7227,1593045317447,,,,
Fix,GT,37.4250726000,-122.0781514000,-29.868362275588936,6.8929453,0.1,181.10521,1593045318447,,,,
Fix,GT,37.4250189000,-122.0781520000,-29.86732221938638,4.9285493,0.1,180.41037,1593045319447,,,,
Fix,GT,37.4249840000,-122.0781518000,-29.861281118525312,2.81895,0.1,179.82304,1593045320447,,,,
Fix,GT,37.4249653000,-122.0781517000,-29.87132104002592,1.5006841,0.1,179.58957,1593045321447,,,,
Fix,GT,37.4249563000,-122.0781516000,-29.868281087352443,0.48732522,0.1,179.53305,1593045322447,,,,
Fix,GT,37.4249549000,-122.0781516000,-29.874801635742188,0.014621532,0.1,179.52809,1593045323447,,,,
Fix,GT,37.4249549000,-122.0781516000,-29.874801635742188,0.00212283,0.1,179.52814,1593045324447,,,,
Fix,GT,37.4249549000,-122.0781516000,-29.874802526080657,0.001,0.1,179.52629,1593045325447,,,,
Fix,GT,37.4249549000,-122.0781516000,-29.874800745403718,0.00095936656,0.1,179.5267,1593045326447,,,,
Fix,GT,37.4249549000,-122.0781516000,-29.874800745403718,0.0032179258,0.1,179.52762,1593045327447,,,,
Fix,GT,37.4249548000,-122.0781516000,-29.8757595837169,0.058189016,0.1,179.53099,1593045328447,,,,
Fix,GT,37.4249523000,-122.0781515000,-29.87380027770996,0.2721481,0.1,179.5107,1593045329447,,,,
Fix,GT,37.4249511000,-122.0781514000,-29.872799936747526,0.02874157,0.1,179.5062,1593045330447,,,,
Fix,GT,37.4249505000,-122.0781514000,-29.87380027770996,0.118799105,0.1,179.50328,1593045331447,,,,
Fix,GT,37.4249495000,-122.0781514000,-29.871801376342773,0.028509118,0.1,179.49016,1593045332447,,,,
Fix,GT,37.4249484000,-122.0781514000,-29.873279354593535,0.30517995,0.1,179.48325,1593045333447,,,,
Fix,GT,37.4249426000,-122.0781514000,-29.8713201535669,1.0164092,0.1,179.35002,1593045334447,,,,
Fix,GT,37.4249264000,-122.0781503000,-29.852841087924787,2.715706,0.1,177.98096,1593045335447,,,,
Fix,GT,37.4248934000,-122.0781483000,-29.83440261269334,4.5696545,0.1,177.3791,1593045336447,,,,
Fix,GT,37.4248425000,-122.0781461000,-29.828361504139252,7.0300264,0.1,178.23743,1593045337447,,,,
Fix,GT,37.4247676000,-122.0781446000,-29.799842377714526,9.488989,0.1,179.31508,1593045338447,,,,
Fix,GT,37.4246746000,-122.0781434000,-29.768719528998986,11.010097,0.1,179.31165,1593045339447,,,,
Fix,GT,37.4245682000,-122.0781404000,-29.740361143257132,12.488155,0.1,178.33768,1593045340447,,,,
Fix,GT,37.4244514000,-122.0781340000,-29.703882428953875,13.390781,0.1,177.21292,1593045341447,,,,
Fix,GT,37.4243279000,-122.0781254000,-29.62640331781148,14.034683,0.1,176.61897,1593045342447,,,,
Fix,GT,37.4242004000,-122.0781140000,-29.59344489803891,14.210914,0.1,175.43373,1593045343447,,,,
Fix,GT,37.4240740000,-122.0781001000,-29.57010986487535,13.957881,0.1,174.91275,1593045344447,,,,
Fix,GT,37.4239512000,-122.0780867000,-29.502158015156056,13.338766,0.1,175.2095,1593045345447,,,,
Fix,GT,37.4238346000,-122.0780751000,-29.481044506177568,12.515432,0.1,175.86482,1593045346447,,,,
Fix,GT,37.4237274000,-122.0780659000,-29.45215965177448,11.276693,0.1,176.40102,1593045347447,,,,
Fix,GT,37.4236344000,-122.0780603000,-29.415882329771193,9.416036,0.1,178.70874,1593045348447,,,,
Fix,GT,37.4235555000,-122.0780670000,-29.44084045003831,8.197759,0.1,187.34497,1593045349447,,,,
Fix,GT,37.4234888000,-122.0780963000,-29.49719858920116,7.709715,0.1,205.94063,1593045350447,,,,
Fix,GT,37.4234408000,-122.0781569000,-29.53119806881199,7.628689,0.1,233.05519,1593045351447,,,,
Fix,GT,37.4234185000,-122.0782413000,-29.585881528213577,8.330679,0.1,257.7508,1593045352447,,,,
Fix,GT,37.4234136000,-122.0783435000,-29.527444048559346,9.915636,0.1,268.2625,1593045353447,,,,
Fix,GT,37.4234110000,-122.0784654000,-29.44256500980191,11.673487,0.1,268.49368,1593045354447,,,,
Fix,GT,37.4234069000,-122.0786068000,-29.356564570396586,13.351908,0.1,267.76703,1593045355447,,,,
Fix,GT,37.4234013000,-122.0787669000,-29.23596336058688,14.9967575,0.1,267.47717,1593045356447,,,,
Fix,GT,37.4233943000,-122.0789439000,-29.099484270474363,16.237776,0.1,267.19095,1593045357447,,,,
Fix,GT,37.4233867000,-122.0791327000,-28.934565602034127,17.13821,0.1,267.05887,1593045358447,,,,
Fix,GT,37.4233783000,-122.0793297000,-28.80208536468666,17.772032,0.1,266.7862,1593045359447,,,,
Fix,GT,37.4233677000,-122.0795320000,-28.651686681515855,18.036247,0.1,265.8733,1593045360447,,,,
Fix,GT,37.4233540000,-122.0797361000,-28.503003346273147,18.277346,0.1,264.80603,1593045361447,,,,
Fix,GT,37.4233374000,-122.0799435000,-28.36552290384958,18.57051,0.1,263.96857,1593045362447,,,,
Fix,GT,37.4233188000,-122.0801512000,-28.288639443881948,18.369831,0.1,263.42654,1593045363447,,,,
Fix,GT,37.4232993000,-122.0803555000,-28.182810497570983,18.031403,0.1,263.02707,1593045364447,,,,
Fix,GT,37.4232783000,-122.0805556000,-28.202956724182116,17.707867,0.1,262.37787,1593045365447,,,,
Fix,GT,37.4232600000,-122.0807524000,-28.300515757132416,17.367638,0.1,263.9973,1593045366447,,,,
Fix,GT,37.4232454000,-122.0809459000,-28.387353117984787,17.056019,0.1,264.90918,1593045367447,,,,
Fix,GT,37.4232312000,-122.0811363000,-28.516035945503972,16.788572,0.1,264.47552,1593045368447,,,,
Fix,GT,37.4232161000,-122.0813236000,-28.657118032519065,16.544132,0.1,264.08945,1593045369447,,,,
Fix,GT,37.4232001000,-122.0815081000,-28.790394543072352,16.310783,0.1,263.7074,1593045370447,,,,
Fix,GT,37.4231846000,-122.0816899000,-28.942036537497188,16.071566,0.1,264.18237,1593045371447,,,,
Fix,GT,37.4231699000,-122.0818692000,-29.06295457019519,15.83763,0.1,263.81186,1593045372447,,,,
Fix,GT,37.4231535000,-122.0820457000,-29.199834503252816,15.606111,0.1,263.15854,1593045373447,,,,
Fix,GT,37.4231368000,-122.0822202000,-29.327599301835562,15.6003475,0.1,263.3098,1593045374447,,,,
Fix,GT,37.4231207000,-122.0823950000,-29.44059739005229,15.501778,0.1,263.79358,1593045375447,,,,
Fix,GT,37.4231075000,-122.0825682000,-29.56607767934679,15.282738,0.1,265.3652,1593045376447,,,,
Fix,GT,37.4230984000,-122.0827390000,-29.69255657208805,15.015148,0.1,266.7941,1593045377447,,,,
Fix,GT,37.4230920000,-122.0829069000,-29.781679249231274,14.746288,0.1,267.6628,1593045378447,,,,
Fix,GT,37.4230882000,-122.0830718000,-29.844199565394774,14.453978,0.1,269.135,1593045379447,,,,
Fix,GT,37.4230875000,-122.0832339000,-29.8882407992146,14.369049,0.1,269.94748,1593045380447,,,,
Fix,GT,37.4230877000,-122.0833987000,-29.92863797555833,14.807224,0.1,270.3828,1593045381447,,,,
Fix,GT,37.4230898000,-122.0835691000,-29.981761255240315,15.458439,0.1,271.4347,1593045382447,,,,
Fix,GT,37.4230959000,-122.0837477000,-29.95544357589438,16.120304,0.1,273.23145,1593045383447,,,,
Fix,GT,37.4231058000,-122.0839327000,-29.88984165783677,16.712599,0.1,274.33264,1593045384447,,,,
Fix,GT,37.4231184000,-122.0841250000,-29.860240030499426,17.47321,0.1,275.24347,1593045385447,,,,
Fix,GT,37.4231350000,-122.0843247000,-29.803361805677014,18.04559,0.1,276.53232,1593045386447,,,,
Fix,GT,37.4231551000,-122.0845290000,-29.7409228299216,18.342464,0.1,277.52618,1593045387447,,,,
Fix,GT,37.4231779000,-122.0847353000,-29.675442884659333,18.545486,0.1,278.15555,1593045388447,,,,
Fix,GT,37.4232026000,-122.0849434000,-29.474368920592724,18.661219,0.1,278.90897,1593045389447,,,,
Fix,GT,37.4232301000,-122.0851510000,-29.081897773056937,18.57434,0.1,279.93872,1593045390447,,,,
Fix,GT,37.4232595000,-122.0853561000,-28.444703585842547,18.249502,0.1,280.41202,1593045391447,,,,
Fix,GT,37.4232893000,-122.0855562000,-27.752621951800393,17.834866,0.1,281.09814,1593045392447,,,,
Fix,GT,37.4233233000,-122.0857525000,-27.08410090804307,17.739643,0.1,283.25836,1593045393447,,,,
Fix,GT,37.4233613000,-122.0859463000,-26.54673437293161,17.574863,0.1,284.22754,1593045394447,,,,
Fix,GT,37.4234004000,-122.0861378000,-26.2157283381689,17.428482,0.1,284.50424,1593045395447,,,,
Fix,GT,37.4234398000,-122.0863280000,-25.998483451781794,17.423603,0.1,284.73557,1593045396447,,,,
Fix,GT,37.4234800000,-122.0865195000,-25.958963079028365,17.643486,0.1,284.76022,1593045397447,,,,
Fix,GT,37.4235206000,-122.0867137000,-26.057515755820987,17.887981,0.1,284.69925,1593045398447,,,,
Fix,GT,37.4235614000,-122.0869106000,-26.233027835103485,18.154537,0.1,284.58493,1593045399447,,,,
Fix,GT,37.4236027000,-122.0871111000,-26.662345324193893,18.505592,0.1,284.4876,1593045400447,,,,
Fix,GT,37.4236447000,-122.0873157000,-27.206378207427974,18.90506,0.1,284.45776,1593045401447,,,,
Fix,GT,37.4236876000,-122.0875250000,-27.9058172560637,19.349342,0.1,284.44595,1593045402447,,,,
Fix,GT,37.4237313000,-122.0877388000,-28.622775951581502,19.685917,0.1,284.4963,1593045403447,,,,
Fix,GT,37.4237759000,-122.0879544000,-29.260062256990068,19.71197,0.1,284.62164,1593045404447,,,,
Fix,GT,37.4238199000,-122.0881693000,-29.623231283522728,19.539463,0.1,284.09283,1593045405447,,,,
Fix,GT,37.4238614000,-122.0883823000,-29.859241488692987,19.22766,0.1,283.56555,1593045406447,,,,
Fix,GT,37.4239006000,-122.0885902000,-29.91680145263672,18.506878,0.1,283.1722,1593045407447,,,,
Fix,GT,37.4239375000,-122.0887888000,-29.96163987330044,17.59446,0.1,282.8292,1593045408447,,,,
Fix,GT,37.4239681000,-122.0889769000,-30.01684243104455,16.325705,0.1,280.20847,1593045409447,,,,
Fix,GT,37.4239870000,-122.0891517000,-30.08015904750846,14.916271,0.1,275.61786,1593045410447,,,,
Fix,GT,37.4239926000,-122.0893115000,-30.122679797532555,13.353529,0.1,270.55045,1593045411447,,,,
Fix,GT,37.4239901000,-122.0894532000,-30.146322475888724,11.720146,0.1,267.23715,1593045412447,,,,
Fix,GT,37.4239805000,-122.0895793000,-30.113483265452544,10.955109,0.1,262.7863,1593045413447,,,,
Fix,GT,37.4239614000,-122.0896975000,-30.006604839726435,10.3559065,0.1,256.39813,1593045414447,,,,
Fix,GT,37.4239364000,-122.0898054000,-29.882922978928946,9.442936,0.1,253.65826,1593045415447,,,,
Fix,GT,37.4239177000,-122.0899013000,-29.76840262586552,8.072715,0.1,259.74335,1593045416447,,,,
Fix,GT,37.4239194000,-122.0899871000,-29.673207364430823,7.2756896,0.1,277.06833,1593045417447,,,,
Fix,GT,37.4239450000,-122.0900594000,-29.436125629703838,6.8487473,0.1,300.18484,1593045418447,,,,
Fix,GT,37.4239917000,-122.0901132000,-29.344841564386115,7.4642706,0.1,322.33572,1593045419447,,,,
Fix,GT,37.4240534000,-122.0901610000,-29.300402213878215,8.612904,0.1,328.50592,1593045420447,,,,
Fix,GT,37.4241237000,-122.0902168000,-29.28248292339913,9.928724,0.1,327.24307,1593045421447,,,,
Fix,GT,37.4242026000,-122.0902858000,-29.228922658601505,11.401724,0.1,323.9348,1593045422447,,,,
Fix,GT,37.4242866000,-122.0903702000,-29.173361704971057,12.422842,0.1,319.93625,1593045423447,,,,
Fix,GT,37.4243716000,-122.0904681000,-29.125881402323785,13.216243,0.1,315.55563,1593045424447,,,,
Fix,GT,37.4244534000,-122.0905815000,-29.133759023136804,13.818232,0.1,310.0895,1593045425447,,,,
Fix,GT,37.4245297000,-122.0907076000,-29.169441440743014,14.167918,0.1,305.10672,1593045426447,,,,
Fix,GT,37.4245977000,-122.0908426000,-29.20219940995503,14.162704,0.1,300.15234,1593045427447,,,,
Fix,GT,37.4246561000,-122.0909863000,-29.24615854868307,14.3933525,0.1,294.62485,1593045428447,,,,
Fix,GT,37.4247040000,-122.0911384000,-29.290157264799063,14.478198,0.1,289.46414,1593045429447,,,,
Fix,GT,37.4247421000,-122.0912934000,-29.32532151680857,14.233921,0.1,285.65616,1593045430447,,,,
Fix,GT,37.4247746000,-122.0914474000,-29.271402885264934,13.938256,0.1,284.31613,1593045431447,,,,
Fix,GT,37.4248049000,-122.0915984000,-29.264841640441773,13.699253,0.1,284.18045,1593045432447,,,,
Fix,GT,37.4248361000,-122.0917500000,-29.189441897076165,14.093863,0.1,284.6648,1593045433447,,,,
Fix,GT,37.4248705000,-122.0919069000,-29.147402335352353,14.703857,0.1,286.10895,1593045434447,,,,
Fix,GT,37.4249108000,-122.0920683000,-29.163996151570245,15.21745,0.1,288.27115,1593045435447,,,,
Fix,GT,37.4249564000,-122.0922316000,-29.234078068687495,15.27639,0.1,290.09702,1593045436447,,,,
Fix,GT,37.4250061000,-122.0923917000,-29.259963486464926,15.158711,0.1,292.29987,1593045437447,,,,
Fix,GT,37.4250605000,-122.0925482000,-29.32071947435361,15.035252,0.1,294.50385,1593045438447,,,,
Fix,GT,37.4251186000,-122.0927007000,-29.354801177978516,14.898906,0.1,296.41663,1593045439447,,,,
Fix,GT,37.4251798000,-122.0928497000,-29.318484081642396,14.815859,0.1,297.98135,1593045440447,,,,
Fix,GT,37.4252452000,-122.0929960000,-29.241320889994313,14.8957815,0.1,300.2806,1593045441447,,,,
Fix,GT,37.4253158000,-122.0931408000,-29.180881705115553,15.145273,0.1,302.5637,1593045442447,,,,
Fix,GT,37.4253921000,-122.0932818000,-29.227678451249176,14.981951,0.1,305.27737,1593045443447,,,,
Fix,GT,37.4254708000,-122.0934178000,-29.28227238733234,14.729865,0.1,306.3957,1593045444447,,,,
Fix,GT,37.4255498000,-122.0935495000,-29.319198204587565,14.424963,0.1,307.76627,1593045445447,,,,
Fix,GT,37.4256313000,-122.0936752000,-29.376279629400415,14.259465,0.1,310.12448,1593045446447,,,,
Fix,GT,37.4257141000,-122.0937957000,-29.370963543684752,13.74552,0.1,311.0979,1593045447447,,,,
Fix,GT,37.4257941000,-122.0939088000,-29.31692211556117,13.091245,0.1,312.20932,1593045448447,,,,
Fix,GT,37.4258740000,-122.0940151000,-29.28296233337801,12.866079,0.1,314.08292,1593045449447,,,,
Fix,GT,37.4259575000,-122.0941187000,-29.222360617639026,13.315198,0.1,316.24695,1593045450447,,,,
Fix,GT,37.4260483000,-122.0942222000,-29.187279466699124,13.881047,0.1,319.02206,1593045451447,,,,
Fix,GT,37.4261467000,-122.0943238000,-29.21811794291318,14.441886,0.1,321.44995,1593045452447,,,,
Fix,GT,37.4262514000,-122.0944250000,-29.28207741982078,14.834802,0.1,322.92294,1593045453447,,,,
Fix,GT,37.4263594000,-122.0945260000,-29.33319901830407,15.009584,0.1,323.64587,1593045454447,,,,
Fix,GT,37.4264689000,-122.0946257000,-29.392159334683583,15.096825,0.1,324.4158,1593045455447,,,,
Fix,GT,37.4265824000,-122.0947212000,-29.363319755157818,15.121195,0.1,327.95602,1593045456447,,,,
Fix,GT,37.4266985000,-122.0948050000,-29.315401640386767,14.533834,0.1,331.3912,1593045457447,,,,
Fix,GT,37.4268107000,-122.0948783000,-29.25500307100674,13.634642,0.1,333.21194,1593045458447,,,,
Fix,GT,37.4269186000,-122.0949462000,-29.21784174654931,13.119059,0.1,333.2786,1593045459447,,,,
Fix,GT,37.4270198000,-122.0950131000,-29.2062407296047,12.187277,0.1,331.03177,1593045460447,,,,
Fix,GT,37.4271126000,-122.0950829000,-29.223240012690894,11.922506,0.1,327.81036,1593045461447,,,,
Fix,GT,37.4272029000,-122.0951588000,-29.27815901174563,12.348303,0.1,325.09372,1593045462447,,,,
Fix,GT,37.4272947000,-122.0952457000,-29.30532105838836,13.177864,0.1,321.60175,1593045463447,,,,
Fix,GT,37.4273862000,-122.0953446000,-29.336117969675342,13.592984,0.1,317.5318,1593045464447,,,,
Fix,GT,37.4274735000,-122.0954548000,-29.356799204444883,13.906488,0.1,312.85538,1593045465447,,,,
Fix,GT,37.4275541000,-122.0955743000,-29.343402394885743,13.745695,0.1,308.439,1593045466447,,,,
Fix,GT,37.4276263000,-122.0956985000,-29.28500372159624,13.4399605,0.1,304.5465,1593045467447,,,,
Fix,GT,37.4276911000,-122.0958249000,-29.245239413152433,13.273493,0.1,301.0749,1593045468447,,,,
Fix,GT,37.4277482000,-122.0959579000,-29.204401588619135,13.436949,0.1,296.27628,1593045469447,,,,
Fix,GT,37.4277973000,-122.0960964000,-29.191801071166992,13.378468,0.1,292.28107,1593045470447,,,,
Fix,GT,37.4278387000,-122.0962395000,-29.244199222676343,13.6897545,0.1,288.15588,1593045471447,,,,
Fix,GT,37.4278720000,-122.0963895000,-29.325157978558764,13.798496,0.1,283.76712,1593045472447,,,,
Fix,GT,37.4278968000,-122.0965411000,-29.357639763747102,13.594606,0.1,279.8386,1593045473447,,,,
Fix,GT,37.4279125000,-122.0966937000,-29.414362722550948,13.656263,0.1,275.4989,1593045474447,,,,
Fix,GT,37.4279191000,-122.0968467000,-29.47167890914602,13.458017,0.1,271.32736,1593045475447,,,,
Fix,GT,37.4279170000,-122.0969971000,-29.520280516744265,13.17774,0.1,267.38562,1593045476447,,,,
Fix,GT,37.4279062000,-122.0971439000,-29.591037660266693,12.9700365,0.1,262.7359,1593045477447,,,,
Fix,GT,37.4278872000,-122.0972811000,-29.6314025168939,11.457695,0.1,258.8939,1593045478447,,,,
Fix,GT,37.4278671000,-122.0973990000,-29.643493122587415,10.113819,0.1,257.42712,1593045479447,,,,
Fix,GT,37.4278483000,-122.0975034000,-29.594702100590496,8.741049,0.1,257.52533,1593045480447,,,,
Fix,GT,37.4278329000,-122.0975950000,-29.677077796140566,8.053273,0.1,258.10583,1593045481447,,,,
Fix,GT,37.4278176000,-122.0976832000,-29.739434648851216,7.939047,0.1,257.4504,1593045482447,,,,
Fix,GT,37.4278018000,-122.0977706000,-29.747842337537065,7.9582524,0.1,256.9437,1593045483447,,,,
Fix,GT,37.4277854000,-122.0978595000,-29.770199264952794,8.260895,0.1,256.97607,1593045484447,,,,
Fix,GT,37.4277682000,-122.0979532000,-29.79180145263672,8.756144,0.1,257.23132,1593045485447,,,,
Fix,GT,37.4277512000,-122.0980526000,-29.732198269293406,9.250095,0.1,259.00372,1593045486447,,,,
Fix,GT,37.4277366000,-122.0981587000,-29.774638671738785,9.829332,0.1,260.1766,1593045487447,,,,
Fix,GT,37.4277198000,-122.0982729000,-29.819881669350934,10.767287,0.1,259.27438,1593045488447,,,,
Fix,GT,37.4277009000,-122.0983964000,-29.788881532737037,11.456347,0.1,259.06653,1593045489447,,,,
Fix,GT,37.4276803000,-122.0985260000,-29.76876010779324,11.862508,0.1,258.47784,1593045490447,,,,
Fix,GT,37.4276583000,-122.0986579000,-29.79571891372575,11.903231,0.1,258.0904,1593045491447,,,,
Fix,GT,37.4276367000,-122.0987858000,-29.835241306182354,11.120885,0.1,258.0058,1593045492447,,,,
Fix,GT,37.4276161000,-122.0989030000,-29.869240788660477,10.0768385,0.1,257.38654,1593045493447,,,,
Fix,GT,37.4275977000,-122.0990054000,-29.896200508782783,8.497035,0.1,257.29297,1593045494447,,,,
Fix,GT,37.4275815000,-122.0990929000,-29.91319979215217,7.3477945,0.1,256.90677,1593045495447,,,,
Fix,GT,37.4275683000,-122.0991624000,-29.925842837940877,5.10548,0.1,256.87753,1593045496447,,,,
Fix,GT,37.4275603000,-122.0992061000,-29.9387592890713,3.250441,0.1,257.37592,1593045497447,,,,
Fix,GT,37.4275545000,-122.0992382000,-29.957200416690057,2.7442374,0.1,257.67773,1593045498447,,,,
Fix,GT,37.4275491000,-122.0992698000,-29.996719121627166,3.018786,0.1,258.58353,1593045499447,,,,
Fix,GT,37.4275462000,-122.0993071000,-30.044199415517028,3.6800632,0.1,265.39328,1593045500447,,,,
Fix,GT,37.4275533000,-122.0993534000,-30.1415578714915,4.7160006,0.1,282.28467,1593045501447,,,,
Fix,GT,37.4275788000,-122.0994036000,-30.251240765238208,5.7995663,0.1,306.12912,1593045502447,,,,
Fix,GT,37.4276257000,-122.0994448000,-30.31907705743788,7.014983,0.1,329.3134,1593045503447,,,,
Fix,GT,37.4276929000,-122.0994750000,-30.286800384521484,8.748425,0.1,341.8739,1593045504447,,,,
Fix,GT,37.4277732000,-122.0995084000,-30.299800872802734,10.176564,0.1,341.5761,1593045505447,,,,
Fix,GT,37.4278661000,-122.0995504000,-30.282281534716105,11.691343,0.1,340.01642,1593045506447,,,,
Fix,GT,37.4279710000,-122.0995990000,-30.27584043669168,13.133094,0.1,339.78305,1593045507447,,,,
Fix,GT,37.4280871000,-122.0996523000,-30.314677378664157,14.296286,0.1,340.0816,1593045508447,,,,
Fix,GT,37.4282133000,-122.0997091000,-30.345677514354065,15.368422,0.1,340.405,1593045509447,,,,
Fix,GT,37.4283476000,-122.0997693000,-30.389158095241044,16.217937,0.1,340.31168,1593045510447,,,,
Fix,GT,37.4284870000,-122.0998312000,-30.417760268253005,16.425983,0.1,340.81564,1593045511447,,,,
Fix,GT,37.4286265000,-122.0998911000,-30.44523820329482,16.363905,0.1,341.3621,1593045512447,,,,
Fix,GT,37.4287680000,-122.0999501000,-30.472403065482865,16.75069,0.1,341.84537,1593045513447,,,,
Fix,GT,37.4289128000,-122.1000096000,-30.490801766240622,17.038124,0.1,341.91974,1593045514447,,,,
Fix,GT,37.4290597000,-122.1000703000,-30.49127935608948,17.264658,0.1,341.73218,1593045515447,,,,
Fix,GT,37.4292065000,-122.1001317000,-30.52371862864385,17.067127,0.1,341.43622,1593045516447,,,,
Fix,GT,37.4293498000,-122.1001933000,-30.540678189378696,16.420166,0.1,340.82684,1593045517447,,,,
Fix,GT,37.4294849000,-122.1002522000,-30.587718716706945,15.315492,0.1,340.93076,1593045518447,,,,
Fix,GT,37.4296115000,-122.1003042000,-30.608800888061523,14.243984,0.1,342.60336,1593045519447,,,,
Fix,GT,37.4297318000,-122.1003474000,-30.684117437814052,13.646273,0.1,345.23248,1593045520447,,,,
Fix,GT,37.4298506000,-122.1003756000,-30.78919924710317,13.243729,0.1,352.54373,1593045521447,,,,
Fix,GT,37.4299664000,-122.1003793000,-30.768401765311637,12.446844,0.1,2.3510053,1593045522447,,,,
Fix,GT,37.4300745000,-122.1003596000,-30.656003212491726,11.90627,0.1,11.937708,1593045523447,,,,
Fix,GT,37.4301771000,-122.1003215000,-30.60092254841652,12.008884,0.1,18.208378,1593045524447,,,,
Fix,GT,37.4302817000,-122.1002745000,-30.5385232324781,12.626839,0.1,20.510435,1593045525447,,,,
Fix,GT,37.4303876000,-122.1002235000,-30.492003663460537,12.376186,0.1,21.604202,1593045526447,,,,
Fix,GT,37.4304873000,-122.1001738000,-30.43844340047781,11.368678,0.1,21.07076,1593045527447,,,,
Fix,GT,37.4305800000,-122.1001434000,-30.390760751852554,10.097049,0.1,9.578133,1593045528447,,,,
Fix,GT,37.4306670000,-122.1001457000,-30.365239180715093,9.246318,0.1,353.21793,1593045529447,,,,
Fix,GT,37.4307424000,-122.1001784000,-30.328279252467723,8.312092,0.1,334.6961,1593045530447,,,,
Fix,GT,37.4307964000,-122.1002313000,-30.40363742172002,7.0511513,0.1,318.24487,1593045531447,,,,
Fix,GT,37.4308412000,-122.1002869000,-30.43515760248954,6.9711676,0.1,315.28278,1593045532447,,,,
Fix,GT,37.4308878000,-122.1003408000,-30.578956156506422,7.198696,0.1,319.4147,1593045533447,,,,
Fix,GT,37.4309460000,-122.1003794000,-30.755116646722286,7.418415,0.1,337.21313,1593045534447,,,,
Fix,GT,37.4310124000,-122.1003939000,-30.811361312602855,7.570567,0.1,353.30472,1593045535447,,,,
Fix,GT,37.4310840000,-122.1003944000,-30.750924002341378,8.457314,0.1,1.4364411,1593045536447,,,,
Fix,GT,37.4311648000,-122.1003884000,-30.737361834160765,9.535782,0.1,3.8404577,1593045537447,,,,
Fix,GT,37.4312559000,-122.1003809000,-30.723645621278934,10.702532,0.1,3.9049687,1593045538447,,,,
Fix,GT,37.4313557000,-122.1003730000,-30.671444124429854,11.486972,0.1,3.4941962,1593045539447,,,,
Fix,GT,37.4314616000,-122.1003635000,-30.592923056980908,11.888359,0.1,4.8979316,1593045540447,,,,
Fix,GT,37.4315678000,-122.1003495000,-30.539004473982743,11.747848,0.1,6.4002657,1593045541447,,,,
Fix,GT,37.4316720000,-122.1003350000,-30.4555665194369,11.675287,0.1,6.4743557,1593045542447,,,,
Fix,GT,37.4317785000,-122.1003205000,-30.316125995579114,12.050596,0.1,6.2137995,1593045543447,,,,
Fix,GT,37.4318856000,-122.1003053000,-30.132646926377163,11.790649,0.1,7.058481,1593045544447,,,,
Fix,GT,37.4319873000,-122.1002890000,-29.96460611894304,10.899488,0.1,7.6740637,1593045545447,,,,
Fix,GT,37.4320787000,-122.1002711000,-29.81144349178612,9.53607,0.1,11.038387,1593045546447,,,,
Fix,GT,37.4321532000,-122.1002367000,-29.739403258688526,8.321909,0.1,26.307053,1593045547447,,,,
Fix,GT,37.4322066000,-122.1001757000,-29.650167158882823,7.832379,0.1,49.786827,1593045548447,,,,
Fix,GT,37.4322343000,-122.1000944000,-29.566239389867405,8.149664,0.1,73.748405,1593045549447,,,,
Fix,GT,37.4322374000,-122.0999969000,-29.56280224212412,9.263977,0.1,92.0457,1593045550447,,,,
Fix,GT,37.4322263000,-122.0998852000,-29.59319829215889,10.640451,0.1,98.36641,1593045551447,,,,
Fix,GT,37.4322110000,-122.0997585000,-29.66432035581562,12.003268,0.1,98.78931,1593045552447,,,,
Fix,GT,37.4321949000,-122.0996184000,-29.689197968229166,12.968212,0.1,97.96582,1593045553447,,,,
Fix,GT,37.4321803000,-122.0994678000,-29.754035852374784,13.832146,0.1,96.46588,1593045554447,,,,
Fix,GT,37.4321674000,-122.0993097000,-29.760679309310035,14.194494,0.1,95.69508,1593045555447,,,,
Fix,GT,37.4321555000,-122.0991509000,-29.814241376007374,14.024504,0.1,95.41991,1593045556447,,,,
Fix,GT,37.4321434000,-122.0989940000,-29.88367849952124,13.936922,0.1,95.724945,1593045557447,,,,
Fix,GT,37.4321304000,-122.0988365000,-29.82428044446624,14.100992,0.1,95.98087,1593045558447,,,,
Fix,GT,37.4321169000,-122.0986769000,-29.868566619602916,14.331724,0.1,96.21478,1593045559447,,,,
Fix,GT,37.4321020000,-122.0985167000,-29.83932146979953,14.1621475,0.1,96.96962,1593045560447,,,,
Fix,GT,37.4320857000,-122.0983592000,-29.8052812403223,13.98234,0.1,97.63016,1593045561447,,,,
Fix,GT,37.4320682000,-122.0982046000,-29.84163803755041,13.563507,0.1,98.15868,1593045562447,,,,
Fix,GT,37.4320519000,-122.0980584000,-29.914678635062046,12.465585,0.1,97.27523,1593045563447,,,,
Fix,GT,37.4320408000,-122.0979284000,-29.955720537372827,10.6505575,0.1,94.61482,1593045564447,,,,
Fix,GT,37.4320417000,-122.0978182000,-29.959800720214844,9.063134,0.1,85.49308,1593045565447,,,,
Fix,GT,37.4320615000,-122.0977247000,-29.93056501495289,8.144426,0.1,69.66158,1593045566447,,,,
Fix,GT,37.4321000000,-122.0976528000,-29.926239997536527,7.3345294,0.1,50.182602,1593045567447,,,,
Fix,GT,37.4321526000,-122.0976074000,-29.963402392826765,6.6460333,0.1,27.911509,1593045568447,,,,
Fix,GT,37.4322050000,-122.0975999000,-29.982802330935044,5.1666336,0.1,359.53827,1593045569447,,,,
Fix,GT,37.4322426000,-122.0976239000,-29.956362693577375,4.2153287,0.1,328.889,1593045570447,,,,
Fix,GT,37.4322599000,-122.0976627000,-30.007076719183374,3.706514,0.1,299.19342,1593045571447,,,,
Fix,GT,37.4322662000,-122.0977045000,-30.14471117808648,3.6036348,0.1,281.895,1593045572447,,,,
Fix,GT,37.4322703000,-122.0977455000,-30.024044830280445,3.7757382,0.1,277.6852,1593045573447,,,,
Fix,GT,37.4322752000,-122.0977945000,-29.92488223837381,5.2775536,0.1,276.8373,1593045574447,,,,
Fix,GT,37.4322827000,-122.0978673000,-29.893443342124783,7.6654744,0.1,277.3087,1593045575447,,,,
Fix,GT,37.4322936000,-122.0979631000,-29.78896473542443,9.251829,0.1,278.17072,1593045576447,,,,
Fix,GT,37.4323068000,-122.0980718000,-29.69232111862948,10.083812,0.1,278.4045,1593045577447,,,,
Fix,GT,37.4323188000,-122.0981843000,-29.60152478257345,9.819194,0.1,276.6737,1593045578447,,,,
Fix,GT,37.4323200000,-122.0982881000,-29.53780174255371,8.5320835,0.1,266.37122,1593045579447,,,,
Fix,GT,37.4323003000,-122.0983723000,-29.571199698598605,7.0018826,0.1,247.72949,1593045580447,,,,
Fix,GT,37.4322678000,-122.0984289000,-29.688118107628725,5.4294233,0.1,230.45996,1593045581447,,,,
Fix,GT,37.4322325000,-122.0984596000,-29.710077735621553,3.939364,0.1,213.00873,1593045582447,,,,
Fix,GT,37.4322064000,-122.0984731000,-29.803678569734984,2.8996415,0.1,205.07455,1593045583447,,,,
Fix,GT,37.4321847000,-122.0984929000,-30.058752351119892,3.3100944,0.1,215.86075,1593045584447,,,,
Fix,GT,37.4321667000,-122.0985329000,-29.926362009793138,4.9023266,0.1,241.06223,1593045585447,,,,
Fix,GT,37.4321601000,-122.0986024000,-29.887319923591633,7.586424,0.1,266.2745,1593045586447,,,,
Fix,GT,37.4321665000,-122.0987039000,-29.89780044555664,10.38657,0.1,276.59656,1593045587447,,,,
Fix,GT,37.4321823000,-122.0988335000,-29.844239261895723,12.8230915,0.1,278.66083,1593045588447,,,,
Fix,GT,37.4321978000,-122.0989885000,-29.883077070332547,14.70625,0.1,276.42,1593045589447,,,,
Fix,GT,37.4322103000,-122.0991632000,-29.83548442593144,16.094213,0.1,274.55753,1593045590447,,,,
Fix,GT,37.4322207000,-122.0993466000,-29.756322175216894,16.262074,0.1,274.33408,1593045591447,,,,
Fix,GT,37.4322332000,-122.0995256000,-29.71036329405888,15.300861,0.1,275.51642,1593045592447,,,,
Fix,GT,37.4322469000,-122.0996885000,-29.647921581661365,13.6479,0.1,276.43616,1593045593447,,,,
Fix,GT,37.4322603000,-122.0998303000,-29.59896244506723,11.600292,0.1,276.622,1593045594447,,,,
Fix,GT,37.4322699000,-122.0999510000,-29.532320392888266,9.800457,0.1,275.2864,1593045595447,,,,
Fix,GT,37.4322770000,-122.1000472000,-29.5123199358398,7.1821957,0.1,275.48114,1593045596447,,,,
Fix,GT,37.4322821000,-122.1001115000,-29.484799460029592,4.2049484,0.1,275.30392,1593045597447,,,,
Fix,GT,37.4322836000,-122.1001522000,-29.485361150300434,3.440428,0.1,271.53638,1593045598447,,,,
Fix,GT,37.4322753000,-122.1001958000,-29.4757182998664,4.935335,0.1,255.71483,1593045599447,,,,
Fix,GT,37.4322448000,-122.1002538000,-29.455645159976257,7.188031,0.1,231.8508,1593045600447,,,,
Fix,GT,37.4321834000,-122.1003040000,-29.450035845304228,9.166198,0.1,206.7299,1593045601447,,,,
Fix,GT,37.4320967000,-122.1003340000,-29.60643500123831,10.890182,0.1,191.34506,1593045602447,,,,
Fix,GT,37.4319901000,-122.1003526000,-29.81579200954127,12.986807,0.1,187.09583,1593045603447,,,,
Fix,GT,37.4318652000,-122.1003733000,-30.047434982760933,14.967152,0.1,188.04037,1593045604447,,,,
Fix,GT,37.4317259000,-122.1004018000,-30.282670038088895,16.132536,0.1,190.32411,1593045605447,,,,
Fix,GT,37.4315815000,-122.1004397000,-30.443516185884164,16.393972,0.1,192.69202,1593045606447,,,,
Fix,GT,37.4314409000,-122.1004813000,-30.58428067001205,15.643555,0.1,193.48267,1593045607447,,,,
Fix,GT,37.4313052000,-122.1005189000,-30.629483159801566,15.218151,0.1,191.43854,1593045608447,,,,
Fix,GT,37.4311741000,-122.1005470000,-30.650687388098277,14.028265,0.1,188.5609,1593045609447,,,,
Fix,GT,37.4310569000,-122.1005671000,-30.657483953103338,12.249073,0.1,187.4369,1593045610447,,,,
Fix,GT,37.4309502000,-122.1005842000,-30.636239072352396,11.785519,0.1,187.12177,1593045611447,,,,
Fix,GT,37.4308423000,-122.1005991000,-30.624963402088724,12.462198,0.1,186.2103,1593045612447,,,,
Fix,GT,37.4307232000,-122.1006147000,-30.595085659812412,14.203487,0.1,185.8984,1593045613447,,,,
Fix,GT,37.4305885000,-122.1006339000,-30.421206998275807,15.765773,0.1,187.13841,1593045614447,,,,
Fix,GT,37.4304447000,-122.1006628000,-30.150930469742775,16.56754,0.1,191.03235,1593045615447,,,,
Fix,GT,37.4302969000,-122.1007080000,-29.957606220098228,17.223812,0.1,195.87546,1593045616447,,,,
Fix,GT,37.4301476000,-122.1007724000,-29.893442478459292,17.839794,0.1,201.56343,1593045617447,,,,
Fix,GT,37.4299984000,-122.1008554000,-29.7193709382027,18.340206,0.1,205.14703,1593045618447,,,,
Fix,GT,37.4298492000,-122.1009473000,-29.536761527357328,18.4234,0.1,207.61375,1593045619447,,,,
Fix,GT,37.4297058000,-122.1010448000,-29.67227314427447,17.798302,0.1,209.16776,1593045620447,,,,
Fix,GT,37.4295696000,-122.1011447000,-29.882710114013094,17.182293,0.1,211.88068,1593045621447,,,,
Fix,GT,37.4294473000,-122.1012564000,-30.078403101184676,16.480627,0.1,220.22264,1593045622447,,,,
Fix,GT,37.4293480000,-122.1013903000,-30.226872655411853,16.018772,0.1,233.31834,1593045623447,,,,
Fix,GT,37.4292820000,-122.1015480000,-30.32059925584815,15.6175785,0.1,249.3901,1593045624447,,,,
Fix,GT,37.4292554000,-122.1017187000,-30.421117869572754,15.324583,0.1,266.5592,1593045625447,,,,
Fix,GT,37.4292720000,-122.1018913000,-30.42907664274793,15.69183,0.1,284.81967,1593045626447,,,,
Fix,GT,37.4293329000,-122.1020533000,-30.45988211299027,16.193232,0.1,303.28238,1593045627447,,,,
Fix,GT,37.4294310000,-122.1021943000,-30.32644303847468,17.019127,0.1,315.84167,1593045628447,,,,
Fix,GT,37.4295491000,-122.1023278000,-30.263157587420153,18.30162,0.1,318.72406,1593045629447,,,,
Fix,GT,37.4296794000,-122.1024735000,-30.250401180966776,20.473099,0.1,317.89822,1593045630447,,,,
Fix,GT,37.4298223000,-122.1026383000,-30.217125182383825,22.617125,0.1,317.2607,1593045631447,,,,
Fix,GT,37.4299780000,-122.1028204000,-30.14467913614567,24.464151,0.1,316.93765,1593045632447,,,,
Fix,GT,37.4301442000,-122.1030141000,-30.149483639511004,25.849669,0.1,317.37466,1593045633447,,,,
Fix,GT,37.4303203000,-122.1032148000,-30.06296405900389,26.936043,0.1,318.1753,1593045634447,,,,
Fix,GT,37.4305050000,-122.1034203000,-30.044232228854526,27.874866,0.1,318.62125,1593045635447,,,,
Fix,GT,37.4306954000,-122.1036298000,-29.931801734322335,28.23093,0.1,319.06662,1593045636447,,,,
Fix,GT,37.4308876000,-122.1038365000,-29.840565929211152,27.925838,0.1,319.74207,1593045637447,,,,
Fix,GT,37.4310784000,-122.1040387000,-29.575412506711757,27.516556,0.1,319.77945,1593045638447,,,,
Fix,GT,37.4312649000,-122.1042381000,-29.24149238594623,26.680525,0.1,319.4546,1593045639447,,,,
Fix,GT,37.4314435000,-122.1044299000,-28.91693213971024,25.666365,0.1,319.44742,1593045640447,,,,
Fix,GT,37.4316165000,-122.1046194000,-28.599533692532248,25.386147,0.1,318.16953,1593045641447,,,,
Fix,GT,37.4317868000,-122.1048132000,-28.366606497235978,25.734879,0.1,317.65393,1593045642447,,,,
Fix,GT,37.4319609000,-122.1050114000,-28.148208068913334,26.39405,0.1,318.2991,1593045643447,,,,
Fix,GT,37.4321429000,-122.1052104000,-28.11371965354249,27.265537,0.1,319.45908,1593045644447,,,,
Fix,GT,37.4323333000,-122.1054128000,-28.069525206599224,28.0919,0.1,319.9332,1593045645447,,,,
Fix,GT,37.4325316000,-122.1056216000,-28.158995697941236,29.408348,0.1,320.08032,1593045646447,,,,
Fix,GT,37.4327373000,-122.1058376000,-28.372711594521604,29.981628,0.1,320.12274,1593045647447,,,,
Fix,GT,37.4329453000,-122.1060554000,-28.706629991651653,30.173002,0.1,320.25372,1593045648447,,,,
Fix,GT,37.4331546000,-122.1062735000,-29.056988601525404,30.205994,0.1,320.3294,1593045649447,,,,
Fix,GT,37.4333641000,-122.1064912000,-29.38123301813323,30.174982,0.1,320.20102,1593045650447,,,,
Fix,GT,37.4335722000,-122.1067103000,-29.66311745694088,30.13366,0.1,319.8861,1593045651447,,,,
Fix,GT,37.4337791000,-122.1069291000,-29.74020030778331,29.908562,0.1,319.95502,1593045652447,,,,
Fix,GT,37.4339841000,-122.1071452000,-29.73775905903949,29.53434,0.1,319.9135,1593045653447,,,,
Fix,GT,37.4341863000,-122.1073592000,-29.740800857543945,29.188765,0.1,319.90668,1593045654447,,,,
Fix,GT,37.4343863000,-122.1075703000,-29.758199073407468,28.855833,0.1,320.03357,1593045655447,,,,
Fix,GT,37.4345845000,-122.1077785000,-29.735362034172226,28.520283,0.1,320.12845,1593045656447,,,,
Fix,GT,37.4347804000,-122.1079843000,-29.757443687593195,28.210804,0.1,320.05118,1593045657447,,,,
Fix,GT,37.4349743000,-122.1081876000,-29.75840248551549,27.825853,0.1,320.27533,1593045658447,,,,
Fix,GT,37.4351656000,-122.1083873000,-29.731484348863887,27.455116,0.1,320.19366,1593045659447,,,,
Fix,GT,37.4353544000,-122.1085853000,-29.736239455789246,27.174973,0.1,320.15674,1593045660447,,,,
Fix,GT,37.4355414000,-122.1087812000,-29.76876008706222,26.893618,0.1,320.18875,1593045661447,,,,
Fix,GT,37.4357263000,-122.1089748000,-29.759200413657425,26.587345,0.1,320.1943,1593045662447,,,,
Fix,GT,37.4359093000,-122.1091662000,-29.758402477467143,26.304981,0.1,320.27332,1593045663447,,,,
Fix,GT,37.4360912000,-122.1093563000,-29.729800291961396,26.31552,0.1,320.18658,1593045664447,,,,
Fix,GT,37.4362748000,-122.1095488000,-29.702882150810524,26.73083,0.1,320.09818,1593045665447,,,,
Fix,GT,37.4364590000,-122.1097420000,-29.689841900938404,26.52061,0.1,320.12146,1593045666447,,,,
Fix,GT,37.4366416000,-122.1099338000,-29.68484174711739,26.41501,0.1,320.12646,1593045667447,,,,
Fix,GT,37.4368246000,-122.1101253000,-29.668719979459183,26.470604,0.1,320.27347,1593045668447,,,,
Fix,GT,37.4370079000,-122.1103158000,-29.642239600629182,26.395779,0.1,320.313,1593045669447,,,,
Fix,GT,37.4371909000,-122.1105085000,-29.60780143737793,26.720371,0.1,319.75754,1593045670447,,,,
Fix,GT,37.4373764000,-122.1107065000,-29.60836121258069,27.36018,0.1,319.57166,1593045671447,,,,
Fix,GT,37.4375653000,-122.1109079000,-29.557280246459413,27.58009,0.1,319.92584,1593045672447,,,,
Fix,GT,37.4377557000,-122.1111080000,-29.51584211038744,27.572693,0.1,320.06653,1593045673447,,,,
Fix,GT,37.4379460000,-122.1113076000,-29.51536182532209,27.49276,0.1,320.2286,1593045674447,,,,
Fix,GT,37.4381364000,-122.1115068000,-29.487759957715753,27.577427,0.1,320.17194,1593045675447,,,,
Fix,GT,37.4383272000,-122.1117071000,-29.46940290029829,27.591972,0.1,320.07422,1593045676447,,,,
Fix,GT,37.4385168000,-122.1119065000,-29.45780094093675,27.336893,0.1,320.0378,1593045677447,,,,
Fix,GT,37.4387060000,-122.1121051000,-29.4768009185791,27.494076,0.1,320.1675,1593045678447,,,,
Fix,GT,37.4388969000,-122.1123049000,-29.448442747663876,27.604885,0.1,320.22052,1593045679447,,,,
Fix,GT,37.4390877000,-122.1125046000,-29.299686557328016,27.585314,0.1,320.18884,1593045680447,,,,
Fix,GT,37.4392786000,-122.1127044000,-29.120849192662263,27.606009,0.1,320.1814,1593045681447,,,,
Fix,GT,37.4394700000,-122.1129054000,-28.82480816331639,27.855518,0.1,319.97137,1593045682447,,,,
Fix,GT,37.4396636000,-122.1131094000,-28.54549275569252,28.333944,0.1,320.12424,1593045683447,,,,
Fix,GT,37.4398616000,-122.1133168000,-28.288328465768757,28.940256,0.1,320.16544,1593045684447,,,,
Fix,GT,37.4400636000,-122.1135294000,-28.208719009332412,29.594109,0.1,319.96082,1593045685447,,,,
Fix,GT,37.4402693000,-122.1137467000,-28.18252596170413,30.050804,0.1,319.92444,1593045686447,,,,
Fix,GT,37.4404766000,-122.1139652000,-28.238150526792083,29.961872,0.1,320.14648,1593045687447,,,,
Fix,GT,37.4406832000,-122.1141813000,-28.52354844851709,29.7428,0.1,320.18253,1593045688447,,,,
Fix,GT,37.4408878000,-122.1143960000,-28.85767006642618,29.464365,0.1,320.0612,1593045689447,,,,
Fix,GT,37.4410899000,-122.1146086000,-29.178752344530665,29.081802,0.1,320.0958,1593045690447,,,,
Fix,GT,37.4412893000,-122.1148184000,-29.357036542769265,28.686218,0.1,320.04813,1593045691447,,,,
Fix,GT,37.4414864000,-122.1150247000,-29.394281021638392,28.285816,0.1,320.35098,1593045692447,,,,
Fix,GT,37.4416808000,-122.1152279000,-29.371360805365953,27.868011,0.1,320.13043,1593045693447,,,,
Fix,GT,37.4418725000,-122.1154281000,-29.34980010986328,27.524796,0.1,320.48468,1593045694447,,,,
Fix,GT,37.4420625000,-122.1156254000,-29.36132086159455,27.270905,0.1,320.41342,1593045695447,,,,
Fix,GT,37.4422505000,-122.1158223000,-29.374280603581838,27.093548,0.1,319.95398,1593045696447,,,,
Fix,GT,37.4424365000,-122.1160195000,-29.358239227506147,27.007622,0.1,319.79404,1593045697447,,,,
Fix,GT,37.4426230000,-122.1162172000,-29.353801727294922,27.210777,0.1,319.98486,1593045698447,,,,
Fix,GT,37.4428109000,-122.1164154000,-29.375800210958687,27.313435,0.1,320.00772,1593045699447,,,,
Fix,GT,37.4429995000,-122.1166147000,-29.387759627928062,27.429556,0.1,319.9037,1593045700447,,,,
Fix,GT,37.4431892000,-122.1168148000,-29.38680076599121,27.580332,0.1,320.06354,1593045701447,,,,
Fix,GT,37.4433804000,-122.1170149000,-29.366719092754124,27.664593,0.1,320.44382,1593045702447,,,,
Fix,GT,37.4435725000,-122.1172136000,-29.386760138549107,27.604668,0.1,320.52524,1593045703447,,,,
Fix,GT,37.4437637000,-122.1174119000,-29.357483698151214,27.473488,0.1,320.33698,1593045704447,,,,
Fix,GT,37.4439530000,-122.1176097000,-29.379239137384047,27.177486,0.1,320.1561,1593045705447,,,,
Fix,GT,37.4441393000,-122.1178062000,-29.3898001495063,26.85223,0.1,319.88443,1593045706447,,,,
Fix,GT,37.4443231000,-122.1180008000,-29.418760641350218,26.547976,0.1,319.85428,1593045707447,,,,
Fix,GT,37.4445046000,-122.1181936000,-29.4284348173602,26.25475,0.1,319.73392,1593045708447,,,,
Fix,GT,37.4446841000,-122.1183844000,-29.446240479799826,25.975079,0.1,319.95483,1593045709447,,,,
Fix,GT,37.4448638000,-122.1185706000,-29.464322340189767,25.837399,0.1,320.88992,1593045710447,,,,
Fix,GT,37.4450448000,-122.1187563000,-29.45863955790543,26.13068,0.1,320.59427,1593045711447,,,,
Fix,GT,37.4452272000,-122.1189459000,-29.48515778842011,26.437551,0.1,320.2802,1593045712447,,,,
Fix,GT,37.4454110000,-122.1191380000,-29.51019990697972,26.62434,0.1,320.2747,1593045713447,,,,
Fix,GT,37.4455951000,-122.1193298000,-29.499239097067402,26.427473,0.1,320.33536,1593045714447,,,,
Fix,GT,37.4457770000,-122.1195192000,-29.514158146351917,26.051266,0.1,320.40198,1593045715447,,,,
Fix,GT,37.4459568000,-122.1197050000,-29.495279979128554,25.658432,0.1,320.6731,1593045716447,,,,
Fix,GT,37.4461343000,-122.1198880000,-29.484362547365095,25.428371,0.1,320.42657,1593045717447,,,,
Fix,GT,37.4463110000,-122.1200730000,-29.482923397237528,25.66794,0.1,319.99026,1593045718447,,,,
Fix,GT,37.4464875000,-122.1202594000,-29.488718830195637,25.487617,0.1,320.00262,1593045719447,,,,
Fix,GT,37.4466625000,-122.1204431000,-29.503321019177406,25.16076,0.1,320.15634,1593045720447,,,,
Fix,GT,37.4468352000,-122.1206241000,-29.525841332040727,24.778637,0.1,320.0692,1593045721447,,,,
Fix,GT,37.4470048000,-122.1208030000,-29.541840284190414,24.416607,0.1,319.91666,1593045722447,,,,
Fix,GT,37.4471719000,-122.1209796000,-29.542321491401708,24.092436,0.1,319.93152,1593045723447,,,,
Fix,GT,37.4473367000,-122.1211539000,-29.543799473530044,23.78348,0.1,319.86102,1593045724447,,,,
Fix,GT,37.4475001000,-122.1213270000,-29.550760612382987,23.765888,0.1,319.81436,1593045725447,,,,
Fix,GT,37.4476648000,-122.1215024000,-29.559158227980447,24.226791,0.1,319.71912,1593045726447,,,,
Fix,GT,37.4478338000,-122.1216818000,-29.565321292940325,24.806046,0.1,319.97787,1593045727447,,,,
Fix,GT,37.4480062000,-122.1218629000,-29.523882139035777,25.012627,0.1,320.12387,1593045728447,,,,
Fix,GT,37.4481786000,-122.1220434000,-29.460247828452566,24.813744,0.1,320.38116,1593045729447,,,,
Fix,GT,37.4483495000,-122.1222214000,-29.375523960217265,24.478586,0.1,320.20294,1593045730447,,,,
Fix,GT,37.4485174000,-122.1223977000,-29.29240281755915,24.117996,0.1,320.1011,1593045731447,,,,
Fix,GT,37.4486828000,-122.1225714000,-29.26708544633027,23.771343,0.1,320.22495,1593045732447,,,,
Fix,GT,37.4488462000,-122.1227417000,-29.1470457637422,23.397873,0.1,320.39288,1593045733447,,,,
Fix,GT,37.4490082000,-122.1229096000,-29.074442160260332,23.303394,0.1,320.56192,1593045734447,,,,
Fix,GT,37.4491710000,-122.1230773000,-28.963126123702295,23.472065,0.1,320.62405,1593045735447,,,,
Fix,GT,37.4493347000,-122.1232477000,-28.876248178928336,23.776318,0.1,320.233,1593045736447,,,,
Fix,GT,37.4495002000,-122.1234216000,-28.68848397028455,24.160587,0.1,320.00085,1593045737447,,,,
Fix,GT,37.4496678000,-122.1235981000,-28.5691261071521,24.351414,0.1,319.9787,1593045738447,,,,
Fix,GT,37.4498356000,-122.1237751000,-28.470043995492404,24.318588,0.1,320.0061,1593045739447,,,,
Fix,GT,37.4500033000,-122.1239519000,-28.353084888052308,24.340626,0.1,319.9458,1593045740447,,,,
Fix,GT,37.4501715000,-122.1241298000,-28.240045151969696,24.523394,0.1,319.81946,1593045741447,,,,
Fix,GT,37.4503408000,-122.1243105000,-28.1100443122117,24.786867,0.1,319.49683,1593045742447,,,,
Fix,GT,37.4505108000,-122.1244942000,-27.928084819721505,25.03207,0.1,319.14954,1593045743447,,,,
Fix,GT,37.4506813000,-122.1246819000,-27.802165704961908,25.324451,0.1,318.5191,1593045744447,,,,
Fix,GT,37.4508498000,-122.1248711000,-27.708045549532585,24.560246,0.1,318.0535,1593045745447,,,,
Fix,GT,37.4510088000,-122.1250524000,-27.60344153271285,23.151176,0.1,317.78796,1593045746447,,,,
Fix,GT,37.4511596000,-122.1252255000,-27.501002549537475,22.380825,0.1,317.38446,1593045747447,,,,
Fix,GT,37.4513052000,-122.1253973000,-27.395084709953608,22.006828,0.1,316.06088,1593045748447,,,,
Fix,GT,37.4514446000,-122.1255726000,-27.317484497034343,21.89961,0.1,313.73328,1593045749447,,,,
Fix,GT,37.4515780000,-122.1257571000,-27.27140209494786,22.621567,0.1,311.1716,1593045750447,,,,
Fix,GT,37.4517162000,-122.1259620000,-27.200045203607658,24.850838,0.1,309.67383,1593045751447,,,,
Fix,GT,37.4518652000,-122.1261877000,-27.11468685519901,26.998463,0.1,310.19678,1593045752447,,,,
Fix,GT,37.4520298000,-122.1264285000,-26.984484306150193,29.084015,0.1,310.58212,1593045753447,,,,
Fix,GT,37.4522014000,-122.1266830000,-26.845768093834977,29.490606,0.1,309.96475,1593045754447,,,,
Fix,GT,37.4523691000,-122.1269400000,-26.507044518198768,29.239323,0.1,308.70752,1593045755447,,,,
Fix,GT,37.4525302000,-122.1271998000,-26.219849975388115,29.099413,0.1,306.82953,1593045756447,,,,
Fix,GT,37.4526855000,-122.1274662000,-26.013117964485332,29.431442,0.1,305.5043,1593045757447,,,,
Fix,GT,37.4528397000,-122.1277455000,-25.965361537602575,30.73125,0.1,304.32343,1593045758447,,,,
Fix,GT,37.4529977000,-122.1280371000,-25.913759795022827,31.463223,0.1,304.56485,1593045759447,,,,
Fix,GT,37.4531610000,-122.1283293000,-26.003865850026386,31.666485,0.1,305.69214,1593045760447,,,,
Fix,GT,37.4533285000,-122.1286187000,-26.207484075865523,31.557508,0.1,306.24127,1593045761447,,,,
Fix,GT,37.4534958000,-122.1289053000,-26.215678499561193,31.29927,0.1,306.3197,1593045762447,,,,
Fix,GT,37.4536620000,-122.1291892000,-26.22928113897524,31.027512,0.1,306.26883,1593045763447,,,,
Fix,GT,37.4538270000,-122.1294715000,-26.22571922080874,30.98018,0.1,306.261,1593045764447,,,,
Fix,GT,37.4539923000,-122.1297545000,-26.2403611582788,31.119663,0.1,306.24518,1593045765447,,,,
Fix,GT,37.4541592000,-122.1300396000,-26.280402701725052,31.484276,0.1,306.48325,1593045766447,,,,
Fix,GT,37.4543283000,-122.1303268000,-26.301321355049822,31.663445,0.1,306.52805,1593045767447,,,,
Fix,GT,37.4544979000,-122.1306149000,-26.318841592775016,31.739695,0.1,306.35992,1593045768447,,,,
Fix,GT,37.4546679000,-122.1309060000,-26.336281282026277,32.156822,0.1,306.16934,1593045769447,,,,
Fix,GT,37.4548400000,-122.1312015000,-26.344679772674453,32.593346,0.1,306.22836,1593045770447,,,,
Fix,GT,37.4550145000,-122.1314993000,-26.35984274477795,32.82298,0.1,306.57047,1593045771447,,,,
Fix,GT,37.4551920000,-122.1317979000,-26.394841806636578,33.014698,0.1,307.05762,1593045772447,,,,
Fix,GT,37.4553724000,-122.1320949000,-26.41028010737398,33.059464,0.1,307.66605,1593045773447,,,,
Fix,GT,37.4555550000,-122.1323906000,-26.458076231322764,33.122147,0.1,308.0302,1593045774447,,,,
Fix,GT,37.4557388000,-122.1326858000,-26.516718795267423,33.176,0.1,307.84854,1593045775447,,,,
Fix,GT,37.4559219000,-122.1329827000,-26.527680341988173,33.24929,0.1,307.62692,1593045776447,,,,
Fix,GT,37.4561043000,-122.1332811000,-26.531003285357258,33.28006,0.1,307.4192,1593045777447,,,,
Fix,GT,37.4562851000,-122.1335809000,-26.436524014194674,33.241196,0.1,306.8691,1593045778447,,,,
Fix,GT,37.4564642000,-122.1338818000,-26.314206540834732,33.22908,0.1,306.63177,1593045779447,,,,
Fix,GT,37.4566424000,-122.1341839000,-26.149126847109756,33.25348,0.1,306.34268,1593045780447,,,,
Fix,GT,37.4568197000,-122.1344871000,-26.00412483364687,33.3006,0.1,306.2867,1593045781447,,,,
Fix,GT,37.4569976000,-122.1347904000,-25.83156420159952,33.316975,0.1,306.42883,1593045782447,,,,
Fix,GT,37.4571760000,-122.1350934000,-25.670523288031347,33.34542,0.1,306.5007,1593045783447,,,,
Fix,GT,37.4573546000,-122.1353969000,-25.524126066145755,33.38392,0.1,306.3957,1593045784447,,,,
Fix,GT,37.4575322000,-122.1356997000,-25.3346472430311,33.06276,0.1,306.39346,1593045785447,,,,
Fix,GT,37.4577074000,-122.1359988000,-25.193168072237142,32.626934,0.1,306.33188,1593045786447,,,,
Fix,GT,37.4578803000,-122.1362942000,-25.07612611192212,32.203003,0.1,306.3765,1593045787447,,,,
Fix,GT,37.4580512000,-122.1365856000,-24.947045066560463,31.812996,0.1,306.44525,1593045788447,,,,
Fix,GT,37.4582205000,-122.1368730000,-24.868207180839704,31.451176,0.1,306.59106,1593045789447,,,,
Fix,GT,37.4583883000,-122.1371569000,-24.73964625797521,31.088202,0.1,306.56787,1593045790447,,,,
Fix,GT,37.4585543000,-122.1374372000,-24.6199638909207,30.682941,0.1,306.7617,1593045791447,,,,
Fix,GT,37.4587187000,-122.1377131000,-24.533484296999404,30.280273,0.1,306.89252,1593045792447,,,,
Fix,GT,37.4588816000,-122.1379853000,-24.51480175598863,29.940668,0.1,306.9478,1593045793447,,,,
Fix,GT,37.4590425000,-122.1382562000,-24.547199681769825,29.950745,0.1,306.85617,1593045794447,,,,
Fix,GT,37.4592082000,-122.1385275000,-24.62168014499457,30.572792,0.1,308.39084,1593045795447,,,,
Fix,GT,37.4593827000,-122.1388025000,-24.71307734226417,31.628738,0.1,308.48108,1593045796447,,,,
Fix,GT,37.4595603000,-122.1390892000,-24.77503672835155,32.551506,0.1,307.28635,1593045797447,,,,
Fix,GT,37.4597385000,-122.1393849000,-24.82955744567539,33.028072,0.1,306.94034,1593045798447,,,,
Fix,GT,37.4599176000,-122.1396846000,-24.907199294015527,33.194157,0.1,306.86465,1593045799447,,,,
Fix,GT,37.4600964000,-122.1399855000,-24.96367920198884,33.11811,0.1,306.66943,1593045800447,,,,
Fix,GT,37.4602725000,-122.1402842000,-24.984760621559644,32.606728,0.1,306.35434,1593045801447,,,,
Fix,GT,37.4604455000,-122.1405795000,-24.998362493661944,32.270847,0.1,306.4192,1593045802447,,,,
Fix,GT,37.4606176000,-122.1408726000,-24.9340862365475,32.19172,0.1,306.2837,1593045803447,,,,
Fix,GT,37.4607885000,-122.1411674000,-24.89592426415294,32.32142,0.1,305.94507,1593045804447,,,,
Fix,GT,37.4609600000,-122.1414638000,-24.823361351577546,32.483967,0.1,306.09036,1593045805447,,,,
Fix,GT,37.4611332000,-122.1417611000,-24.754566089417438,32.662125,0.1,306.42435,1593045806447,,,,
Fix,GT,37.4613082000,-122.1420593000,-24.67644161422203,32.881287,0.1,306.3553,1593045807447,,,,
Fix,GT,37.4614838000,-122.1423605000,-24.605484575586672,33.174835,0.1,306.1824,1593045808447,,,,
Fix,GT,37.4616609000,-122.1426644000,-24.50904521163079,33.384468,0.1,306.36133,1593045809447,,,,
Fix,GT,37.4618394000,-122.1429688000,-24.46740300022111,33.48801,0.1,306.44882,1593045810447,,,,
Fix,GT,37.4620184000,-122.1432737000,-24.448239366145344,33.489204,0.1,306.39087,1593045811447,,,,
Fix,GT,37.4621962000,-122.1435789000,-24.50711738774578,33.401367,0.1,306.1238,1593045812447,,,,
Fix,GT,37.4623737000,-122.1438840000,-24.61771866208244,33.460915,0.1,306.18393,1593045813447,,,,
Fix,GT,37.4625518000,-122.1441900000,-24.764483340885704,33.591858,0.1,306.21768,1593045814447,,,,
Fix,GT,37.4627309000,-122.1444968000,-24.813840712240676,33.68249,0.1,306.24707,1593045815447,,,,
Fix,GT,37.4629106000,-122.1448037000,-24.824239980376774,33.7012,0.1,306.50323,1593045816447,,,,
Fix,GT,37.4630915000,-122.1451107000,-24.82876047540549,33.863533,0.1,306.5169,1593045817447,,,,
Fix,GT,37.4632730000,-122.1454198000,-24.7276048709096,34.050804,0.1,306.32126,1593045818447,,,,
Fix,GT,37.4634552000,-122.1457297000,-24.565768588819083,34.05649,0.1,306.60245,1593045819447,,,,
Fix,GT,37.4636382000,-122.1460384000,-24.34424879153903,34.029274,0.1,306.62744,1593045820447,,,,
Fix,GT,37.4638209000,-122.1463484000,-24.111247359402114,34.22065,0.1,306.34732,1593045821447,,,,
Fix,GT,37.4640038000,-122.1466620000,-23.862971152413877,34.50432,0.1,306.13388,1593045822447,,,,
Fix,GT,37.4641877000,-122.1469781000,-23.604851147123895,34.765266,0.1,306.19092,1593045823447,,,,
Fix,GT,37.4643735000,-122.1472966000,-23.37976870167222,35.050365,0.1,306.3642,1593045824447,,,,
Fix,GT,37.4645615000,-122.1476169000,-23.2480048161043,35.341164,0.1,306.511,1593045825447,,,,
Fix,GT,37.4647509000,-122.1479402000,-23.176362697952413,35.62813,0.1,306.12064,1593045826447,,,,
Fix,GT,37.4649400000,-122.1482674000,-23.143199322261125,35.86503,0.1,306.0145,1593045827447,,,,
Fix,GT,37.4651307000,-122.1485958000,-23.18011838703916,36.008026,0.1,306.25656,1593045828447,,,,
Fix,GT,37.4653229000,-122.1489240000,-23.287476131489086,36.005234,0.1,306.39755,1593045829447,,,,
Fix,GT,37.4655159000,-122.1492515000,-23.44487405241921,36.10208,0.1,306.6922,1593045830447,,,,
Fix,GT,37.4657107000,-122.1495795000,-23.63643543338469,36.286125,0.1,306.6176,1593045831447,,,,
Fix,GT,37.4659052000,-122.1499103000,-23.767117586584277,36.443897,0.1,306.28232,1593045832447,,,,
Fix,GT,37.4660999000,-122.1502430000,-23.92939434138043,36.537613,0.1,306.38974,1593045833447,,,,
Fix,GT,37.4662955000,-122.1505755000,-24.092475737627296,36.590267,0.1,306.4741,1593045834447,,,,
Fix,GT,37.4664910000,-122.1509088000,-24.238475644167124,36.626667,0.1,306.2357,1593045835447,,,,
Fix,GT,37.4666859000,-122.1512425000,-24.38963836561493,36.548447,0.1,306.33954,1593045836447,,,,
Fix,GT,37.4668807000,-122.1515750000,-24.49999636341454,36.458782,0.1,306.35254,1593045837447,,,,
Fix,GT,37.4670745000,-122.1519068000,-24.594075868094933,36.330544,0.1,306.26422,1593045838447,,,,
Fix,GT,37.4672681000,-122.1522370000,-24.690873592396542,36.182014,0.1,306.51483,1593045839447,,,,
Fix,GT,37.4674617000,-122.1525651000,-24.793035532922772,36.054825,0.1,306.63882,1593045840447,,,,
Fix,GT,37.4676555000,-122.1528914000,-24.90159701755732,35.923397,0.1,306.7478,1593045841447,,,,
Fix,GT,37.4678479000,-122.1532164000,-24.907401901602498,35.667824,0.1,306.6894,1593045842447,,,,
Fix,GT,37.4680394000,-122.1535373000,-24.880320845460574,35.217285,0.1,307.08917,1593045843447,,,,
Fix,GT,37.4682294000,-122.1538527000,-24.834524711036465,34.74608,0.1,307.1002,1593045844447,,,,
Fix,GT,37.4684164000,-122.1541649000,-24.841280640507193,34.372246,0.1,306.7138,1593045845447,,,,
Fix,GT,37.4686000000,-122.1544765000,-24.795401403741835,34.22041,0.1,306.29044,1593045846447,,,,
Fix,GT,37.4687818000,-122.1547885000,-24.790841735476874,34.16858,0.1,306.16827,1593045847447,,,,
Fix,GT,37.4689630000,-122.1551004000,-24.834721077758843,34.091537,0.1,306.0632,1593045848447,,,,
Fix,GT,37.4691438000,-122.1554112000,-24.86040193824607,34.014145,0.1,306.29147,1593045849447,,,,
Fix,GT,37.4693248000,-122.1557209000,-24.859361838913003,33.9393,0.1,306.24576,1593045850447,,,,
Fix,GT,37.4695050000,-122.1560305000,-24.874036619493722,33.886425,0.1,306.0375,1593045851447,,,,
Fix,GT,37.4696839000,-122.1563407000,-24.843881142150508,33.856384,0.1,305.81458,1593045852447,,,,
Fix,GT,37.4698624000,-122.1566504000,-24.87132031964859,33.704903,0.1,306.0802,1593045853447,,,,
Fix,GT,37.4700405000,-122.1569568000,-24.895759160261264,33.437828,0.1,306.2281,1593045854447,,,,
Fix,GT,37.4702180000,-122.1572607000,-24.893720351154457,33.171143,0.1,306.35168,1593045855447,,,,
Fix,GT,37.4703944000,-122.1575616000,-24.933760008816762,32.953903,0.1,306.44016,1593045856447,,,,
Fix,GT,37.4705703000,-122.1578608000,-24.966922716439058,32.805626,0.1,306.47485,1593045857447,,,,
Fix,GT,37.4707456000,-122.1581581000,-24.99428051742416,32.634495,0.1,306.599,1593045858447,,,,
Fix,GT,37.4709208000,-122.1584541000,-25.02619972117725,32.591198,0.1,306.73697,1593045859447,,,,
Fix,GT,37.4710960000,-122.1587493000,-25.06023910554353,32.55841,0.1,306.64044,1593045860447,,,,
