MessageType,Provider,LatitudeDegrees,LongitudeDegrees,AltitudeMeters,SpeedMps,AccuracyMeters,BearingDegrees,UnixTimeMillis,SpeedAccuracyMps,BearingAccuracyDegrees,elapsedRealtimeNanos,VerticalAccuracyMeters
Fix,GT,37.6922054000,-122.0884001000,21.074630226995424,0.0009971235,0.1,288.26685,1694115207000,,,,
Fix,GT,37.6922054000,-122.0884001000,21.074631080782076,0.000002879636,0.1,288.26697,1694115208000,,,,
Fix,GT,37.6922054000,-122.0884001000,21.07463067842285,0.000002882776,0.1,288.26736,1694115209000,,,,
Fix,GT,37.6922054000,-122.0884001000,21.074630276063623,0.0010035672,0.099,288.2677,1694115210000,,,,
Fix,GT,37.6922054000,-122.0884001000,21.074631129850275,0.0031560306,0.1,288.26794,1694115211000,,,,
Fix,GT,37.6922054000,-122.0884001000,21.0746309384843,0.0019971079,0.1,288.26782,1694115212000,,,,
Fix,GT,37.6922054000,-122.0884001000,21.074630541031894,0.0014130143,0.1,288.26712,1694115213000,,,,
Fix,GT,37.6922054000,-122.0884002000,21.074630138672667,0.0035991995,0.1,288.26865,1694115214000,,,,
Fix,GT,37.6922054000,-122.0884002000,21.075630443155013,0.001,0.1,288.26523,1694115215000,,,,
Fix,GT,37.6922054000,-122.0884002000,21.075630040776705,0.0009970953,0.1,288.26535,1694115216000,,,,
Fix,GT,37.6922054000,-122.0884001000,21.076629089055928,0.044648763,0.1,288.26752,1694115217000,,,,
Fix,GT,37.6922050000,-122.0883986000,21.08263337616452,0.24927172,0.1,288.31287,1694115218000,,,,
Fix,GT,37.6922040000,-122.0883942000,21.097635073272766,0.5626284,0.1,289.0272,1694115219000,,,,
Fix,GT,37.6922037000,-122.0883857000,21.118635631814698,0.82089734,0.1,295.2473,1694115220000,,,,
Fix,GT,37.6922028000,-122.0883742000,21.143633412901167,1.0093927,0.1,307.33026,1694115221000,,,,
Fix,GT,37.6922009000,-122.0883662000,21.152630014819277,0.13278666,0.1,315.5365,1694115222000,,,,
Fix,GT,37.6922009000,-122.0883661000,21.15463125698974,0.009834957,0.1,315.76855,1694115223000,,,,
Fix,GT,37.6922016000,-122.0883670000,21.144627272555983,0.473345,0.099,315.93585,1694115224000,,,,
Fix,GT,37.6922088000,-122.0883742000,21.11661923634098,1.6593201,0.1,318.19415,1694115225000,,,,
Fix,GT,37.6922267000,-122.0883891000,21.050606881064006,3.0656073,0.099,324.30975,1694115226000,,,,
Fix,GT,37.6922568000,-122.0884074000,20.94560186887648,4.281963,0.1,333.73126,1694115227000,,,,
Fix,GT,37.6922990000,-122.0884222000,20.87758866737033,5.2144947,0.099,345.43933,1694115228000,,,,
Fix,GT,37.6923459000,-122.0884313000,20.799570568492175,5.48907,0.1,351.1071,1694115229000,,,,
Fix,GT,37.6923991000,-122.0884430000,20.66259120487986,6.503112,0.099,348.8182,1694115230000,,,,
Fix,GT,37.6924592000,-122.0884677000,20.492585817280926,7.467168,0.1,339.74774,1694115231000,,,,
Fix,GT,37.6925215000,-122.0885035000,20.304565776827733,7.70062,0.1,334.2521,1694115232000,,,,
Fix,GT,37.6925835000,-122.0885448000,20.124600103922464,7.8344307,0.1,331.5127,1694115233000,,,,
Fix,GT,37.6926450000,-122.0885886000,19.918595388869836,7.8560343,0.1,330.09717,1694115234000,,,,
Fix,GT,37.6927061000,-122.0886336000,19.753602559486765,7.875521,0.1,329.41504,1694115235000,,,,
Fix,GT,37.6927668000,-122.0886791000,19.60958009444402,7.664726,0.1,328.93915,1694115236000,,,,
Fix,GT,37.6928224000,-122.0887207000,19.46159140942447,6.6693397,0.1,329.45752,1694115237000,,,,
Fix,GT,37.6928715000,-122.0887536000,19.33760609005187,5.748553,0.1,333.02997,1694115238000,,,,
Fix,GT,37.6929174000,-122.0887728000,19.241597614928352,5.0412455,0.099,344.65866,1694115239000,,,,
Fix,GT,37.6929618000,-122.0887748000,19.15862739743566,4.8152294,0.1,358.49368,1694115240000,,,,
Fix,GT,37.6930019000,-122.0887757000,19.086624113964973,3.9718754,0.1,358.0915,1694115241000,,,,
Fix,GT,37.6930321000,-122.0887799000,19.044608802914674,2.7242663,0.1,354.0545,1694115242000,,,,
Fix,GT,37.6930513000,-122.0887848000,19.016627229532347,1.706892,0.1,350.37494,1694115243000,,,,
Fix,GT,37.6930627000,-122.0887883000,19.010629897374805,0.85215247,0.1,348.30734,1694115244000,,,,
Fix,GT,37.6930663000,-122.0887896000,18.99662622588975,0.25482282,0.1,347.5523,1694115245000,,,,
Fix,GT,37.6930677000,-122.0887901000,18.990628899919763,0.02057554,0.099,347.2705,1694115246000,,,,
Fix,GT,37.6930679000,-122.0887902000,18.98762774121456,0.0274556,0.1,347.2265,1694115247000,,,,
Fix,GT,37.6930699000,-122.0887909000,18.97062192685057,0.61592025,0.1,346.82513,1694115248000,,,,
Fix,GT,37.6930786000,-122.0887943000,18.91159729009842,1.3713543,0.1,345.3539,1694115249000,,,,
Fix,GT,37.6930933000,-122.0888005000,18.76759964445816,1.7815901,0.1,342.59167,1694115250000,,,,
Fix,GT,37.6931075000,-122.0888083000,18.626534102639468,1.6865621,0.1,339.11377,1694115251000,,,,
Fix,GT,37.6931209000,-122.0888166000,18.581655002679305,1.541339,0.1,335.5019,1694115252000,,,,
Fix,GT,37.6931332000,-122.0888280000,18.685658521593858,1.8276137,0.1,327.9804,1694115253000,,,,
Fix,GT,37.6931432000,-122.0888445000,18.785656109491175,1.7160474,0.1,314.93842,1694115254000,,,,
Fix,GT,37.6931482000,-122.0888617000,18.8796522413956,1.2664853,0.1,300.96802,1694115255000,,,,
Fix,GT,37.6931504000,-122.0888755000,18.921637126823555,1.3857799,0.1,291.52313,1694115256000,,,,
Fix,GT,37.6931527000,-122.0889002000,18.94563656010615,3.0049691,0.099,281.7012,1694115257000,,,,
Fix,GT,37.6931570000,-122.0889415000,18.991648629648722,4.212531,0.1,277.7881,1694115258000,,,,
Fix,GT,37.6931585000,-122.0889913000,19.049641625218175,4.4256406,0.1,271.41193,1694115259000,,,,
Fix,GT,37.6931551000,-122.0890403000,19.079642518808654,4.3460283,0.1,264.43774,1694115260000,,,,
Fix,GT,37.6931469000,-122.0890897000,19.118632967873328,4.4241657,0.1,257.68524,1694115261000,,,,
Fix,GT,37.6931346000,-122.0891361000,19.165648351103926,4.167105,0.1,251.21086,1694115262000,,,,
Fix,GT,37.6931213000,-122.0891741000,19.212641640867503,3.0661747,0.1,246.52802,1694115263000,,,,
Fix,GT,37.6931114000,-122.0891999000,19.244640291769358,2.046706,0.1,244.71596,1694115264000,,,,
Fix,GT,37.6931046000,-122.0892165000,19.268637420939314,1.3228289,0.1,243.28065,1694115265000,,,,
Fix,GT,37.6930997000,-122.0892280000,19.288636185842947,0.93320096,0.1,242.69606,1694115266000,,,,
Fix,GT,37.6930970000,-122.0892346000,19.298632405076596,0.36568522,0.1,242.6181,1694115267000,,,,
Fix,GT,37.6930959000,-122.0892374000,19.30063035825043,0.22308269,0.1,242.64215,1694115268000,,,,
Fix,GT,37.6930954000,-122.0892386000,19.300630367237986,0.057217628,0.099,242.64838,1694115269000,,,,
Fix,GT,37.6930954000,-122.0892387000,19.29962921142578,0.0022322692,0.1,242.65057,1694115270000,,,,
Fix,GT,37.6930954000,-122.0892387000,19.298629967434557,0.0010038026,0.1,242.65034,1694115271000,,,,
Fix,GT,37.6930954000,-122.0892387000,19.298630169633615,0.001,0.1,242.64867,1694115272000,,,,
Fix,GT,37.6930954000,-122.0892387000,19.298629414757134,0.0000030825556,0.1,242.64891,1694115273000,,,,
Fix,GT,37.6930954000,-122.0892387000,19.29862942823707,0.0014098497,0.099,242.64856,1694115274000,,,,
Fix,GT,37.6930954000,-122.0892387000,19.29862963043613,0.0,0.1,242.64842,1694115275000,,,,
Fix,GT,37.6930954000,-122.0892387000,19.298629832635186,0.0,0.1,242.64847,1694115276000,,,,
Fix,GT,37.6930954000,-122.0892387000,19.298630039327556,0.0,0.1,242.64839,1694115277000,,,,
Fix,GT,37.6930954000,-122.0892387000,19.298629284451074,0.0,0.099,242.6482,1694115278000,,,,
Fix,GT,37.6930954000,-122.0892387000,19.298629486650132,0.0,0.1,242.64862,1694115279000,,,,
Fix,GT,37.6930954000,-122.0892387000,19.2986296933425,0.0,0.1,242.64806,1694115280000,,,,
Fix,GT,37.6930954000,-122.0892387000,19.29862989554156,0.0,0.1,242.6477,1694115281000,,,,
Fix,GT,37.6930954000,-122.0892387000,19.298630097740617,0.0009968895,0.1,242.64766,1694115282000,,,,
Fix,GT,37.6930954000,-122.0892387000,19.298630304432987,0.0014142137,0.1,242.64784,1694115283000,,,,
Fix,GT,37.6930954000,-122.0892387000,19.298629356344073,0.001,0.1,242.64798,1694115284000,,,,
Fix,GT,37.6930954000,-122.0892387000,19.29862955854313,0.001,0.1,242.64795,1694115285000,,,,
Fix,GT,37.6930953000,-122.0892388000,19.296627736641135,0.07890608,0.1,242.6512,1694115286000,,,,
Fix,GT,37.6930937000,-122.0892429000,19.300633900550107,0.7376893,0.1,242.67166,1694115287000,,,,
Fix,GT,37.6930893000,-122.0892536000,19.312633242350078,1.5072119,0.1,242.73611,1694115288000,,,,
Fix,GT,37.6930807000,-122.0892752000,19.34364278870656,2.7257578,0.1,242.86235,1694115289000,,,,
Fix,GT,37.6930670000,-122.0893091000,19.389650783629946,3.9846225,0.1,243.03954,1694115290000,,,,
Fix,GT,37.6930492000,-122.0893538000,19.469644462339495,4.71981,0.099,243.26071,1694115291000,,,,
Fix,GT,37.6930281000,-122.0894081000,19.564683602368472,5.9239774,0.1,243.90736,1694115292000,,,,
Fix,GT,37.6930038000,-122.0894752000,19.729689159494605,7.075965,0.1,245.74135,1694115293000,,,,
Fix,GT,37.6929786000,-122.0895528000,19.881667619299215,7.5047154,0.1,247.88954,1694115294000,,,,
Fix,GT,37.6929525000,-122.0896369000,20.01872561782764,8.463163,0.1,248.43703,1694115295000,,,,
Fix,GT,37.6929208000,-122.0897304000,20.299692416664087,9.463168,0.1,245.78006,1694115296000,,,,
Fix,GT,37.6928813000,-122.0898330000,20.584713389571164,10.646746,0.1,243.30232,1694115297000,,,,
Fix,GT,37.6928359000,-122.0899488000,20.876741960595755,12.1715355,0.1,244.20029,1694115298000,,,,
Fix,GT,37.6927864000,-122.0900815000,21.347807286285537,13.681705,0.1,244.84921,1694115299000,,,,
Fix,GT,37.6927288000,-122.0902276000,21.992835356379203,15.053431,0.1,242.46352,1694115300000,,,,
Fix,GT,37.6926609000,-122.0903837000,22.618816218908123,16.249372,0.099,240.54372,1694115301000,,,,
Fix,GT,37.6925857000,-122.0905470000,23.229772049709204,16.946215,0.1,239.42427,1694115302000,,,,
Fix,GT,37.6925059000,-122.0907130000,23.75583692708638,17.080252,0.1,238.16745,1694115303000,,,,
Fix,GT,37.6924248000,-122.0908741000,24.281826677383037,16.545977,0.1,237.13243,1694115304000,,,,
Fix,GT,37.6923427000,-122.0910274000,24.84481387995453,16.204306,0.1,235.24423,1694115305000,,,,
Fix,GT,37.6922589000,-122.0911799000,25.37378052758781,16.544855,0.1,235.29488,1694115306000,,,,
Fix,GT,37.6921719000,-122.0913353000,25.78772605375257,17.01071,0.1,234.34818,1694115307000,,,,
Fix,GT,37.6920813000,-122.0914949000,25.991707484954947,17.576925,0.1,234.32346,1694115308000,,,,
Fix,GT,37.6919870000,-122.0916583000,26.18065884200319,18.026665,0.1,233.65211,1694115309000,,,,
Fix,GT,37.6918895000,-122.0918246000,26.31169110882744,18.420055,0.1,233.36662,1694115310000,,,,
Fix,GT,37.6917894000,-122.0919940000,26.414647019336876,18.819698,0.1,233.29016,1694115311000,,,,
Fix,GT,37.6916876000,-122.0921679000,26.290578956789226,19.311954,0.1,233.83604,1694115312000,,,,
Fix,GT,37.6915857000,-122.0923475000,25.95750151485554,19.492884,0.1,234.8281,1694115313000,,,,
Fix,GT,37.6914853000,-122.0925287000,25.381417495907222,19.470068,0.099,235.25931,1694115314000,,,,
Fix,GT,37.6913865000,-122.0927120000,24.510260571140833,19.717325,0.1,236.38911,1694115315000,,,,
Fix,GT,37.6912876000,-122.0929025000,23.72143063569876,20.41915,0.1,237.40228,1694115316000,,,,
Fix,GT,37.6911902000,-122.0931025000,23.281603291017078,20.935265,0.099,239.40408,1694115317000,,,,
Fix,GT,37.6911001000,-122.0933119000,23.366737067866097,20.907557,0.1,243.83429,1694115318000,,,,
Fix,GT,37.6910261000,-122.0935273000,23.613814093877163,20.542826,0.1,248.48807,1694115319000,,,,
Fix,GT,37.6909657000,-122.0937476000,23.75061601491441,20.60324,0.1,252.61668,1694115320000,,,,
Fix,GT,37.6909172000,-122.0939739000,23.790621337830466,20.78116,0.1,256.5929,1694115321000,,,,
Fix,GT,37.6908806000,-122.0942069000,23.71057889406839,21.158375,0.1,260.33508,1694115322000,,,,
Fix,GT,37.6908539000,-122.0944471000,23.47553915943044,21.636948,0.1,262.83527,1694115323000,,,,
Fix,GT,37.6908320000,-122.0946938000,23.043484328931754,22.165644,0.099,263.84613,1694115324000,,,,
Fix,GT,37.6908121000,-122.0949470000,22.534464860022982,22.725216,0.1,264.54935,1694115325000,,,,
Fix,GT,37.6907945000,-122.0952067000,21.983427958293305,23.231014,0.1,265.3615,1694115326000,,,,
Fix,GT,37.6907796000,-122.0954701000,21.382417770501082,23.338837,0.099,266.1702,1694115327000,,,,
Fix,GT,37.6907673000,-122.0957371000,20.743428227176285,23.9432,0.1,266.7895,1694115328000,,,,
Fix,GT,37.6907571000,-122.0960133000,20.13848996031245,24.811142,0.1,267.52686,1694115329000,,,,
Fix,GT,37.6907506000,-122.0962970000,19.804535433937026,25.086271,0.1,269.0172,1694115330000,,,,
Fix,GT,37.6907531000,-122.0965804000,19.596565114872234,24.878878,0.1,271.90845,1694115331000,,,,
Fix,GT,37.6907666000,-122.0968601000,19.45562270393533,24.562513,0.1,274.8462,1694115332000,,,,
Fix,GT,37.6907921000,-122.0971348000,19.384614333450415,24.299875,0.1,277.9229,1694115333000,,,,
Fix,GT,37.6908280000,-122.0974076000,19.365638907676164,24.539915,0.1,280.38248,1694115334000,,,,
Fix,GT,37.6908729000,-122.0976823000,19.394647285183307,24.925179,0.1,282.68106,1694115335000,,,,
Fix,GT,37.6909280000,-122.0979588000,19.44063662107404,25.362299,0.1,285.0006,1694115336000,,,,
Fix,GT,37.6909923000,-122.0982373000,19.47463336266067,25.826458,0.1,286.5832,1694115337000,,,,
Fix,GT,37.6910624000,-122.0985205000,19.47767052547912,26.518997,0.1,287.6658,1694115338000,,,,
Fix,GT,37.6911407000,-122.0988087000,19.488630426388763,27.12157,0.1,289.84262,1694115339000,,,,
Fix,GT,37.6912302000,-122.0990954000,19.48459743519807,27.208431,0.1,293.03595,1694115340000,,,,
Fix,GT,37.6913329000,-122.0993759000,19.39061478624067,27.280476,0.1,295.92645,1694115341000,,,,
Fix,GT,37.6914469000,-122.0996505000,19.251588084765025,27.378025,0.1,298.9679,1694115342000,,,,
Fix,GT,37.6915717000,-122.0999188000,19.121603862420955,27.456959,0.1,301.34985,1694115343000,,,,
Fix,GT,37.6917053000,-122.1001811000,19.036607488494145,27.527853,0.1,303.81308,1694115344000,,,,
Fix,GT,37.6918488000,-122.1004361000,18.942585040923365,27.581743,0.1,306.82333,1694115345000,,,,
Fix,GT,37.6920034000,-122.1006815000,18.78158011383793,27.652836,0.1,309.7265,1694115346000,,,,
Fix,GT,37.6921669000,-122.1009185000,18.629571244797656,27.73183,0.1,312.0592,1694115347000,,,,
Fix,GT,37.6923382000,-122.1011482000,18.42655323882066,27.8205,0.099,313.98895,1694115348000,,,,
Fix,GT,37.6925158000,-122.1013720000,18.211560393197814,27.989723,0.1,315.6578,1694115349000,,,,
Fix,GT,37.6927012000,-122.1015903000,18.00855421509167,28.433815,0.1,318.07184,1694115350000,,,,
Fix,GT,37.6928981000,-122.1018029000,17.80555699114376,29.235636,0.1,320.6536,1694115351000,,,,
Fix,GT,37.6931099000,-122.1020102000,17.594549306324456,30.32517,0.1,323.13632,1694115352000,,,,
Fix,GT,37.6933337000,-122.1022158000,17.459568081012204,30.905529,0.1,324.3604,1694115353000,,,,
Fix,GT,37.6935601000,-122.1024177000,17.254547588722435,30.673952,0.1,324.5728,1694115354000,,,,
Fix,GT,37.6937850000,-122.1026175000,17.006576952837605,30.409916,0.1,324.52994,1694115355000,,,,
Fix,GT,37.6940075000,-122.1028153000,16.78354344167866,30.062542,0.1,324.7726,1694115356000,,,,
Fix,GT,37.6942278000,-122.1030100000,16.55054658451239,29.704128,0.1,324.78955,1694115357000,,,,
Fix,GT,37.6944454000,-122.1032026000,16.277539597192025,29.359772,0.1,324.7034,1694115358000,,,,
Fix,GT,37.6946602000,-122.1033936000,16.040593096598275,29.01584,0.099,324.5741,1694115359000,,,,
Fix,GT,37.6948722000,-122.1035826000,15.890532657855715,28.661274,0.1,324.4329,1694115360000,,,,
Fix,GT,37.6950811000,-122.1037705000,15.681562656721114,28.332632,0.1,324.26437,1694115361000,,,,
Fix,GT,37.6952879000,-122.1039563000,15.507603573324197,28.108715,0.1,324.38535,1694115362000,,,,
Fix,GT,37.6954934000,-122.1041409000,15.310538742924209,27.914703,0.1,324.33096,1694115363000,,,,
Fix,GT,37.6956971000,-122.1043242000,15.128599507066673,27.666594,0.1,324.36743,1694115364000,,,,
Fix,GT,37.6958999000,-122.1045046000,14.873552739826666,27.53566,0.1,324.77396,1694115365000,,,,
Fix,GT,37.6961032000,-122.1046851000,14.693522485228474,27.700468,0.1,324.65637,1694115366000,,,,
Fix,GT,37.6963079000,-122.1048666000,14.502569914889786,27.907618,0.1,324.71918,1694115367000,,,,
Fix,GT,37.6965143000,-122.1050496000,14.282589421856414,28.138336,0.1,324.6834,1694115368000,,,,
Fix,GT,37.6967226000,-122.1052344000,14.059549549349498,28.417414,0.1,324.64713,1694115369000,,,,
Fix,GT,37.6969323000,-122.1054214000,13.853555497930087,28.671566,0.1,324.45142,1694115370000,,,,
Fix,GT,37.6971437000,-122.1056104000,13.628545447157856,28.85392,0.1,324.56873,1694115371000,,,,
Fix,GT,37.6973559000,-122.1057991000,13.438569104686529,28.715708,0.1,324.6454,1694115372000,,,,
Fix,GT,37.6975660000,-122.1059862000,13.23756245456742,28.4688,0.1,324.55936,1694115373000,,,,
Fix,GT,37.6977751000,-122.1061726000,13.033535326251293,28.425573,0.1,324.55258,1694115374000,,,,
Fix,GT,37.6979834000,-122.1063584000,12.828548657233323,28.208735,0.1,324.6042,1694115375000,,,,
Fix,GT,37.6981901000,-122.1065419000,12.598575675937091,27.936377,0.1,324.70358,1694115376000,,,,
Fix,GT,37.6983947000,-122.1067235000,12.410551834447181,27.647102,0.1,324.6232,1694115377000,,,,
Fix,GT,37.6985979000,-122.1069048000,12.21557628094281,27.709785,0.1,324.5358,1694115378000,,,,
Fix,GT,37.6988018000,-122.1070868000,12.098595754752411,27.707325,0.1,324.5563,1694115379000,,,,
Fix,GT,37.6990041000,-122.1072682000,12.047651049080047,27.407808,0.1,324.37604,1694115380000,,,,
Fix,GT,37.6992032000,-122.1074486000,12.115626763604709,27.024107,0.1,323.88867,1694115381000,,,,
Fix,GT,37.6993971000,-122.1076303000,12.068571890295983,26.673569,0.1,322.7762,1694115382000,,,,
Fix,GT,37.6995873000,-122.1078156000,11.867561723376525,26.816902,0.1,321.67834,1694115383000,,,,
Fix,GT,37.6997766000,-122.1080086000,11.668555056416958,27.233866,0.1,320.25763,1694115384000,,,,
Fix,GT,37.6999648000,-122.1082098000,11.473544523312157,27.587706,0.1,318.89105,1694115385000,,,,
Fix,GT,37.7001513000,-122.1084193000,11.156544670371389,27.871273,0.1,317.3559,1694115386000,,,,
Fix,GT,37.7003340000,-122.1086376000,10.890543639986875,28.042332,0.1,315.56967,1694115387000,,,,
Fix,GT,37.7005127000,-122.1088637000,10.443472149719424,28.207752,0.1,314.012,1694115388000,,,,
Fix,GT,37.7006877000,-122.1090964000,9.826355308535454,28.318462,0.1,312.7888,1694115389000,,,,
Fix,GT,37.7008590000,-122.1093351000,9.232430289181574,28.35534,0.1,311.32623,1694115390000,,,,
Fix,GT,37.7010247000,-122.1095790000,8.552482188558276,28.22838,0.1,309.5849,1694115391000,,,,
Fix,GT,37.7011838000,-122.1098277000,7.829316184107653,28.101458,0.1,308.11874,1694115392000,,,,
Fix,GT,37.7013399000,-122.1100799000,6.842270803120462,28.360733,0.1,307.6882,1694115393000,,,,
Fix,GT,37.7014976000,-122.1103360000,5.8083018433136955,28.770958,0.1,307.62262,1694115394000,,,,
Fix,GT,37.7016574000,-122.1105958000,4.877343084959088,29.16415,0.1,307.61542,1694115395000,,,,
Fix,GT,37.7018192000,-122.1108586000,4.110394735830345,29.461056,0.1,307.61853,1694115396000,,,,
Fix,GT,37.7019826000,-122.1111232000,3.5504776247241843,29.597149,0.1,307.6487,1694115397000,,,,
Fix,GT,37.7021458000,-122.1113887000,3.214550420097606,29.614239,0.1,307.5912,1694115398000,,,,
Fix,GT,37.7023091000,-122.1116542000,2.9966197452530547,29.605793,0.1,307.7507,1694115399000,,,,
Fix,GT,37.7024734000,-122.1119193000,2.8515677296189836,29.712547,0.1,307.8379,1694115400000,,,,
Fix,GT,37.7026385000,-122.1121859000,2.6935988945653833,29.91189,0.1,307.7205,1694115401000,,,,
Fix,GT,37.7028041000,-122.1124552000,2.5135916810163104,30.144472,0.1,307.57916,1694115402000,,,,
Fix,GT,37.7029707000,-122.1127267000,2.327556868907193,30.388365,0.099,307.5082,1694115403000,,,,
Fix,GT,37.7031388000,-122.1130012000,2.13856720090607,30.741213,0.1,307.51373,1694115404000,,,,
Fix,GT,37.7033089000,-122.1132789000,1.944560218033045,31.081667,0.1,307.45273,1694115405000,,,,
Fix,GT,37.7034799000,-122.1135595000,1.7435671345424493,31.27378,0.099,307.30072,1694115406000,,,,
Fix,GT,37.7036516000,-122.1138417000,1.5545636248502015,31.408478,0.1,307.35056,1694115407000,,,,
Fix,GT,37.7038241000,-122.1141244000,1.3585494319476732,31.470488,0.1,307.40298,1694115408000,,,,
Fix,GT,37.7039973000,-122.1144074000,1.1675774440455204,31.500235,0.1,307.64954,1694115409000,,,,
Fix,GT,37.7041716000,-122.1146894000,1.0686019123640533,31.524385,0.099,307.81055,1694115410000,,,,
Fix,GT,37.7043455000,-122.1149719000,0.9895949070430684,31.425037,0.1,307.59808,1694115411000,,,,
Fix,GT,37.7045173000,-122.1152531000,0.8105175877566959,31.16689,0.1,307.3012,1694115412000,,,,
Fix,GT,37.7046864000,-122.1155356000,0.42847888673106976,31.224861,0.1,306.393,1694115413000,,,,
Fix,GT,37.7048525000,-122.1158223000,-0.07356694371011163,31.355425,0.099,305.66107,1694115414000,,,,
Fix,GT,37.7050158000,-122.1161118000,-0.6915882660353458,31.242207,0.1,304.89005,1694115415000,,,,
Fix,GT,37.7051755000,-122.1164025000,-1.3966412543889541,31.124554,0.1,304.31534,1694115416000,,,,
Fix,GT,37.7053331000,-122.1166953000,-2.206666043524878,31.256208,0.1,303.69894,1694115417000,,,,
Fix,GT,37.7054883000,-122.1169921000,-3.1206981078072866,31.428864,0.1,302.8143,1694115418000,,,,
Fix,GT,37.7056403000,-122.1172925000,-4.041705488138479,31.37305,0.1,302.00775,1694115419000,,,,
Fix,GT,37.7057888000,-122.1175944000,-4.992716169703992,31.24584,0.1,301.39728,1694115420000,,,,
Fix,GT,37.7059339000,-122.1178972000,-5.8987060555616075,31.116058,0.1,300.59396,1694115421000,,,,
Fix,GT,37.7060749000,-122.1182014000,-6.833681243721046,30.995058,0.1,299.8498,1694115422000,,,,
Fix,GT,37.7062129000,-122.1185061000,-7.782706262928594,30.871323,0.1,299.31064,1694115423000,,,,
Fix,GT,37.7063481000,-122.1188114000,-8.807742677032092,30.792557,0.1,298.79614,1694115424000,,,,
Fix,GT,37.7064819000,-122.1191183000,-9.847753710544353,30.965189,0.1,298.57834,1694115425000,,,,
Fix,GT,37.7066165000,-122.1194271000,-10.888725140213594,31.167437,0.1,298.7868,1694115426000,,,,
Fix,GT,37.7067529000,-122.1197373000,-11.853714944723283,31.344618,0.1,298.86118,1694115427000,,,,
Fix,GT,37.7068904000,-122.1200478000,-12.952797248413452,31.340948,0.1,299.12787,1694115428000,,,,
Fix,GT,37.7070306000,-122.1203559000,-14.163811639398023,31.266218,0.099,300.54477,1694115429000,,,,
Fix,GT,37.7071810000,-122.1206550000,-15.261722418635951,31.159142,0.1,303.6948,1694115430000,,,,
Fix,GT,37.7073421000,-122.1209435000,-16.21471301365876,31.023933,0.1,306.347,1694115431000,,,,
Fix,GT,37.7075135000,-122.1212206000,-17.16570088105677,30.962097,0.1,309.29544,1694115432000,,,,
Fix,GT,37.7076960000,-122.1214866000,-18.052637827900227,31.037945,0.1,312.2376,1694115433000,,,,
Fix,GT,37.7078885000,-122.1217424000,-18.675547791046515,31.072027,0.1,314.29382,1694115434000,,,,
Fix,GT,37.7080853000,-122.1219927000,-19.092508358530587,31.035715,0.099,314.7331,1694115435000,,,,
Fix,GT,37.7082824000,-122.1222420000,-19.491487133526096,31.001787,0.1,314.69058,1694115436000,,,,
Fix,GT,37.7084787000,-122.1224917000,-19.72744065740888,30.923155,0.1,314.52023,1694115437000,,,,
Fix,GT,37.7086742000,-122.1227407000,-19.780334406934738,30.800688,0.1,314.52945,1694115438000,,,,
Fix,GT,37.7088690000,-122.1229882000,-19.709337708309725,30.666002,0.1,314.68704,1694115439000,,,,
Fix,GT,37.7090636000,-122.1232350000,-19.629345145644322,30.65149,0.1,314.54254,1694115440000,,,,
Fix,GT,37.7092576000,-122.1234825000,-19.480271994177826,30.691404,0.099,314.4458,1694115441000,,,,
Fix,GT,37.7094516000,-122.1237311000,-19.147243680345063,30.75583,0.1,314.353,1694115442000,,,,
Fix,GT,37.7096451000,-122.1239812000,-18.792232278995062,30.810268,0.1,313.87033,1694115443000,,,,
Fix,GT,37.7098349000,-122.1242361000,-18.3832068857557,30.772083,0.1,312.4095,1694115444000,,,,
Fix,GT,37.7100190000,-122.1244962000,-17.867179376098186,30.653625,0.1,310.65616,1694115445000,,,,
Fix,GT,37.7101952000,-122.1247628000,-17.32317067516058,30.507475,0.099,308.76105,1694115446000,,,,
Fix,GT,37.7103637000,-122.1250351000,-16.795178051172044,30.374357,0.099,306.88083,1694115447000,,,,
Fix,GT,37.7105252000,-122.1253130000,-16.258177409828374,30.341345,0.1,305.39722,1694115448000,,,,
Fix,GT,37.7106805000,-122.1255959000,-15.764247094742917,30.3199,0.1,303.6863,1694115449000,,,,
Fix,GT,37.7108300000,-122.1258838000,-15.4292647818063,30.325865,0.1,302.4985,1694115450000,,,,
Fix,GT,37.7109761000,-122.1261737000,-14.90708984497023,30.173895,0.1,302.18896,1694115451000,,,,
Fix,GT,37.7111209000,-122.1264607000,-14.041984914676855,29.700296,0.1,302.33664,1694115452000,,,,
Fix,GT,37.7112633000,-122.1267413000,-12.974994711953066,29.00024,0.1,302.5124,1694115453000,,,,
Fix,GT,37.7114023000,-122.1270157000,-12.02604643972508,28.48112,0.1,302.3664,1694115454000,,,,
Fix,GT,37.7115394000,-122.1272865000,-11.176063537992665,28.159658,0.1,302.41492,1694115455000,,,,
Fix,GT,37.7116759000,-122.1275540000,-10.505202497705316,27.9238,0.1,302.76285,1694115456000,,,,
Fix,GT,37.7118136000,-122.1278181000,-10.07620945451719,27.790771,0.1,303.61227,1694115457000,,,,
Fix,GT,37.7119558000,-122.1280772000,-9.593205119035222,27.750242,0.1,305.33655,1694115458000,,,,
Fix,GT,37.7121036000,-122.1283311000,-9.150205328963283,27.772259,0.1,307.0274,1694115459000,,,,
Fix,GT,37.7122586000,-122.1285785000,-8.720220204430806,27.804901,0.1,309.17133,1694115460000,,,,
Fix,GT,37.7124205000,-122.1288196000,-8.29721267893705,27.8866,0.1,310.77908,1694115461000,,,,
Fix,GT,37.7125887000,-122.1290563000,-7.901230639207692,28.117414,0.099,312.64026,1694115462000,,,,
Fix,GT,37.7127643000,-122.1292884000,-7.572263291197563,28.41814,0.1,314.2705,1694115463000,,,,
Fix,GT,37.7129475000,-122.1295158000,-7.33230725057761,28.694815,0.1,316.25272,1694115464000,,,,
Fix,GT,37.7131384000,-122.1297375000,-7.174329463289089,28.950256,0.1,318.14066,1694115465000,,,,
Fix,GT,37.7133369000,-122.1299530000,-7.0973475315622725,29.24501,0.099,319.98755,1694115466000,,,,
Fix,GT,37.7135425000,-122.1301630000,-7.01934438383569,29.530176,0.1,321.7241,1694115467000,,,,
Fix,GT,37.7137555000,-122.1303663000,-6.939340419809187,29.79899,0.1,323.5698,1694115468000,,,,
Fix,GT,37.7139750000,-122.1305631000,-6.862336839037135,29.97837,0.1,325.30902,1694115469000,,,,
Fix,GT,37.7142000000,-122.1307501000,-6.782344401424147,29.801285,0.1,327.63828,1694115470000,,,,
Fix,GT,37.7144280000,-122.1309246000,-6.716333121846173,29.418783,0.1,329.5259,1694115471000,,,,
Fix,GT,37.7146571000,-122.1310874000,-6.634329210359198,29.016056,0.1,331.4331,1694115472000,,,,
Fix,GT,37.7148880000,-122.1312386000,-6.58632575398996,28.817244,0.1,333.3212,1694115473000,,,,
Fix,GT,37.7151219000,-122.1313810000,-6.5143439346601575,28.79762,0.099,334.94476,1694115474000,,,,
Fix,GT,37.7153576000,-122.1315130000,-6.436321754375342,28.45793,0.1,336.70273,1694115475000,,,,
Fix,GT,37.7155927000,-122.1316360000,-6.258277385561965,28.043488,0.1,337.9647,1694115476000,,,,
Fix,GT,37.7158262000,-122.1317515000,-6.1894140822600985,27.685682,0.1,338.69162,1694115477000,,,,
Fix,GT,37.7160577000,-122.1318644000,-6.463514597805895,27.430162,0.1,338.79648,1694115478000,,,,
Fix,GT,37.7162873000,-122.1319755000,-6.743503714222123,27.188917,0.1,338.82462,1694115479000,,,,
Fix,GT,37.7165152000,-122.1320862000,-7.003470035238969,27.088295,0.1,338.77988,1694115480000,,,,
Fix,GT,37.7167429000,-122.1321968000,-7.180403519892071,27.075754,0.1,338.66116,1694115481000,,,,
Fix,GT,37.7169700000,-122.1323080000,-7.149310070538015,27.002003,0.1,338.53696,1694115482000,,,,
Fix,GT,37.7171961000,-122.1324192000,-6.983298810431766,26.88264,0.1,338.5401,1694115483000,,,,
Fix,GT,37.7174213000,-122.1325300000,-6.8362879317277905,26.78358,0.1,338.49,1694115484000,,,,
Fix,GT,37.7176454000,-122.1326405000,-6.613283885366777,26.59453,0.1,338.49054,1694115485000,,,,
Fix,GT,37.7178668000,-122.1327495000,-6.280205342821486,26.154942,0.1,338.66498,1694115486000,,,,
Fix,GT,37.7180841000,-122.1328566000,-5.764164093060427,25.720873,0.1,338.33725,1694115487000,,,,
Fix,GT,37.7182988000,-122.1329643000,-5.240190185568983,25.594538,0.1,338.0102,1694115488000,,,,
Fix,GT,37.7185119000,-122.1330741000,-4.772201147590598,25.512632,0.1,337.37692,1694115489000,,,,
Fix,GT,37.7187235000,-122.1331862000,-4.339242353554069,25.4578,0.1,336.80197,1694115490000,,,,
Fix,GT,37.7189341000,-122.1333012000,-3.884227230191298,25.536482,0.1,336.22736,1694115491000,,,,
Fix,GT,37.7191455000,-122.1334194000,-3.4552273175992543,25.89081,0.1,335.74536,1694115492000,,,,
Fix,GT,37.7193598000,-122.1335419000,-3.142272545819019,26.324986,0.1,335.20618,1694115493000,,,,
Fix,GT,37.7195763000,-122.1336692000,-2.8612835244863857,26.71806,0.1,334.5195,1694115494000,,,,
Fix,GT,37.7197947000,-122.1338020000,-2.674328446623593,27.123833,0.1,333.80948,1694115495000,,,,
Fix,GT,37.7200152000,-122.1339398000,-2.586354915733372,27.40207,0.1,333.27713,1694115496000,,,,
Fix,GT,37.7202343000,-122.1340801000,-2.593400207758338,27.14492,0.1,332.6198,1694115497000,,,,
Fix,GT,37.7204495000,-122.1342225000,-2.7124454068417663,26.834211,0.1,331.91553,1694115498000,,,,
Fix,GT,37.7206612000,-122.1343660000,-2.9134646284360093,26.529121,0.1,331.3168,1694115499000,,,,
Fix,GT,37.7208693000,-122.1345106000,-3.200490782443013,26.25629,0.1,330.7923,1694115500000,,,,
Fix,GT,37.7210744000,-122.1346565000,-3.5605478721772013,26.023157,0.1,330.04172,1694115501000,,,,
Fix,GT,37.7212761000,-122.1348049000,-4.034563031616756,25.826992,0.1,329.2063,1694115502000,,,,
Fix,GT,37.7214749000,-122.1349550000,-4.596604761439618,25.672632,0.1,328.87656,1694115503000,,,,
Fix,GT,37.7216724000,-122.1351054000,-5.299657918386836,25.571032,0.1,328.54562,1694115504000,,,,
Fix,GT,37.7218685000,-122.1352567000,-6.050650526324722,25.477251,0.1,328.3953,1694115505000,,,,
Fix,GT,37.7220640000,-122.1354074000,-6.8016507359405125,25.478756,0.1,328.353,1694115506000,,,,
Fix,GT,37.7222612000,-122.1355596000,-7.454552458596275,25.894136,0.1,328.4062,1694115507000,,,,
Fix,GT,37.7224610000,-122.1357140000,-7.835480431298182,26.002419,0.1,328.28604,1694115508000,,,,
Fix,GT,37.7226597000,-122.1358675000,-8.03041183097818,25.759968,0.1,328.19482,1694115509000,,,,
Fix,GT,37.7228571000,-122.1360213000,-8.027342688891407,25.818548,0.1,328.14944,1694115510000,,,,
Fix,GT,37.7230559000,-122.1361754000,-7.985339041220664,26.043743,0.1,328.3561,1694115511000,,,,
Fix,GT,37.7232572000,-122.1363301000,-7.975365590052746,26.30174,0.1,328.5994,1694115512000,,,,
Fix,GT,37.7234611000,-122.1364854000,-8.023423465005967,26.60616,0.1,328.7383,1694115513000,,,,
Fix,GT,37.7236680000,-122.1366417000,-8.16240401190894,26.934992,0.1,329.15665,1694115514000,,,,
Fix,GT,37.7238790000,-122.1367923000,-8.12427782524027,26.79891,0.1,331.47278,1694115515000,,,,
Fix,GT,37.7240920000,-122.1369307000,-7.819232525686445,26.48628,0.1,333.6456,1694115516000,,,,
Fix,GT,37.7243081000,-122.1370584000,-7.356155537180994,26.51978,0.1,335.71783,1694115517000,,,,
Fix,GT,37.7245280000,-122.1371760000,-6.720089724244822,26.493303,0.1,337.93808,1694115518000,,,,
Fix,GT,37.7247507000,-122.1372826000,-5.9310435930183685,26.416967,0.1,340.09937,1694115519000,,,,
Fix,GT,37.7249759000,-122.1373786000,-5.128054720475065,26.333704,0.1,342.1322,1694115520000,,,,
Fix,GT,37.7252026000,-122.1374644000,-4.333058293845306,26.25467,0.1,344.05252,1694115521000,,,,
Fix,GT,37.7254312000,-122.1375400000,-3.6181277041439976,26.223877,0.1,346.28732,1694115522000,,,,
Fix,GT,37.7256620000,-122.1376038000,-2.9871581790500352,26.214033,0.1,348.5011,1694115523000,,,,
Fix,GT,37.7258944000,-122.1376570000,-2.4491695448178,26.229557,0.1,350.6167,1694115524000,,,,
Fix,GT,37.7261281000,-122.1377011000,-1.8701385695866175,26.234102,0.099,351.94623,1694115525000,,,,
Fix,GT,37.7263625000,-122.1377389000,-1.3231962879035706,26.25247,0.1,353.08392,1694115526000,,,,
Fix,GT,37.7265977000,-122.1377738000,-0.9602540300788048,26.328306,0.1,353.0945,1694115527000,,,,
Fix,GT,37.7268336000,-122.1378097000,-0.5991882907112235,26.390413,0.1,352.96683,1694115528000,,,,
Fix,GT,37.7270694000,-122.1378455000,-0.09215716675739105,26.311354,0.1,353.0569,1694115529000,,,,
Fix,GT,37.7273041000,-122.1378805000,0.557889448540946,26.157532,0.1,353.15375,1694115530000,,,,
Fix,GT,37.7275374000,-122.1379159000,1.261866481516071,26.001787,0.1,352.97086,1694115531000,,,,
Fix,GT,37.7277682000,-122.1379517000,1.8498432959238005,25.616587,0.1,352.69577,1694115532000,,,,
Fix,GT,37.7279966000,-122.1379890000,2.3157658600471205,25.512766,0.1,352.2805,1694115533000,,,,
Fix,GT,37.7282249000,-122.1380293000,2.661696193498652,25.714176,0.1,351.62415,1694115534000,,,,
Fix,GT,37.7284551000,-122.1380732000,2.8476960624898293,25.974255,0.1,351.00174,1694115535000,,,,
Fix,GT,37.7286875000,-122.1381208000,2.9656767784980875,26.276838,0.1,350.3229,1694115536000,,,,
Fix,GT,37.7289214000,-122.1381734000,2.9776222960534917,26.339958,0.099,349.23853,1694115537000,,,,
Fix,GT,37.7291529000,-122.1382308000,2.914583179944584,26.033667,0.1,348.3584,1694115538000,,,,
Fix,GT,37.7293809000,-122.1382908000,2.7645245215138745,25.685549,0.1,347.9268,1694115539000,,,,
Fix,GT,37.7296057000,-122.1383520000,2.4854934854557627,25.397415,0.1,347.48477,1694115540000,,,,
Fix,GT,37.7298279000,-122.1384140000,2.207567622090321,25.110647,0.1,347.22363,1694115541000,,,,
Fix,GT,37.7300472000,-122.1384760000,2.0235793107774747,24.777802,0.1,347.33878,1694115542000,,,,
Fix,GT,37.7302641000,-122.1385370000,1.9616026287150063,24.619457,0.1,347.1858,1694115543000,,,,
Fix,GT,37.7304806000,-122.1385985000,1.8926025450149566,24.661163,0.1,347.1855,1694115544000,,,,
Fix,GT,37.7306975000,-122.1386596000,1.909618313942922,24.69662,0.1,347.1356,1694115545000,,,,
Fix,GT,37.7309148000,-122.1387220000,1.8576143748108613,24.776865,0.1,346.8982,1694115546000,,,,
Fix,GT,37.7311325000,-122.1387854000,1.8675985811963702,24.827538,0.1,346.78067,1694115547000,,,,
Fix,GT,37.7313496000,-122.1388480000,1.8516535481761571,24.571276,0.1,347.07535,1694115548000,,,,
Fix,GT,37.7315639000,-122.1389088000,1.800630019528162,24.212717,0.1,347.22546,1694115549000,,,,
Fix,GT,37.7317753000,-122.1389685000,1.7686142681805017,23.879276,0.1,347.25272,1694115550000,,,,
Fix,GT,37.7319838000,-122.1390271000,1.7426221429158488,23.578947,0.1,347.24527,1694115551000,,,,
Fix,GT,37.7321920000,-122.1390857000,1.7186142429679703,23.8455,0.1,347.41486,1694115552000,,,,
Fix,GT,37.7324036000,-122.1391440000,1.6786221041149663,24.199331,0.1,347.68634,1694115553000,,,,
Fix,GT,37.7326183000,-122.1392011000,1.654614309588236,24.54769,0.1,348.1548,1694115554000,,,,
Fix,GT,37.7328360000,-122.1392569000,1.6226221468874864,24.693573,0.1,348.5724,1694115555000,,,,
Fix,GT,37.7330545000,-122.1393106000,1.5936062414353125,24.71284,0.1,349.03036,1694115556000,,,,
Fix,GT,37.7332734000,-122.1393624000,1.568622082458534,24.760502,0.1,349.4033,1694115557000,,,,
Fix,GT,37.7334932000,-122.1394128000,1.52261806914149,24.833027,0.1,349.6724,1694115558000,,,,
Fix,GT,37.7337136000,-122.1394627000,1.4876181238776232,24.874413,0.1,349.5697,1694115559000,,,,
Fix,GT,37.7339342000,-122.1395132000,1.4636379178569057,24.815956,0.1,349.4859,1694115560000,,,,
Fix,GT,37.7341530000,-122.1395636000,1.4996775518633836,24.620718,0.1,349.58228,1694115561000,,,,
Fix,GT,37.7343713000,-122.1396132000,1.682828580337019,24.59975,0.1,349.7209,1694115562000,,,,
Fix,GT,37.7345897000,-122.1396622000,1.9238088425085402,24.658064,0.1,349.79913,1694115563000,,,,
Fix,GT,37.7348087000,-122.1397119000,2.2586896633494637,24.74696,0.1,349.47562,1694115564000,,,,
Fix,GT,37.7350285000,-122.1397623000,2.584761391717251,24.848951,0.1,349.63226,1694115565000,,,,
Fix,GT,37.7352498000,-122.1398126000,2.9708173271109164,25.074081,0.099,349.5918,1694115566000,,,,
Fix,GT,37.7354726000,-122.1398642000,3.4838454474612135,25.2055,0.1,349.40717,1694115567000,,,,
Fix,GT,37.7356966000,-122.1399165000,4.005833372051077,25.348122,0.1,349.44205,1694115568000,,,,
Fix,GT,37.7359212000,-122.1399702000,4.524837745877928,25.390173,0.1,349.06503,1694115569000,,,,
Fix,GT,37.7361457000,-122.1400264000,5.0418300258944075,25.428886,0.1,348.0876,1694115570000,,,,
Fix,GT,37.7363689000,-122.1400925000,5.518801794214667,25.481165,0.1,345.54453,1694115571000,,,,
Fix,GT,37.7365902000,-122.1401711000,5.880770132589937,25.581127,0.1,342.98346,1694115572000,,,,
Fix,GT,37.7368093000,-122.1402631000,6.204745982698245,25.68531,0.1,340.06277,1694115573000,,,,
Fix,GT,37.7370249000,-122.1403702000,6.528766657675043,25.78291,0.1,337.01837,1694115574000,,,,
Fix,GT,37.7372370000,-122.1404910000,6.798706465615071,25.90017,0.1,334.57364,1694115575000,,,,
Fix,GT,37.7374462000,-122.1406229000,7.024710233065974,26.02512,0.099,332.0673,1694115576000,,,,
Fix,GT,37.7376511000,-122.1407679000,7.1225619479151625,26.130455,0.1,329.10394,1694115577000,,,,
Fix,GT,37.7378503000,-122.1409269000,7.145594152503181,26.23945,0.1,326.2498,1694115578000,,,,
Fix,GT,37.7380443000,-122.1410985000,7.084573527629079,26.402088,0.099,323.56723,1694115579000,,,,
Fix,GT,37.7382336000,-122.1412817000,6.923549836218335,26.58415,0.1,321.0647,1694115580000,,,,
Fix,GT,37.7384161000,-122.1414774000,6.6414811526454365,26.58097,0.1,318.23056,1694115581000,,,,
Fix,GT,37.7385906000,-122.1416829000,6.1334204809839825,26.450275,0.1,315.6993,1694115582000,,,,
Fix,GT,37.7387594000,-122.1418936000,5.563339741968748,26.318521,0.1,315.0603,1694115583000,,,,
Fix,GT,37.7389266000,-122.1421045000,4.867315028886333,26.228764,0.1,314.81454,1694115584000,,,,
Fix,GT,37.7390942000,-122.1423151000,4.076286737303431,26.43018,0.1,315.3864,1694115585000,,,,
Fix,GT,37.7392682000,-122.1425253000,3.1712497193969575,27.188705,0.1,316.62207,1694115586000,,,,
Fix,GT,37.7394503000,-122.1427393000,2.157196913332142,27.866684,0.1,316.97507,1694115587000,,,,
Fix,GT,37.7396347000,-122.1429543000,1.0811642211906847,27.925016,0.1,317.11508,1694115588000,,,,
Fix,GT,37.7398203000,-122.1431684000,-0.035795592390621855,27.932901,0.1,317.55222,1694115589000,,,,
Fix,GT,37.7400077000,-122.1433800000,-1.0827716020688922,27.938421,0.1,318.52094,1694115590000,,,,
Fix,GT,37.7401993000,-122.1435849000,-2.0136907118833505,27.861107,0.1,320.79764,1694115591000,,,,
Fix,GT,37.7403978000,-122.1437771000,-2.6625977037309037,27.710342,0.1,323.8123,1694115592000,,,,
Fix,GT,37.7406020000,-122.1439558000,-3.072451395652251,27.472967,0.1,325.92184,1694115593000,,,,
Fix,GT,37.7408084000,-122.1441242000,-3.1223493346429474,27.113972,0.1,328.03412,1694115594000,,,,
Fix,GT,37.7410159000,-122.1442824000,-3.002288392145177,26.718508,0.1,329.088,1694115595000,,,,
Fix,GT,37.7412215000,-122.1444354000,-2.741207161297334,26.35612,0.1,329.42163,1694115596000,,,,
Fix,GT,37.7414257000,-122.1445873000,-2.401223252428413,26.315517,0.1,329.30267,1694115597000,,,,
Fix,GT,37.7416297000,-122.1447394000,-2.0592395002833026,26.2966,0.1,329.3692,1694115598000,,,,
Fix,GT,37.7418337000,-122.1448912000,-1.7202637242922618,26.39646,0.1,329.35013,1694115599000,,,,
Fix,GT,37.7420395000,-122.1450467000,-1.3662310111247606,26.863792,0.1,328.6235,1694115600000,,,,
Fix,GT,37.7422470000,-122.1452083000,-1.0392349953517026,27.301815,0.1,327.6982,1694115601000,,,,
Fix,GT,37.7424533000,-122.1453797000,-0.7382880831119796,27.402155,0.1,325.37173,1694115602000,,,,
Fix,GT,37.7426524000,-122.1455596000,-0.5693126987781293,27.01701,0.1,323.31628,1694115603000,,,,
Fix,GT,37.7428439000,-122.1457473000,-0.4263084705769913,26.920141,0.1,320.79916,1694115604000,,,,
Fix,GT,37.7430287000,-122.1459467000,-0.27027976090874456,27.124537,0.1,317.94702,1694115605000,,,,
Fix,GT,37.7432072000,-122.1461584000,0.03578191430710426,27.304688,0.1,315.38922,1694115606000,,,,
Fix,GT,37.7433791000,-122.1463811000,0.37774914815067134,27.451124,0.1,313.03366,1694115607000,,,,
Fix,GT,37.7435460000,-122.1466114000,0.7548232051050174,27.455402,0.1,311.7168,1694115608000,,,,
Fix,GT,37.7437090000,-122.1468428000,1.2878852149362412,27.015068,0.1,311.5493,1694115609000,,,,
Fix,GT,37.7438700000,-122.1470683000,1.971926493656759,26.424252,0.1,311.87708,1694115610000,,,,
Fix,GT,37.7440276000,-122.1472883000,2.718942968116819,25.817938,0.1,311.98212,1694115611000,,,,
Fix,GT,37.7441822000,-122.1475026000,3.4599186943727447,25.212572,0.1,312.15958,1694115612000,,,,
Fix,GT,37.7443349000,-122.1477106000,4.195939690682849,24.792664,0.1,312.97678,1694115613000,,,,
Fix,GT,37.7444898000,-122.1479107000,5.004997679919245,24.473183,0.1,315.35364,1694115614000,,,,
Fix,GT,37.7446493000,-122.1481001000,5.856977645066715,24.237314,0.1,317.48724,1694115615000,,,,
Fix,GT,37.7448133000,-122.1482805000,6.65392809957866,24.138407,0.1,319.88495,1694115616000,,,,
Fix,GT,37.7449840000,-122.1484528000,7.351870480618287,24.461016,0.1,322.2903,1694115617000,,,,
Fix,GT,37.7451631000,-122.1486182000,7.977808236673781,24.888905,0.1,324.78918,1694115618000,,,,
Fix,GT,37.7453511000,-122.1487763000,8.557833472751089,25.32654,0.1,327.09717,1694115619000,,,,
Fix,GT,37.7455461000,-122.1489263000,9.038834015247268,25.21814,0.1,329.68167,1694115620000,,,,
Fix,GT,37.7457433000,-122.1490630000,9.443771454580633,24.749475,0.1,332.27847,1694115621000,,,,
Fix,GT,37.7459416000,-122.1491864000,9.736746572701477,24.47556,0.1,334.57245,1694115622000,,,,
Fix,GT,37.7461435000,-122.1493005000,10.0337801407432,24.63357,0.1,336.4973,1694115623000,,,,
Fix,GT,37.7463490000,-122.1494076000,10.504837917240492,24.748829,0.099,338.09796,1694115624000,,,,
Fix,GT,37.7465575000,-122.1495094000,10.934742932112961,24.906607,0.1,339.14502,1694115625000,,,,
Fix,GT,37.7467679000,-122.1496110000,11.106680124411525,25.135635,0.1,338.6878,1694115626000,,,,
Fix,GT,37.7469799000,-122.1497148000,11.22868034942686,25.34797,0.1,338.61337,1694115627000,,,,
Fix,GT,37.7471937000,-122.1498195000,11.349688690976691,25.568068,0.099,338.6547,1694115628000,,,,
Fix,GT,37.7474090000,-122.1499244000,11.528713917809462,25.582153,0.1,338.8009,1694115629000,,,,
Fix,GT,37.7476229000,-122.1500285000,11.774764074951412,25.379839,0.1,338.6523,1694115630000,,,,
Fix,GT,37.7478361000,-122.1501327000,12.105788878536163,25.419514,0.1,338.63937,1694115631000,,,,
Fix,GT,37.7480504000,-122.1502374000,12.523822328899726,25.601162,0.1,338.672,1694115632000,,,,
Fix,GT,37.7482660000,-122.1503427000,13.03086051771205,25.75198,0.1,338.73862,1694115633000,,,,
Fix,GT,37.7484830000,-122.1504481000,13.612893593639107,25.846357,0.1,338.7829,1694115634000,,,,
Fix,GT,37.7486996000,-122.1505536000,14.28591970203134,25.574709,0.1,338.62128,1694115635000,,,,
Fix,GT,37.7489120000,-122.1506571000,15.002932221391418,24.984243,0.1,338.70374,1694115636000,,,,
Fix,GT,37.7491196000,-122.1507583000,15.700915906609191,24.502264,0.1,338.68408,1694115637000,,,,
Fix,GT,37.7493249000,-122.1508591000,16.38491564211627,24.43972,0.1,338.46783,1694115638000,,,,
Fix,GT,37.7495298000,-122.1509600000,17.077925217717066,24.398592,0.1,338.60422,1694115639000,,,,
Fix,GT,37.7497345000,-122.1510606000,17.747917439813307,24.36789,0.1,338.48505,1694115640000,,,,
Fix,GT,37.7499378000,-122.1511605000,18.334804167209533,24.028635,0.1,338.66125,1694115641000,,,,
Fix,GT,37.7501385000,-122.1512565000,18.69777761098371,23.59838,0.1,339.37344,1694115642000,,,,
Fix,GT,37.7503363000,-122.1513469000,19.014755693756033,23.136053,0.099,340.2488,1694115643000,,,,
Fix,GT,37.7505322000,-122.1514286000,19.370824814010074,22.640503,0.1,343.1118,1694115644000,,,,
Fix,GT,37.7507276000,-122.1514903000,19.86081992969451,22.102053,0.1,348.0149,1694115645000,,,,
Fix,GT,37.7509217000,-122.1515320000,20.289779448517145,21.612593,0.1,351.82468,1694115646000,,,,
Fix,GT,37.7511131000,-122.1515580000,20.627778092618293,21.158712,0.099,354.86682,1694115647000,,,,
Fix,GT,37.7513014000,-122.1515735000,20.920765401936595,20.722788,0.1,356.86893,1694115648000,,,,
Fix,GT,37.7514861000,-122.1515814000,21.1907568634461,20.303513,0.1,358.6045,1694115649000,,,,
Fix,GT,37.7516672000,-122.1515816000,21.443736435178455,19.890093,0.1,0.8596067,1694115650000,,,,
Fix,GT,37.7518438000,-122.1515718000,21.663675784361338,19.396338,0.099,3.4287496,1694115651000,,,,
Fix,GT,37.7520160000,-122.1515519000,21.830701987281735,19.009184,0.1,6.1798115,1694115652000,,,,
Fix,GT,37.7521842000,-122.1515240000,21.878663707055157,18.665855,0.1,8.104894,1694115653000,,,,
Fix,GT,37.7523487000,-122.1514895000,21.78350642850761,18.246283,0.099,10.2952585,1694115654000,,,,
Fix,GT,37.7525051000,-122.1514475000,21.507518569922624,17.16648,0.1,13.102813,1694115655000,,,,
Fix,GT,37.7526489000,-122.1513997000,21.017403745747387,15.734735,0.1,15.8681965,1694115656000,,,,
Fix,GT,37.7527766000,-122.1513484000,20.452397052782246,13.914845,0.1,18.52013,1694115657000,,,,
Fix,GT,37.7528825000,-122.1512992000,19.86841239771283,11.140825,0.1,20.861982,1694115658000,,,,
Fix,GT,37.7529636000,-122.1512562000,19.33939060304084,8.4361515,0.099,23.515465,1694115659000,,,,
Fix,GT,37.7530239000,-122.1512207000,18.87044202328815,6.454508,0.1,25.207603,1694115660000,,,,
Fix,GT,37.7530704000,-122.1511915000,18.46448004597407,5.134001,0.1,26.415594,1694115661000,,,,
Fix,GT,37.7531087000,-122.1511665000,18.13049369482564,4.773609,0.1,27.191359,1694115662000,,,,
Fix,GT,37.7531486000,-122.1511402000,17.801475480600256,5.232973,0.099,27.662645,1694115663000,,,,
Fix,GT,37.7531945000,-122.1511088000,17.455505040019748,6.1841464,0.1,28.67583,1694115664000,,,,
Fix,GT,37.7532438000,-122.1510733000,17.18554463775936,6.380783,0.1,29.914467,1694115665000,,,,
Fix,GT,37.7532933000,-122.1510361000,17.029570530596146,6.4230766,0.1,31.054865,1694115666000,,,,
Fix,GT,37.7533437000,-122.1509973000,16.967647815622094,6.7003245,0.1,31.19526,1694115667000,,,,
Fix,GT,37.7533977000,-122.1509624000,17.002677918282252,6.6568637,0.1,24.407967,1694115668000,,,,
Fix,GT,37.7534547000,-122.1509448000,17.089659977959183,6.367028,0.1,10.620603,1694115669000,,,,
Fix,GT,37.7535109000,-122.1509475000,17.09562661691337,6.135864,0.1,353.96994,1694115670000,,,,
Fix,GT,37.7535611000,-122.1509734000,17.076599958927837,6.0701594,0.1,333.50757,1694115671000,,,,
Fix,GT,37.7536047000,-122.1510209000,17.008626391388077,6.821888,0.1,315.33237,1694115672000,,,,
Fix,GT,37.7536443000,-122.1510872000,16.89654789499305,7.7652907,0.1,305.17365,1694115673000,,,,
Fix,GT,37.7536847000,-122.1511645000,16.778590615090128,8.536243,0.1,303.17514,1694115674000,,,,
Fix,GT,37.7537293000,-122.1512486000,16.677581627705,9.235442,0.1,303.7643,1694115675000,,,,
Fix,GT,37.7537768000,-122.1513365000,16.553600565278543,9.386941,0.1,304.15488,1694115676000,,,,
Fix,GT,37.7538239000,-122.1514246000,16.424543220567134,9.321461,0.1,303.12094,1694115677000,,,,
Fix,GT,37.7538651000,-122.1515162000,16.30857341271263,9.246274,0.099,297.13275,1694115678000,,,,
Fix,GT,37.7539011000,-122.1516102000,16.183608655097018,9.004431,0.1,295.52917,1694115679000,,,,
Fix,GT,37.7539372000,-122.1516949000,16.086599383899802,7.818195,0.1,299.3149,1694115680000,,,,
Fix,GT,37.7539704000,-122.1517618000,16.00060759525057,6.0224495,0.1,302.5782,1694115681000,,,,
Fix,GT,37.7539950000,-122.1518073000,15.931595588544795,3.635688,0.1,304.02982,1694115682000,,,,
Fix,GT,37.7540082000,-122.1518313000,15.900620848503795,1.7362112,0.099,304.16275,1694115683000,,,,
Fix,GT,37.7540137000,-122.1518417000,15.877630085892694,0.44493288,0.099,304.04977,1694115684000,,,,
Fix,GT,37.7540140000,-122.1518424000,15.872625629577701,0.0035942236,0.1,304.04163,1694115685000,,,,
Fix,GT,37.7540140000,-122.1518424000,15.872630296714195,0.0014142136,0.1,304.04242,1694115686000,,,,
Fix,GT,37.7540140000,-122.1518424000,15.868625765609501,0.0009956463,0.1,304.04074,1694115687000,,,,
Fix,GT,37.7540140000,-122.1518424000,15.862629919988345,0.0,0.1,304.04022,1694115688000,,,,
Fix,GT,37.7540140000,-122.1518424000,15.862625880203973,0.0009956403,0.1,304.0403,1694115689000,,,,
Fix,GT,37.7540140000,-122.1518424000,15.861630476689037,0.0,0.1,304.04037,1694115690000,,,,
Fix,GT,37.7540140000,-122.1518424000,15.862629462018361,0.0,0.099,304.04004,1694115691000,,,,
Fix,GT,37.7540140000,-122.1518424000,15.861630491461332,0.0,0.1,304.04025,1694115692000,,,,
Fix,GT,37.7540140000,-122.1518424000,15.861630026134055,0.000995628,0.1,304.04044,1694115693000,,,,
Fix,GT,37.7540140000,-122.1518423000,15.861630506233626,0.001,0.1,304.04037,1694115694000,,,,
Fix,GT,37.7540140000,-122.1518423000,15.860629791672904,0.013511301,0.1,304.0407,1694115695000,,,,
Fix,GT,37.7540159000,-122.1518457000,15.842617632241812,0.9826611,0.1,303.99915,1694115696000,,,,
Fix,GT,37.7540258000,-122.1518643000,15.797612538392428,2.9000525,0.1,303.84155,1694115697000,,,,
Fix,GT,37.7540447000,-122.1519004000,15.742590606626537,4.655725,0.1,303.21085,1694115698000,,,,
Fix,GT,37.7540686000,-122.1519551000,15.617595283387525,6.354065,0.1,296.7319,1694115699000,,,,
Fix,GT,37.7540851000,-122.1520323000,15.501625221701321,7.6412706,0.099,280.21646,1694115700000,,,,
Fix,GT,37.7540776000,-122.1521222000,15.512714092634356,8.363375,0.1,257.55893,1694115701000,,,,
Fix,GT,37.7540477000,-122.1522160000,15.691788545117971,9.569998,0.1,245.11998,1694115702000,,,,
Fix,GT,37.7540012000,-122.1523160000,16.040842100505117,10.789566,0.1,237.77942,1694115703000,,,,
Fix,GT,37.7539433000,-122.1524219000,16.70097837772481,11.821439,0.1,234.05797,1694115704000,,,,
Fix,GT,37.7538693000,-122.1525246000,17.590066584711106,12.572434,0.1,223.18008,1694115705000,,,,
Fix,GT,37.7537832000,-122.1526140000,18.50601927402374,12.082169,0.1,218.1359,1694115706000,,,,
Fix,GT,37.7536998000,-122.1526917000,19.35996571654939,10.677436,0.099,215.37344,1694115707000,,,,
Fix,GT,37.7536270000,-122.1527513000,20.11492172759634,8.747674,0.1,211.53777,1694115708000,,,,
Fix,GT,37.7535648000,-122.1527962000,20.759917576129546,7.1969776,0.1,209.23656,1694115709000,,,,
Fix,GT,37.7535132000,-122.1528308000,21.296877984616913,5.8785176,0.099,207.7447,1694115710000,,,,
Fix,GT,37.7534706000,-122.1528587000,21.791829023400965,4.7764153,0.1,207.0736,1694115711000,,,,
Fix,GT,37.7534322000,-122.1528826000,22.2508458630754,4.7326035,0.1,205.52162,1694115712000,,,,
Fix,GT,37.7533964000,-122.1529014000,22.67079378742465,3.838923,0.1,201.48647,1694115713000,,,,
Fix,GT,37.7533667000,-122.1529087000,22.995758269032894,2.9137278,0.099,191.46599,1694115714000,,,,
Fix,GT,37.7533410000,-122.1529047000,23.209711148769017,3.3018677,0.1,175.83081,1694115715000,,,,
Fix,GT,37.7533054000,-122.1528833000,23.565767498213567,5.37178,0.1,153.9421,1694115716000,,,,
Fix,GT,37.7532626000,-122.1528329000,23.704665991841992,7.5849657,0.1,134.84006,1694115717000,,,,
Fix,GT,37.7532150000,-122.1527551000,23.731626420341914,9.7451935,0.1,126.14078,1694115718000,,,,
Fix,GT,37.7531572000,-122.1526574000,23.653567052444878,11.630726,0.1,126.87946,1694115719000,,,,
Fix,GT,37.7530853000,-122.1525476000,23.652687153505255,13.401052,0.099,131.33545,1694115720000,,,,
Fix,GT,37.7529930000,-122.1524378000,24.021861492733997,14.782056,0.1,139.70702,1694115721000,,,,
Fix,GT,37.7528783000,-122.1523391000,24.620960013084108,16.041922,0.1,149.40877,1694115722000,,,,
Fix,GT,37.7527438000,-122.1522573000,25.227880989946243,17.178343,0.1,157.14133,1694115723000,,,,
Fix,GT,37.7525925000,-122.1521904000,25.759805075027444,18.433336,0.1,162.43729,1694115724000,,,,
Fix,GT,37.7524255000,-122.1521406000,26.080736529893095,19.702595,0.099,170.01721,1694115725000,,,,
Fix,GT,37.7522434000,-122.1521177000,26.17651807605288,20.91248,0.1,177.77655,1694115726000,,,,
Fix,GT,37.7520497000,-122.1521121000,25.811446867396,22.074646,0.1,179.43726,1694115727000,,,,
Fix,GT,37.7518462000,-122.1521111000,25.49650495288966,23.124367,0.1,179.557,1694115728000,,,,
Fix,GT,37.7516333000,-122.1521042000,25.172526620864332,24.149458,0.099,177.24055,1694115729000,,,,
Fix,GT,37.7514117000,-122.1520838000,24.721388038899377,25.172672,0.1,174.28859,1694115730000,,,,
Fix,GT,37.7511826000,-122.1520464000,24.294397044109843,26.100704,0.1,171.07974,1694115731000,,,,
Fix,GT,37.7509470000,-122.1519916000,23.740336705752,27.080063,0.1,167.9622,1694115732000,,,,
Fix,GT,37.7507039000,-122.1519195000,23.09827148932709,28.529814,0.1,165.40727,1694115733000,,,,
Fix,GT,37.7504502000,-122.1518263000,22.35820704811264,30.1737,0.1,161.90237,1694115734000,,,,
Fix,GT,37.7501870000,-122.1517072000,21.195000638343743,31.863056,0.1,158.52737,1694115735000,,,,
Fix,GT,37.7499197000,-122.1515690000,19.779940575989762,32.18488,0.1,157.06711,1694115736000,,,,
Fix,GT,37.7496518000,-122.1514268000,18.341999374599943,32.294525,0.1,157.55766,1694115737000,,,,
Fix,GT,37.7493821000,-122.1512896000,17.10617444915524,32.26265,0.1,158.13916,1694115738000,,,,
Fix,GT,37.7491123000,-122.1511556000,16.19423733131419,32.117237,0.1,158.57368,1694115739000,,,,
Fix,GT,37.7488432000,-122.1510243000,15.297210591806852,31.949926,0.1,158.6482,1694115740000,,,,
Fix,GT,37.7485754000,-122.1508937000,14.385209646950857,31.788034,0.1,158.74553,1694115741000,,,,
Fix,GT,37.7483087000,-122.1507638000,13.560299849564744,31.71415,0.1,158.64375,1694115742000,,,,
Fix,GT,37.7480427000,-122.1506332000,12.856340697185292,31.656368,0.1,158.50876,1694115743000,,,,
Fix,GT,37.7477772000,-122.1505027000,12.295403908796477,31.598785,0.1,158.58089,1694115744000,,,,
Fix,GT,37.7475122000,-122.1503729000,11.8474627178411,31.50627,0.1,158.69691,1694115745000,,,,
Fix,GT,37.7472481000,-122.1502443000,11.530502914384439,31.38533,0.1,158.7796,1694115746000,,,,
Fix,GT,37.7469850000,-122.1501161000,11.339539710076656,31.201197,0.1,158.67863,1694115747000,,,,
Fix,GT,37.7467240000,-122.1499891000,11.199606747267694,30.907597,0.1,158.77596,1694115748000,,,,
Fix,GT,37.7464661000,-122.1498631000,11.399776163155384,30.477566,0.1,158.6929,1694115749000,,,,
Fix,GT,37.7462124000,-122.1497376000,11.690761922435993,30.041126,0.1,158.20949,1694115750000,,,,
Fix,GT,37.7459642000,-122.1496072000,11.870603086449764,29.661386,0.1,156.3666,1694115751000,,,,
Fix,GT,37.7457231000,-122.1494659000,11.639470984775762,29.403234,0.1,153.5225,1694115752000,,,,
Fix,GT,37.7454895000,-122.1493110000,11.18041095619113,29.223227,0.1,150.82082,1694115753000,,,,
Fix,GT,37.7452632000,-122.1491432000,10.742420210768504,29.05174,0.1,147.9713,1694115754000,,,,
Fix,GT,37.7450446000,-122.1489634000,10.167310687837508,28.92737,0.099,145.66185,1694115755000,,,,
Fix,GT,37.7448334000,-122.1487720000,9.512265014464402,28.81924,0.1,142.67232,1694115756000,,,,
Fix,GT,37.7446308000,-122.1485682000,8.749259824590222,28.762117,0.1,140.02412,1694115757000,,,,
Fix,GT,37.7444356000,-122.1483537000,7.887168192538583,28.743393,0.1,137.74156,1694115758000,,,,
Fix,GT,37.7442481000,-122.1481290000,6.924145146524589,28.748861,0.1,134.71565,1694115759000,,,,
Fix,GT,37.7440687000,-122.1478932000,5.673025934541832,28.835201,0.099,132.76411,1694115760000,,,,
Fix,GT,37.7438935000,-122.1476504000,4.241956643747099,28.982391,0.099,131.75415,1694115761000,,,,
Fix,GT,37.7437195000,-122.1474041000,2.7859931900611508,29.131403,0.1,131.48302,1694115762000,,,,
Fix,GT,37.7435446000,-122.1471567000,1.344992501697892,29.256426,0.1,131.66862,1694115763000,,,,
Fix,GT,37.7433678000,-122.1469096000,0.07607473190054515,29.352108,0.1,132.08076,1694115764000,,,,
Fix,GT,37.7431890000,-122.1466644000,-1.0298383254762282,29.335981,0.1,132.76135,1694115765000,,,,
Fix,GT,37.7430060000,-122.1464250000,-1.7905860408089924,29.197075,0.1,135.19081,1694115766000,,,,
Fix,GT,37.7428150000,-122.1461993000,-2.169466672492109,28.94671,0.1,138.09212,1694115767000,,,,
Fix,GT,37.7426177000,-122.1459873000,-2.3344345792711487,28.638897,0.1,140.78064,1694115768000,,,,
Fix,GT,37.7424141000,-122.1457908000,-2.4744621148822064,28.32123,0.1,144.05858,1694115769000,,,,
Fix,GT,37.7422052000,-122.1456095000,-2.5733607722311445,27.998602,0.1,146.47394,1694115770000,,,,
Fix,GT,37.7419927000,-122.1454408000,-2.4953330360132027,27.80546,0.1,148.55437,1694115771000,,,,
Fix,GT,37.7417780000,-122.1452795000,-2.4123425074789537,27.701931,0.1,149.41006,1694115772000,,,,
Fix,GT,37.7415633000,-122.1451201000,-2.331342162862174,27.612223,0.1,149.22383,1694115773000,,,,
Fix,GT,37.7413498000,-122.1449603000,-2.256333074931064,27.526794,0.1,149.10606,1694115774000,,,,
Fix,GT,37.7411375000,-122.1448000000,-2.171323768756685,27.428246,0.1,148.97603,1694115775000,,,,
Fix,GT,37.7409258000,-122.1446406000,-2.057286874298705,27.313147,0.099,149.23598,1694115776000,,,,
Fix,GT,37.7407149000,-122.1444816000,-1.8262264447311223,27.313942,0.1,148.7748,1694115777000,,,,
Fix,GT,37.7405049000,-122.1443176000,-1.426143118030339,27.51683,0.1,147.39734,1694115778000,,,,
Fix,GT,37.7402977000,-122.1441447000,-0.9301429060314422,27.662764,0.1,145.4737,1694115779000,,,,
Fix,GT,37.7400953000,-122.1439607000,-0.37109177293534695,27.744106,0.1,142.64922,1694115780000,,,,
Fix,GT,37.7399004000,-122.1437635000,0.30395019530472006,27.74585,0.1,139.59592,1694115781000,,,,
Fix,GT,37.7397135000,-122.1435545000,1.0099225238903973,27.74675,0.1,137.27525,1694115782000,,,,
Fix,GT,37.7395335000,-122.1433360000,1.6129134591733996,27.746155,0.1,134.99396,1694115783000,,,,
Fix,GT,37.7393591000,-122.1431136000,2.2009042878192986,27.312298,0.1,134.44005,1694115784000,,,,
Fix,GT,37.7391873000,-122.1428950000,2.7788996765521192,26.97041,0.1,134.79477,1694115785000,,,,
Fix,GT,37.7390161000,-122.1426792000,3.3458630025405682,26.78513,0.1,134.85135,1694115786000,,,,
Fix,GT,37.7388461000,-122.1424649000,3.8158350008954063,26.637379,0.1,134.78291,1694115787000,,,,
Fix,GT,37.7386770000,-122.1422513000,4.192774434780333,26.529936,0.1,134.72873,1694115788000,,,,
Fix,GT,37.7385082000,-122.1420389000,4.4907328889923175,26.43876,0.1,134.95561,1694115789000,,,,
Fix,GT,37.7383381000,-122.1418294000,4.65668617154066,26.401217,0.1,136.37094,1694115790000,,,,
Fix,GT,37.7381615000,-122.1416290000,4.817723830901419,26.374916,0.1,139.21666,1694115791000,,,,
Fix,GT,37.7379772000,-122.1414404000,5.0396814798389125,26.368622,0.1,142.29475,1694115792000,,,,
Fix,GT,37.7377851000,-122.1412636000,5.1566816192709535,26.442343,0.1,145.00388,1694115793000,,,,
Fix,GT,37.7375854000,-122.1410990000,5.194597518769266,26.579733,0.1,148.37279,1694115794000,,,,
Fix,GT,37.7373777000,-122.1409472000,5.1195648525663495,26.725128,0.1,151.02953,1694115795000,,,,
Fix,GT,37.7371631000,-122.1408077000,4.938578636354354,26.90007,0.1,153.76985,1694115796000,,,,
Fix,GT,37.7369419000,-122.1406806000,4.668503498840302,27.102976,0.1,156.84372,1694115797000,,,,
Fix,GT,37.7367136000,-122.1405671000,4.322446874903881,27.400406,0.099,159.65233,1694115798000,,,,
Fix,GT,37.7364781000,-122.1404686000,3.9434470132022725,27.690565,0.1,163.22493,1694115799000,,,,
Fix,GT,37.7362360000,-122.1403867000,3.6195500871685926,27.967081,0.1,166.24934,1694115800000,,,,
Fix,GT,37.7359891000,-122.1403178000,3.515611462196195,28.149153,0.1,168.40927,1694115801000,,,,
Fix,GT,37.7357393000,-122.1402581000,3.4595923673729896,28.304409,0.1,169.59798,1694115802000,,,,
Fix,GT,37.7354872000,-122.1402016000,3.338488967567055,28.589436,0.1,169.901,1694115803000,,,,
Fix,GT,37.7352318000,-122.1401448000,3.0194556316364363,28.978046,0.1,169.77177,1694115804000,,,,
Fix,GT,37.7349731000,-122.1400865000,2.650446139811934,29.3674,0.1,169.67451,1694115805000,,,,
Fix,GT,37.7347110000,-122.1400264000,2.2665028896266692,29.754665,0.1,169.4453,1694115806000,,,,
Fix,GT,37.7344458000,-122.1399656000,1.8815404256098194,30.07542,0.1,169.62213,1694115807000,,,,
Fix,GT,37.7341787000,-122.1399052000,1.5545544921004282,30.064991,0.1,169.75648,1694115808000,,,,
Fix,GT,37.7339134000,-122.1398459000,1.4836773120898012,29.724972,0.1,169.7932,1694115809000,,,,
Fix,GT,37.7336511000,-122.1397868000,1.6587387326681649,29.472343,0.1,169.67982,1694115810000,,,,
Fix,GT,37.7333905000,-122.1397258000,1.880748337444875,29.379929,0.1,169.12788,1694115811000,,,,
Fix,GT,37.7331306000,-122.1396624000,2.036677513488108,29.386065,0.1,168.82007,1694115812000,,,,
Fix,GT,37.7328708000,-122.1395975000,2.0966632331514283,29.429237,0.1,168.70197,1694115813000,,,,
Fix,GT,37.7326104000,-122.1395323000,2.1336395776167674,29.491983,0.1,168.54678,1694115814000,,,,
Fix,GT,37.7323498000,-122.1394644000,2.1756348744284377,29.574808,0.1,167.92746,1694115815000,,,,
Fix,GT,37.7320891000,-122.1393931000,2.1796158172135307,29.669989,0.1,167.39261,1694115816000,,,,
Fix,GT,37.7318276000,-122.1393195000,2.0955588974960158,29.803602,0.1,167.28117,1694115817000,,,,
Fix,GT,37.7315655000,-122.1392454000,1.9695539159814117,29.81985,0.1,167.1316,1694115818000,,,,
Fix,GT,37.7313036000,-122.1391704000,1.860658602475663,29.786354,0.1,166.97922,1694115819000,,,,
