     2.11           OBSERVATION DATA    M (MIXED)           RINEX VERSION / TYPE
CONVBIN 2.4.2                           20240608 124700 UTC PGM / RUN BY / DATE 
log: rtk_base.rtcm3                                         COMMENT             
format: RTCM 3, station ID: 4024                            COMMENT             
                                                            MARKER NAME         
                                                            MARKER NUMBER       
                                                            OBSERVER / AGENCY   
1832414             LEICA GR50          4.20                REC # / TYPE / VERS 
                    GPPNULLANTENNA                          ANT # / TYPE        
 -1619893.6000  5730732.7900  2276112.2500                  APPROX POSITION XYZ 
        0.0000        0.0000        0.0000                  ANTENNA: DELTA H/E/N
     1     1                                                WAVELENGTH FACT L1/2
     6    C1    L1    P1    P2    L2    C2                  # / TYPES OF OBSERV 
  2024     6     8    12    43   44.0000000     GPS         TIME OF FIRST OBS   
  2024     6     8    12    45   21.0000000     GPS         TIME OF LAST OBS    
                                                            END OF HEADER       
 24  6  8 12 43 44.0000000  0 28G10G18G23G32R 3R13R18R19E 4E10E11E12
                                E19E21J 3J 4C 1C 2C 3C 5C 6C 7C 8C 9
                                C10C12C13C16
  21928211.263   115233528.427                    21928216.606    89792381.693  
  21928216.248  
  21930519.476   115245657.840                    21930526.266    89801838.947  
  21930526.159  
  20533931.249   107906537.042                    20533934.018    84083027.207  
  20533933.876  
  22559068.113   118548703.425                    22559074.117    92375637.088  
  22559074.420  
  22303247.353   119391029.057                    22303252.875    92859712.174  
  22303252.785  
  23032935.285   122994589.134                    23032942.165    95662486.310  
  23032942.183  
  22284221.597   118954688.344                    22284234.623    92520366.188  
  22284234.534  
  20939105.466   112010094.576                    20939112.059    87118992.483  
  20939112.542  
  25263285.387   132759461.351                                                  
                
  24678446.936   129686114.537                                                  
                
  25467693.054   133833631.076                                                  
                
  24115420.790   126727392.471                                                  
                
  24953793.534   131133070.469                                                  
                
  26550649.301   139524604.598                                                  
                
  36233657.846   190409156.996                                   148370811.111  
  36233667.531  
  39111227.713   205530888.767                                   160153954.633  
  39111231.501  
                 195052803.250                                   195052803.250  
  37457840.111  
                 189862122.006                                   189862122.006  
  36461024.402  
                 188229595.312                                   188229595.312  
  36147514.771  
                 200878475.070                                   200878475.070  
  38576599.143  
                 186871528.350                                   186871528.350  
  35886712.164  
                 211152061.002                                   211152061.002  
  40549533.336  
                 187772686.739                                   187772686.739  
  36059770.238  
                 190303968.656                                   190303968.656  
  36545876.280  
                 209398221.771                                   209398221.771  
  40212726.895  
                 126860252.528                                   126860252.528  
  24362177.702  
                 186943933.870                                   186943933.870  
  35900616.890  
                 189047035.850                                   189047035.850  
  36304495.478  
 24  6  8 12 43 45.0000000  0 28G10G18G23G32R 3R13R18R19E 4E10E11E12
                                E19E21J 3J 4C 1C 2C 3C 5C 6C 7C 8C 9
                                C10C12C13C16
  21927751.868   115231114.362                    21927757.211    89790500.606  
  21927756.871  
  21931081.350   115248610.344                    21931088.104    89804139.597  
  21931088.015  
  20533791.656   107905803.418                    20533794.426    84082455.552  
  20533794.283  
  22558943.637   118548049.304                    22558949.641    92375127.386  
  22558949.927  
  22303388.340   119391783.731                    22303393.861    92860299.142  
  22303393.754  
  23033475.859   122997475.758                    23033482.739    95664731.462  
  23033482.756  
  22284926.387   118958450.573                    22284939.413    92523292.366  
  22284939.342  
  20939461.381   112011998.506                    20939467.974    87120473.318  
  20939468.457  
  25263217.056   132759102.253                                                  
                
  24678318.905   129685441.774                                                  
                
  25467335.799   133831753.733                                                  
                
  24115542.979   126728034.639                                                  
                
  24953989.111   131134098.286                                                  
                
  26550470.289   139523663.890                                                  
                
  36233721.156   190409489.780                                   148371070.427  
  36233730.877  
  39111063.997   205530028.469                                   160153284.275  
  39111067.803  
                 195052833.069                                   195052833.069  
  37457845.829  
                 189862135.030                                   189862135.030  
  36461026.904  
                 188229627.315                                   188229627.315  
  36147520.918  
                 200878471.566                                   200878471.566  
  38576598.482  
                 186871636.615                                   186871636.615  
  35886732.945  
                 211151980.088                                   211151980.088  
  40549517.826  
                 187772174.459                                   187772174.459  
  36059671.869  
                 190303913.118                                   190303913.118  
  36545865.594  
                 209398501.804                                   209398501.804  
  40212780.680  
                 126861409.795                                   126861409.795  
  24362399.939  
                 186943270.985                                   186943270.985  
  35900489.591  
                 189047293.917                                   189047293.917  
  36304545.046  
 24  6  8 12 43 46.0000000  0 28G10G18G23G32R 3R13R18R19E 4E10E11E12
                                E19E21J 3J 4C 1C 2C 3C 5C 6C 7C 8C 9
                                C10C12C13C16
  21927292.491   115228700.405                    21927297.852    89788619.603  
  21927297.495  
  21931643.241   115251563.206                    21931650.013    89806440.528  
  21931649.924  
  20533652.117   107905070.179                    20533654.886    84081884.197  
  20533654.744  
  22558819.179   118547395.280                    22558825.165    92374617.766  
  22558825.469  
  22303529.326   119392538.401                    22303534.830    92860886.104  
  22303534.741  
  23034016.540   123000362.961                    23034023.419    95666977.065  
  23034023.437  
  22285631.213   118962212.912                    22285644.239    92526218.627  
  22285644.150  
  20939817.439   112013903.144                    20939824.015    87121954.703  
  20939824.515  
  25263148.725   132758743.206                                                  
                
  24678190.980   129684769.477                                                  
                
  25466978.651   133829876.748                                                  
                
  24115665.292   126728677.292                                                  
                
  24954184.723   131135126.062                                                  
                
  26550291.349   139522723.494                                                  
                
  36233784.502   190409822.652                                   148371329.811  
  36233794.222  
  39110900.281   205529168.112                                   160152613.867  
  39110904.087  
                 195052862.909                                   195052862.909  
  37457851.565  
                 189862148.086                                   189862148.086  
  36461029.423  
                 188229659.341                                   188229659.341  
  36147527.083  
                 200878468.097                                   200878468.097  
  38576597.821  
                 186871745.005                                   186871745.005  
  35886753.763  
                 211151899.031                                   211151899.031  
  40549502.262  
                 187771662.299                                   187771662.299  
  36059573.500  
                 190303857.739                                   190303857.739  
  36545854.980  
                 209398781.662                                   209398781.662  
  40212834.412  
                 126862567.408                                   126862567.408  
  24362622.248  
                 186942608.205                                   186942608.205  
  35900362.310  
                 189047552.104                                   189047552.104  
  36304594.615  
 24  6  8 12 43 47.0000000  0 28G10G18G23G32R 3R13R18R19E 4E10E11E12
                                E19E21J 3J 4C 1C 2C 3C 5C 6C 7C 8C 9
                                C10C12C13C16
  21926833.132   115226286.466                    21926838.493    89786738.610  
  21926838.136  
  21932205.204   115254516.341                    21932211.976    89808741.670  
  21932211.905  
  20533512.649   107904337.212                    20533515.401    84081313.056  
  20533515.258  
  22558694.704   118546741.250                    22558700.708    92374108.137  
  22558700.994  
  22303670.259   119393292.955                    22303675.799    92861472.977  
  22303675.692  
  23034557.310   123003250.665                    23034564.190    95669223.063  
  23034564.208  
  22286336.021   118965975.248                    22286349.047    92529144.884  
  22286348.993  
  20940173.604   112015808.383                    20940180.198    87123436.553  
  20940180.680  
  25263080.412   132758384.135                                                  
                
  24678063.110   129684097.562                                                  
                
  25466621.503   133828000.013                                                  
                
  24115787.641   126729320.315                                                  
                
  24954380.264   131136153.676                                                  
                
  26550112.426   139521783.314                                                  
                
  36233847.830   190410155.522                                   148371589.191  
  36233857.550  
  39110736.511   205528307.599                                   160151943.340  
  39110740.317  
                 195052892.652                                   195052892.652  
  37457857.283  
                 189862161.017                                   189862161.017  
  36461031.907  
                 188229691.274                                   188229691.274  
  36147533.194  
                 200878464.517                                   200878464.517  
  38576597.124  
                 186871853.416                                   186871853.416  
  35886774.580  
                 211151817.674                                   211151817.674  
  40549486.626  
                 187771150.176                                   187771150.176  
  36059475.167  
                 190303802.384                                   190303802.384  
  36545844.366  
                 209399061.276                                   209399061.276  
  40212888.127  
                 126863725.303                                   126863725.303  
  24362844.610  
                 186941945.434                                   186941945.434  
  35900235.029  
                 189047810.332                                   189047810.332  
  36304644.219  
 24  6  8 12 43 48.0000000  0 28G10G18G23G32R 3R13R18R19E 4E10E11E12
                                E19E21J 3J 4C 1C 2C 3C 5C 6C 7C 8C 9
                                C10C12C13C16
  21926373.773   115223872.569                    21926379.134    89784857.655  
  21926378.777  
  21932767.220   115257469.758                    21932773.975    89811043.038  
  21932773.903  
  20533373.217   107903604.595                    20533375.987    84080742.185  
  20533375.862  
  22558570.246   118546087.247                    22558576.250    92373598.533  
  22558576.536  
  22303811.210   119394047.452                    22303816.768    92862059.808  
  22303816.642  
  23035098.188   123006138.923                    23035105.067    95671469.494  
  23035105.085  
  22287040.864   118969737.653                    22287053.891    92532071.199  
  22287053.801  
  20940529.877   112017714.213                    20940536.471    87124918.863  
  20940536.971  
  25263012.063   132758025.073                                                  
                
  24677935.310   129683426.060                                                  
                
  25466264.426   133826123.595                                                  
                
  24115910.080   126729963.746                                                  
                
  24954575.769   131137181.164                                                  
                
  26549933.557   139520843.419                                                  
                
  36233911.193   190410488.405                                   148371848.584  
  36233920.896  
  39110572.759   205527446.961                                   160151272.711  
  39110576.547  
                 195052922.372                                   195052922.372  
  37457862.983  
                 189862173.939                                   189862173.939  
  36461034.391  
                 188229723.163                                   188229723.163  
  36147539.323  
                 200878460.894                                   200878460.894  
  38576596.427  
                 186871961.916                                   186871961.916  
  35886795.397  
                 211151736.132                                   211151736.132  
  40549470.955  
                 187770638.118                                   187770638.118  
  36059376.834  
                 190303747.110                                   190303747.110  
  36545833.734  
                 209399340.728                                   209399340.728  
  40212941.805  
                 126864883.483                                   126864883.483  
  24363067.026  
                 186941282.721                                   186941282.721  
  35900107.748  
                 189048068.609                                   189048068.609  
  36304693.824  
 24  6  8 12 43 49.0000000  0 28G10G18G23G32R 3R13R18R19E 4E10E11E12
                                E19E21J 3J 4C 1C 2C 3C 5C 6C 7C 8C 9
                                C10C12C13C16
  21925914.450   115221458.732                    21925919.811    89782976.746  
  21925919.436  
  21933329.291   115260423.486                    21933336.063    89813344.644  
  21933335.974  
  20533233.857   107902872.300                    20533236.644    84080171.571  
  20533236.501  
  22558445.806   118545433.311                    22558451.810    92373088.979  
  22558452.096  
  22303952.161   119394801.943                    22303957.701    92862646.629  
  22303957.575  
  23035639.172   123009027.700                    23035646.052    95673716.323  
  23035646.070  
  22287745.708   118973500.147                    22287758.716    92534997.581  
  22287758.645  
  20940886.292   112019620.706                    20940892.868    87126401.693  
  20940893.369  
  25262943.750   132757666.017                                                  
                
  24677807.618   129682754.996                                                  
                
  25465907.421   133824247.476                                                  
                
  24116032.590   126730607.593                                                  
                
  24954771.274   131138208.562                                                  
                
  26549754.760   139519903.770                                                  
                
  36233974.539   190410821.336                                   148372108.010  
  36233984.260  
  39110408.954   205526586.226                                   160150602.010  
  39110412.760  
                 195052952.011                                   195052952.011  
  37457868.666  
                 189862186.814                                   189862186.814  
  36461036.857  
                 188229755.027                                   188229755.027  
  36147545.434  
                 200878457.239                                   200878457.239  
  38576595.730  
                 186872070.496                                   186872070.496  
  35886816.251  
                 211151654.417                                   211151654.417  
  40549455.284  
                 187770126.152                                   187770126.152  
  36059278.500  
                 190303691.918                                   190303691.918  
  36545823.119  
                 209399619.909                                   209399619.909  
  40212995.394  
                 126866041.979                                   126866041.979  
  24363289.513  
                 186940620.048                                   186940620.048  
  35899980.503  
                 189048326.979                                   189048326.979  
  36304743.446  
 24  6  8 12 43 50.0000000  0 28G10G18G23G32R 3R13R18R19E 4E10E11E12
                                E19E21J 3J 4C 1C 2C 3C 5C 6C 7C 8C 9
                                C10C12C13C16
  21925455.145   115219045.034                    21925460.488    89781095.944  
  21925460.130  
  21933891.450   115263377.583                    21933898.222    89815646.539  
  21933898.133  
  20533094.603   107902140.425                    20533097.373    84079601.281  
  20533097.230  
  22558321.384   118544779.460                    22558327.370    92372579.492  
  22558327.674  
  22304093.094   119395556.440                    22304098.633    92863233.458  
  22304098.544  
  23036180.246   123011917.104                    23036187.144    95675963.634  
  23036187.162  
  22288450.569   118977262.790                    22288463.578    92537924.076  
  22288463.524  
  20941242.815   112021527.898                    20941249.409    87127885.065  
  20941249.891  
  25262875.436   132757307.046                                                  
                
  24677680.016   129682084.413                                                  
                
  25465550.451   133822371.729                                                  
                
  24116155.207   126731251.939                                                  
                
  24954966.779   131139235.903                                                  
                
  26549575.998   139518964.462                                                  
                
  36234037.920   190411154.367                                   148372367.517  
  36234047.605  
  39110245.166   205525725.434                                   160149931.264  
  39110248.955  
                 195052981.720                                   195052981.720  
  37457874.384  
                 189862199.710                                   189862199.710  
  36461039.341  
                 188229786.905                                   188229786.905  
  36147551.581  
                 200878453.602                                   200878453.602  
  38576595.015  
                 186872179.235                                   186872179.235  
  35886837.139  
                 211151572.505                                   211151572.505  
  40549439.524  
                 187769614.341                                   187769614.341  
  36059180.203  
                 190303636.911                                   190303636.911  
  36545812.559  
                 209399898.985                                   209399898.985  
  40213048.984  
                 126867200.863                                   126867200.863  
  24363512.072  
                 186939957.486                                   186939957.486  
  35899853.257  
                 189048585.489                                   189048585.489  
  36304793.086  
 24  6  8 12 43 51.0000000  0 28G10G18G23G32R 3R13R18R19E 4E10E11E12
                                E19E21J 3J 4C 1C 2C 3C 5C 6C 7C 8C 9
                                C10C12C13C16
  21924995.839   115216631.430                    21925001.182    89779215.218  
  21925000.843  
  21934453.645   115266332.024                    21934460.435    89817948.696  
  21934460.346  
  20532955.404   107901408.938                    20532958.173    84079031.291  
  20532958.030  
  22558196.980   118544125.724                    22558202.966    92372070.089  
  22558203.270  
  22304234.063   119396310.943                    22304239.602    92863820.289  
  22304239.477  
  23036721.463   123014807.077                    23036728.343    95678211.391  
  23036728.361  
  22289155.466   118981025.531                    22289168.475    92540850.648  
  22289168.404  
  20941599.463   112023435.768                    20941606.039    87129368.964  
  20941606.539  
  25262807.141   132756948.133                                                  
                
  24677552.502   129681414.314                                                  
                
  25465193.589   133820496.335                                                  
                
  24116277.914   126731896.761                                                  
                
  24955162.266   131140263.230                                                  
                
  26549397.326   139518025.492                                                  
                
  36234101.319   190411487.488                                   148372627.092  
  36234111.004  
  39110081.343   205524864.591                                   160149260.478  
  39110085.149  
                 195053011.443                                   195053011.443  
  37457880.084  
                 189862212.606                                   189862212.606  
  36461041.807  
                 188229818.797                                   188229818.797  
  36147557.674  
                 200878449.996                                   200878449.996  
  38576594.318  
                 186872288.107                                   186872288.107  
  35886858.028  
                 211151490.492                                   211151490.492  
  40549423.799  
                 187769102.649                                   187769102.649  
  36059081.959  
                 190303582.045                                   190303582.045  
  36545802.016  
                 209400177.922                                   209400177.922  
  40213102.555  
                 126868360.110                                   126868360.110  
  24363734.684  
                 186939295.029                                   186939295.029  
  35899726.048  
                 189048844.135                                   189048844.135  
  36304842.762  
 24  6  8 12 43 52.0000000  0 28G10G18G23G32R 3R13R18R19E 4E10E11E12
                                E19E21J 3J 4C 1C 2C 3C 5C 6C 7C 8C 9
                                C10C12C13C16
  21924536.552   115214217.790                    21924541.895    89777334.465  
  21924541.537  
  21935015.912   115269286.682                    21935022.666    89820251.022  
  21935022.595  
  20532816.257   107900677.682                    20532819.009    84078461.486  
  20532818.866  
  22558072.558   118543471.908                    22558078.544    92371560.627  
  22558078.848  
  22304374.978   119397065.309                    22304380.517    92864407.018  
  22304380.392  
  23037262.734   123017697.467                    23037269.613    95680459.470  
  23037269.631  
  22289860.328   118984788.231                    22289873.354    92543777.193  
  22289873.283  
  20941956.236   112025344.158                    20941962.812    87130853.267  
  20941963.312  
  25262738.810   132756589.145                                                  
                
  24677425.043   129680744.529                                                  
                
  25464836.745   133818621.164                                                  
                
  24116400.674   126732541.888                                                  
                
  24955357.735   131141290.325                                                  
                
  26549218.689   139517086.673                                                  
                
  36234164.665   190411820.533                                   148372886.603  
  36234174.386  
  39109917.484   205524003.535                                   160148589.526  
  39109921.290  
                 195053041.004                                   195053041.004  
  37457885.748  
                 189862225.363                                   189862225.363  
  36461044.237  
                 188229850.556                                   188229850.556  
  36147563.803  
                 200878446.248                                   200878446.248  
  38576593.604  
                 186872396.971                                   186872396.971  
  35886878.953  
                 211151408.135                                   211151408.135  
  40549407.967  
                 187768590.939                                   187768590.939  
  36058983.679  
                 190303527.181                                   190303527.181  
  36545791.491  
                 209400456.568                                   209400456.568  
  40213156.055  
                 126869519.558                                   126869519.558  
  24363957.350  
                 186938632.543                                   186938632.543  
  35899598.820  
                 189049102.735                                   189049102.735  
  36304892.420  
 24  6  8 12 43 53.0000000  0 28G10G18G23G32R 3R13R18R19E 4E10E11E12
                                E19E21J 3J 4C 1C 2C 3C 5C 6C 7C 8C 9
                                C10C12C13C16
  21924077.282   115211804.400                    21924082.625    89775453.901  
  21924082.268  
  21935578.268   115272241.818                    21935585.022    89822553.723  
  21935584.951  
  20532677.183   107899946.958                    20532679.953    84077892.092  
  20532679.810  
  22557948.190   118542818.356                    22557954.176    92371051.368  
  22557954.462  
  22304515.947   119397819.847                    22304521.486    92864993.879  
  22304521.361  
  23037804.165   123020588.633                    23037811.045    95682708.154  
  23037811.063  
  22290565.279   118988551.205                    22290578.287    92546703.950  
  22290578.216  
  20942313.134   112027253.370                    20942319.728    87132338.207  
  20942320.210  
  25262670.532   132756230.356                                                  
                
  24677297.690   129680075.372                                                  
                
  25464480.008   133816746.506                                                  
                
  24116523.559   126733187.642                                                  
                
  24955553.186   131142317.520                                                  
                
  26549040.106   139516148.322                                                  
                
  36234228.118   190412153.819                                   148373146.311  
  36234237.803  
  39109753.643   205523142.559                                   160147918.638  
  39109757.449  
                 195053070.721                                   195053070.721  
  37457891.449  
                 189862238.326                                   189862238.326  
  36461046.738  
                 188229882.471                                   188229882.471  
  36147569.915  
                 200878442.657                                   200878442.657  
  38576592.907  
                 186872506.088                                   186872506.088  
  35886899.913  
                 211151325.787                                   211151325.787  
  40549392.135  
                 187768079.523                                   187768079.523  
  36058885.471  
                 190303472.602                                   190303472.602  
  36545781.002  
                 209400735.158                                   209400735.158  
  40213209.537  
                 126870679.518                                   126870679.518  
  24364180.087  
                 186937970.315                                   186937970.315  
  35899471.647  
                 189049361.619                                   189049361.619  
  36304942.114  
 24  6  8 12 43 54.0000000  0 28G10G18G23G32R 3R13R18R19E 4E10E11E12
                                E19E21J 3J 4C 1C 2C 3C 5C 6C 7C 8C 9
                                C10C12C13C16
  21923618.066   115209391.215                    21923623.409    89773573.504  
  21923623.052  
  21936140.695   115275197.418                    21936147.468    89824856.784  
  21936147.396  
  20532538.233   107899216.723                    20532540.985    84077323.080  
  20532540.860  
  22557823.857   118542164.957                    22557829.843    92370542.226  
  22557830.111  
  22304656.915   119398574.476                    22304662.455    92865580.808  
  22304662.330  
  23038345.722   123023480.505                    23038352.601    95684957.393  
  23038352.619  
  22291270.230   118992314.382                    22291283.256    92549630.865  
  22291283.185  
  20942670.193   112029163.364                    20942676.786    87133823.751  
  20942677.269  
  25262602.290   132755871.719                                                  
                
  24677170.480   129679406.782                                                  
                
  25464123.342   133814872.318                                                  
                
  24116646.552   126733833.975                                                  
                
  24955748.691   131143344.780                                                  
                
  26548861.613   139515210.402                                                  
                
  36234291.553   190412487.287                                   148373406.156  
  36234301.274  
  39109589.820   205522281.622                                   160147247.780  
  39109593.608  
                 195053100.558                                   195053100.558  
  37457897.203  
                 189862251.358                                   189862251.358  
  36461049.240  
                 188229914.469                                   188229914.469  
  36147576.062  
                 200878439.141                                   200878439.141  
  38576592.246  
                 186872615.438                                   186872615.438  
  35886920.892  
                 211151243.363                                   211151243.363  
  40549376.321  
                 187767568.322                                   187767568.322  
  36058787.299  
                 190303418.244                                   190303418.244  
  36545770.567  
                 209401013.732                                   209401013.732  
  40213263.055  
                 126871839.922                                   126871839.922  
  24364402.950  
                 186937308.256                                   186937308.256  
  35899344.508  
                 189049620.719                                   189049620.719  
  36304991.897  
 24  6  8 12 43 55.0000000  0 28G10G18G23G32R 3R13R18R19E 4E10E11E12
                                E19E21J 3J 4C 1C 2C 3C 5C 6C 7C 8C 9
                                C10C12C13C16
  21923158.868   115206978.121                    21923164.211    89771693.174  
  21923163.854  
  21936703.194   115278153.347                    21936709.967    89827160.102  
  21936709.895  
  20532399.337   107898486.838                    20532402.089    84076754.339  
  20532401.946  
  22557699.542   118541511.649                    22557705.510    92370033.155  
  22557705.796  
  22304797.884   119399329.084                    22304803.441    92866167.722  
  22304803.316  
  23038887.350   123026372.882                    23038894.229    95687207.019  
  23038894.247  
  22291975.234   118996077.657                    22291988.243    92552557.857  
  22291988.171  
  20943027.377   112031074.006                    20943033.970    87135309.799  
  20943034.453  
  25262534.049   132755513.118                                                  
                
  24677043.342   129678738.643                                                  
                
  25463766.766   133812998.464                                                  
                
  24116769.616   126734480.748                                                  
                
  24955944.143   131144371.966                                                  
                
  26548683.208   139514272.763                                                  
                
  36234355.024   190412820.814                                   148373666.047  
  36234364.727  
  39109425.961   205521420.593                                   160146576.844  
  39109429.767  
                 195053130.371                                   195053130.371  
  37457902.921  
                 189862264.388                                   189862264.388  
  36461051.742  
                 188229946.469                                   188229946.469  
  36147582.208  
                 200878435.661                                   200878435.661  
  38576591.567  
                 186872724.884                                   186872724.884  
  35886941.906  
                 211151160.762                                   211151160.762  
  40549360.489  
                 187767057.223                                   187767057.223  
  36058689.144  
                 190303363.988                                   190303363.988  
  36545760.149  
                 209401292.133                                   209401292.133  
  40213316.519  
                 126873000.664                                   126873000.664  
  24364625.848  
                 186936646.305                                   186936646.305  
  35899217.388  
                 189049879.909                                   189049879.909  
  36305041.644  
 24  6  8 12 43 56.0000000  0 28G10G18G23G32R 3R13R18R19E 4E10E11E12
                                E19E21J 3J 4C 1C 2C 3C 5C 6C 7C 8C 9
                                C10C12C13C16
  21922699.688   115204565.180                    21922705.048    89769812.960  
  21922704.691  
  21937265.765   115281109.672                    21937272.537    89829463.723  
  21937272.466  
  20532260.531   107897757.401                    20532263.301    84076185.944  
  20532263.158  
  22557575.227   118540858.471                    22557581.213    92369524.187  
  22557581.517  
  22304938.853   119400083.766                    22304944.410    92866754.698  
  22304944.303  
  23039429.121   123029265.947                    23039436.000    95689457.179  
  23039436.036  
  22292680.221   118999841.090                    22292693.265    92555484.976  
  22292693.194  
  20943384.686   112032985.368                    20943391.297    87136796.410  
  20943391.762  
  25262465.825   132755154.637                                                  
                
  24676916.276   129678071.035                                                  
                
  25463410.261   133811125.001                                                  
                
  24116892.805   126735128.049                                                  
                
  24956139.594   131145399.117                                                  
                
  26548504.840   139513335.503                                                  
                
  36234418.513   190413154.472                                   148373926.043  
  36234428.233  
  39109262.120   205520559.558                                   160145905.912  
  39109265.908  
                 195053160.246                                   195053160.246  
  37457908.639  
                 189862277.476                                   189862277.476  
  36461054.243  
                 188229978.521                                   188229978.521  
  36147588.355  
                 200878432.212                                   200878432.212  
  38576590.905  
                 186872834.542                                   186872834.542  
  35886962.973  
                 211151078.033                                   211151078.033  
  40549344.586  
                 187766546.322                                   187766546.322  
  36058591.043  
                 190303309.953                                   190303309.953  
  36545749.767  
                 209401570.422                                   209401570.422  
  40213369.965  
                 126874161.830                                   126874161.830  
  24364848.853  
                 186935984.476                                   186935984.476  
  35899090.286  
                 189050139.291                                   189050139.291  
  36305091.481  
 24  6  8 12 43 57.0000000  0 28G10G18G23G32R 3R13R18R19E 4E10E11E12
                                E19E21J 3J 4C 1C 2C 3C 5C 6C 7C 8C 9
                                C10C12C13C16
  21922240.561   115202152.409                    21922245.904    89767932.883  
  21922245.564  
  21937828.425   115284066.410                    21937835.197    89831767.668  
  21937835.125  
  20532121.796   107897028.393                    20532124.565    84075617.889  
  20532124.440  
  22557450.948   118540205.441                    22557456.952    92369015.340  
  22557457.238  
  22305079.857   119400838.523                    22305085.415    92867341.731  
  22305085.272  
  23039971.034   123032159.608                    23039977.914    95691707.802  
  23039977.932  
  22293385.279   119003604.696                    22293398.323    92558412.225  
  22293398.252  
  20943742.138   112034897.489                    20943748.731    87138283.613  
  20943749.232  
  25262397.637   132754796.282                                                  
                
  24676789.334   129677403.947                                                  
                
  25463053.827   133809251.942                                                  
                
  24117016.083   126735775.870                                                  
                
  24956335.063   131146426.270                                                  
                
  26548326.560   139512398.625                                                  
                
  36234482.037   190413488.277                                   148374186.151  
  36234491.758  
  39109098.261   205519698.518                                   160145234.972  
  39109102.067  
                 195053190.181                                   195053190.181  
  37457914.393  
                 189862290.631                                   189862290.631  
  36461056.763  
                 188230010.655                                   188230010.655  
  36147594.520  
                 200878428.833                                   200878428.833  
  38576590.244  
                 186872944.377                                   186872944.377  
  35886984.076  
                 211150995.228                                   211150995.228  
  40549328.682  
                 187766035.583                                   187766035.583  
  36058492.942  
                 190303256.104                                   190303256.104  
  36545739.439  
                 209401848.591                                   209401848.591  
  40213423.375  
                 126875323.389                                   126875323.389  
  24365071.912  
                 186935322.821                                   186935322.821  
  35898963.237  
                 189050398.839                                   189050398.839  
  36305141.318  
 24  6  8 12 43 58.0000000  0 28G10G18G23G32R 3R13R18R19E 4E10E11E12
                                E19E21J 3J 4C 1C 2C 3C 5C 6C 7C 8C 9
                                C10C12C13C16
  21921781.434   115199739.697                    21921786.777    89766052.847  
  21921786.420  
  21938391.138   115287023.454                    21938397.910    89834071.856  
  21938397.821  
  20531983.132   107896299.740                    20531985.902    84075050.109  
  20531985.777  
  22557326.687   118539552.447                    22557332.691    92368506.518  
  22557332.977  
  22305220.844   119401593.229                    22305226.401    92867928.722  
  22305226.276  
  23040513.020   123035053.825                    23040519.881    95693958.859  
  23040519.917  
  22294090.355   119007368.394                    22294103.381    92561339.549  
  22294103.327  
  20944099.715   112036810.252                    20944106.308    87139771.317  
  20944106.791  
  25262329.448   132754437.924                                                  
                
  24676662.482   129676737.290                                                  
                
  25462697.465   133807379.216                                                  
                
  24117139.415   126736424.119                                                  
                
  24956530.497   131147453.357                                                  
                
  26548148.317   139511461.999                                                  
                
  36234545.561   190413822.124                                   148374446.298  
  36234555.264  
  39108934.384   205518837.368                                   160144563.949  
  39108938.190  
                 195053220.102                                   195053220.102  
  37457920.164  
                 189862303.759                                   189862303.759  
  36461059.282  
                 188230042.742                                   188230042.742  
  36147600.703  
                 200878425.420                                   200878425.420  
  38576589.601  
                 186873054.282                                   186873054.282  
  35887005.162  
                 211150912.232                                   211150912.232  
  40549312.743  
                 187765524.923                                   187765524.923  
  36058394.877  
                 190303202.374                                   190303202.374  
  36545729.110  
                 209402126.606                                   209402126.606  
  40213476.768  
                 126876485.279                                   126876485.279  
  24365295.061  
                 186934661.219                                   186934661.219  
  35898836.171  
                 189050658.474                                   189050658.474  
  36305191.172  
 24  6  8 12 43 59.0000000  0 28G10G18G23G32R 3R13R18R19E 4E10E11E12
                                E19E21J 3J 4C 1C 2C 3C 5C 6C 7C 8C 9
                                C10C12C13C16
  21921322.344   115197327.143                    21921327.686    89764172.940  
  21921327.329  
  21938953.923   115289980.891                    21938960.695    89836376.343  
  21938960.606  
  20531844.558   107895571.528                    20531847.328    84074482.671  
  20531847.202  
  22557202.444   118538899.603                    22557208.448    92367997.817  
  22557208.734  
  22305361.830   119402348.001                    22305367.370    92868515.767  
  22305367.263  
  23041055.148   123037948.742                    23041062.028    95696210.461  
  23041062.045  
  22294795.466   119011132.272                    22294808.493    92564267.002  
  22294808.421  
  20944457.435   112038723.771                    20944464.028    87141259.610  
  20944464.511  
  25262261.260   132754079.701                                                  
                
  24676535.719   129676071.165                                                  
                
  25462341.157   133805506.902                                                  
                
  24117262.890   126737072.890                                                  
                
  24956725.930   131148480.428                                                  
                
  26547970.145   139510525.757                                                  
                
  36234609.103   190414156.099                                   148374706.538  
  36234618.824  
  39108770.525   205517976.222                                   160143892.926  
  39108774.314  
                 195053250.052                                   195053250.052  
  37457925.900  
                 189862316.972                                   189862316.972  
  36461061.820  
                 188230074.899                                   188230074.899  
  36147606.850  
                 200878422.052                                   200878422.052  
  38576588.940  
                 186873164.388                                   186873164.388  
  35887026.301  
                 211150829.102                                   211150829.102  
  40549296.768  
                 187765014.461                                   187765014.461  
  36058296.848  
                 190303148.810                                   190303148.810  
  36545718.836  
                 209402404.495                                   209402404.495  
  40213530.143  
                 126877647.559                                   126877647.559  
  24365518.263  
                 186933999.768                                   186933999.768  
  35898709.140  
                 189050918.280                                   189050918.280  
  36305241.045  
 24  6  8 12 44  0.0000000  0 28G10G18G23G32R 3R13R18R19E 4E10E11E12
                                E19E21J 3J 4C 1C 2C 3C 5C 6C 7C 8C 9
                                C10C12C13C16
  21920863.270   115194914.754                    21920868.631    89762293.160  
  21920868.256  
  21939516.779   115292938.750                    21939523.552    89838681.164  
  21939523.480  
  20531706.091   107894843.761                    20531708.843    84073915.582  
  20531708.700  
  22557078.254   118538246.917                    22557084.222    92367489.238  
  22557084.526  
  22305502.835   119403102.833                    22305508.392    92869102.859  
  22305508.285  
  23041597.384   123040844.255                    23041604.245    95698462.534  
  23041604.281  
  22295500.596   119014896.322                    22295513.640    92567194.587  
  22295513.551  
  20944815.280   112040638.027                    20944821.873    87142748.476  
  20944822.356  
  25262193.126   132753721.590                                                  
                
  24676409.064   129675405.567                                                  
                
  25461984.956   133803635.021                                                  
                
  24117386.419   126737722.184                                                  
                
  24956921.400   131149507.506                                                  
                
  26547792.062   139509589.897                                                  
                
  36234672.699   190414490.242                                   148374966.912  
  36234682.402  
  39108606.649   205517115.064                                   160143221.896  
  39108610.455  
                 195053280.089                                   195053280.089  
  37457931.654  
                 189862330.220                                   189862330.220  
  36461064.375  
                 188230107.120                                   188230107.120  
  36147613.033  
                 200878418.787                                   200878418.787  
  38576588.314  
                 186873274.676                                   186873274.676  
  35887047.494  
                 211150745.925                                   211150745.925  
  40549280.793  
                 187764504.185                                   187764504.185  
  36058198.854  
                 190303095.447                                   190303095.447  
  36545708.579  
                 209402682.263                                   209402682.263  
  40213583.482  
                 126878810.272                                   126878810.272  
  24365741.536  
                 186933338.494                                   186933338.494  
  35898582.162  
                 189051178.270                                   189051178.270  
  36305290.989  
 24  6  8 12 44  1.0000000  0 28G10G18G23G32R 3R13R18R19E 4E10E11E12
                                E19E21J 3J 4C 1C 2C 3C 5C 6C 7C 8C 9
                                C10C12C13C16
  21920404.233   115192502.485                    21920409.594    89760413.472  
  21920409.219  
  21940079.725   115295896.944                    21940086.479    89840986.250  
  21940086.390  
  20531567.659   107894116.367                    20531570.429    84073348.782  
  20531570.286  
  22556954.064   118537594.307                    22556960.050    92366980.718  
  22556960.336  
  22305643.857   119403857.674                    22305649.397    92869689.964  
  22305649.272  
  23042139.708   123043740.350                    23042146.588    95700715.057  
  23042146.606  
  22296205.761   119018660.461                    22296218.787    92570122.249  
  22296218.716  
  20945173.250   112042552.941                    20945179.861    87144237.851  
  20945180.326  
  25262124.991   132753363.537                                                  
                
  24676282.497   129674740.451                                                  
                
  25461628.808   133801763.500                                                  
                
  24117510.090   126738371.947                                                  
                
  24957116.833   131150534.545                                                  
                
  26547614.033   139508654.360                                                  
                
  36234736.313   190414824.449                                   148375227.333  
  36234745.998  
  39108442.754   205516253.830                                   160142550.807  
  39108446.542  
                 195053310.135                                   195053310.135  
  37457937.444  
                 189862343.479                                   189862343.479  
  36461066.930  
                 188230139.350                                   188230139.350  
  36147619.233  
                 200878415.498                                   200878415.498  
  38576587.689  
                 186873385.096                                   186873385.096  
  35887068.704  
                 211150662.550                                   211150662.550  
  40549264.800  
                 187763994.049                                   187763994.049  
  36058100.896  
                 190303042.229                                   190303042.229  
  36545698.358  
                 209402959.903                                   209402959.903  
  40213636.767  
                 126879973.328                                   126879973.328  
  24365964.899  
                 186932677.307                                   186932677.307  
  35898455.185  
                 189051438.388                                   189051438.388  
  36305340.951  
 24  6  8 12 44  2.0000000  0 28G10G18G23G32R 3R13R18R19E 4E10E11E12
                                E19E21J 3J 4C 1C 2C 3C 5C 6C 7C 8C 9
                                C10C12C13C16
  21919945.160   115190090.060                    21919950.503    89758533.666  
  21919950.145  
  21940642.653   115298855.253                    21940649.443    89843291.425  
  21940649.354  
  20531429.264   107893389.120                    20531432.034    84072782.100  
  20531431.891  
  22556829.839   118536941.563                    22556835.825    92366472.092  
  22556836.111  
  22305784.826   119404612.285                    22305790.383    92870276.881  
  22305790.258  
  23042682.140   123046636.757                    23042688.984    95702967.821  
  23042689.020  
  22296910.873   119022424.431                    22296923.917    92573049.781  
  22296923.828  
  20945531.291   112044468.276                    20945537.903    87145727.556  
  20945538.385  
  25262056.803   132753005.303                                                  
                
  24676155.949   129674075.546                                                  
                
  25461272.697   133799892.067                                                  
                
  24117633.762   126739021.942                                                  
                
  24957312.213   131151561.259                                                  
                
  26547436.004   139507718.869                                                  
                
  36234799.873   190415158.483                                   148375487.619  
  36234809.558  
  39108278.806   205515392.291                                   160141879.482  
  39108282.612  
                 195053339.943                                   195053339.943  
  37457943.144  
                 189862356.527                                   189862356.527  
  36461069.414  
                 188230171.329                                   188230171.329  
  36147625.380  
                 200878412.006                                   200878412.006  
  38576587.010  
                 186873495.385                                   186873495.385  
  35887089.861  
                 211150578.766                                   211150578.766  
  40549248.700  
                 187763483.772                                   187763483.772  
  36058002.884  
                 190302988.900                                   190302988.900  
  36545688.119  
                 209403237.177                                   209403237.177  
  40213690.053  
                 126881136.501                                   126881136.501  
  24366188.262  
                 186932015.990                                   186932015.990  
  35898328.172  
                 189051698.377                                   189051698.377  
  36305390.859  
 24  6  8 12 44  3.0000000  0 28G10G18G23G32R 3R13R18R19E 4E10E11E12
                                E19E21J 3J 4C 1C 2C 3C 5C 6C 7C 8C 9
                                C10C12C13C16
  21919486.123   115187677.805                    21919491.466    89756653.989  
  21919491.108  
  21941205.688   115301813.960                    21941212.460    89845596.909  
  21941212.371  
  20531290.976   107892662.313                    20531293.727    84072215.755  
  20531293.584  
  22556705.649   118536288.924                    22556711.617    92365963.542  
  22556711.903  
  22305925.795   119405366.943                    22305931.352    92870863.838  
  22305931.209  
  23043224.644   123049533.818                    23043231.524    95705221.093  
  23043231.541  
  22297616.020   119026188.600                    22297629.064    92575977.473  
  22297628.993  
  20945889.494   112046384.385                    20945896.087    87147217.860  
  20945896.570  
  25261988.668   132752647.180                                                  
                
  24676029.543   129673411.181                                                  
                
  25460916.639   133798021.051                                                  
                
  24117757.540   126739672.445                                                  
                
  24957507.593   131152587.975                                                  
                
  26547258.047   139506783.766                                                  
                
  36234863.451   190415492.673                                   148375748.029  
  36234873.154  
  39108114.875   205514530.754                                   160141208.155  
  39108118.663  
                 195053369.815                                   195053369.815  
  37457948.880  
                 189862369.597                                   189862369.597  
  36461071.916  
                 188230203.385                                   188230203.385  
  36147631.509  
                 200878408.537                                   200878408.537  
  38576586.349  
                 186873605.880                                   186873605.880  
  35887111.107  
                 211150494.888                                   211150494.888  
  40549232.600  
                 187762973.688                                   187762973.688  
  36057904.926  
                 190302935.772                                   190302935.772  
  36545677.916  
                 209403514.293                                   209403514.293  
  40213743.231  
                 126882300.090                                   126882300.090  
  24366411.749  
                 186931354.841                                   186931354.841  
  35898201.195  
                 189051958.538                                   189051958.538  
  36305440.821  
 24  6  8 12 44  4.0000000  0 28G10G18G23G32R 3R13R18R19E 4E10E11E12
                                E19E21J 3J 4C 1C 2C 3C 5C 6C 7C 8C 9
