% program   : RTKPOST ver.2.4.2
% inp file  : C:\GNSS Positioning\GSDC_2023\data\train\2024-06-08-19-43-vi\redmi9\supplemental\gnss_log.obs
% inp file  : C:\GNSS Positioning\GSDC_2023\data\train\2024-06-08-19-43-vi\hnoi1600.24o
% inp file  : C:\GNSS Positioning\GSDC_2023\data\train\2024-06-08-19-43-vi\BRDM00DLR_S_20241600000_01D_MN.rnx
% obs start : 2024/06/08 12:43:48.4 GPST (week2317 564228.4s)
% obs end   : 2024/06/08 12:44:55.4 GPST (week2317 564295.4s)
% pos mode  : kinematic
% freqs     : L1+L2+L5
% solution  : combined
% elev mask : 5.0 deg
% dynamics  : on
% tidecorr  : off
% ionos opt : broadcast
% tropo opt : saastamoinen
% ephemeris : broadcast
% navi sys  : gps glonass galileo
% amb res   : off
% amb glo   : off
% val thres : 3.0
% antenna1  :                       ( 0.0000  0.0000  0.0000)
% antenna2  :                       ( 0.0000  0.0000  0.0000)
% ref pos   : 21.045556000  105.783889000    25.4000
%
% (lat/lon/height=WGS84/ellipsoidal,Q=1:fix,2:float,3:sbas,4:dgps,5:single,6:ppp,ns=# of satellites)
%  GPST          latitude(deg) longitude(deg)  height(m)   Q  ns   sdn(m)   sde(m)   sdu(m)  sdne(m)  sdeu(m)  sdun(m) age(s)  ratio
2317 564247.431   20.994173345  105.852545627   -25.6965   5   4  21.7642  21.7642  21.7642   0.0000  -0.0000   0.0000   0.43    0.0
2317 564248.431   20.994212250  105.852959765   147.7369   5   5  21.7643  21.7643  21.7643   0.0000   0.0000   0.0000   0.43    0.0
2317 564250.431   20.994178986  105.852551224   -19.5698   5   4  21.7643  21.7643  21.7643   0.0000   0.0000  -0.0000   0.43    0.0
2317 564251.431   20.994182084  105.852541002   -22.5067   5   4  21.7643  21.7643  21.7643  -0.0000  -0.0000   0.0000   0.43    0.0
2317 564252.431   20.994163967  105.852517141   -19.3562   5   4  21.7643  21.7643  21.7643  -0.0000  -0.0000   0.0000   0.43    0.0
2317 564253.431   20.994165615  105.852500722   -21.2554   5   4  21.7643  21.7643  21.7643  -0.0000  -0.0000   0.0000   0.43    0.0
2317 564254.431   20.994194637  105.852598637   -24.7945   5   4  21.7643  21.7643  21.7643  -0.0000  -0.0000  -0.0000   0.43    0.0
2317 564255.431   20.994195213  105.852604394   -23.7611   5   4  21.7643  21.7643  21.7643  -0.0000  -0.0000   0.0000   0.43    0.0
2317 564256.431   20.994204732  105.852637515   -11.1096   5   4  21.7643  21.7643  21.7643  -0.0000  -0.0000   0.0000   0.43    0.0
2317 564257.431   20.994202661  105.852630091   -12.1487   5   4  21.7643  21.7643  21.7643  -0.0000  -0.0000  -0.0000   0.43    0.0
2317 564258.431   20.994215892  105.852500036   -18.7444   5   4  21.7643  21.7643  21.7643   0.0000   0.0000  -0.0000   0.43    0.0
2317 564259.431   20.994217589  105.852495038   -20.1206   5   4  21.7643  21.7643  21.7643  -0.0000   0.0000   0.0000   0.43    0.0
2317 564260.431   20.994217379  105.852662413   -24.1450   5   4  21.7643  21.7643  21.7643  -0.0000   0.0000   0.0000   0.43    0.0
2317 564261.431   20.994217523  105.852665642   -23.1450   5   4  21.7643  21.7643  21.7643  -0.0000   0.0000   0.0000   0.43    0.0
2317 564264.431   20.994212451  105.852633503   -41.2962   5   4  21.7643  21.7643  21.7643   0.0000  -0.0000   0.0000   0.43    0.0
2317 564265.431   20.994211329  105.852642634   -41.4784   5   4  21.7643  21.7643  21.7643  -0.0000  -0.0000   0.0000   0.43    0.0
2317 564266.431   20.994203914  105.852547052   -46.7447   5   4  21.7643  21.7643  21.7643   0.0000  -0.0000   0.0000   0.43    0.0
2317 564267.431   20.994198086  105.852521425   -51.3394   5   4  21.7643  21.7643  21.7643   0.0000  -0.0000  -0.0000   0.43    0.0
2317 564268.431   20.994154067  105.852535886   -45.2705   5   4  21.7643  21.7643  21.7643  -0.0000   0.0000   0.0000   0.43    0.0
2317 564270.431   20.994125456  105.852398175   -64.6594   5   4  21.7643  21.7643  21.7643   0.0000   0.0000   0.0000   0.43    0.0
2317 564272.431   20.994157123  105.852564532     3.1413   5   4  21.7643  21.7643  21.7643  -0.0000  -0.0000   0.0000   0.43    0.0
2317 564273.431   20.994159130  105.852569146     5.4350   5   4  21.7643  21.7643  21.7643   0.0000  -0.0000  -0.0000   0.43    0.0
2317 564275.431   20.994165287  105.852602486    15.3952   5   4  21.7642  21.7642  21.7642   0.0000  -0.0000  -0.0000   0.43    0.0
2317 564276.431   20.994132164  105.852524555   -12.3252   5   4  21.7643  21.7643  21.7643  -0.0000  -0.0000   0.0000   0.43    0.0
2317 564277.431   20.994130958  105.852523752   -11.4398   5   4  21.7643  21.7643  21.7643  -0.0000  -0.0000  -0.0000   0.43    0.0
2317 564282.431   20.994092341  105.852373039   -23.9526   5   4  21.7643  21.7643  21.7643   0.0000  -0.0000   0.0000   0.43    0.0
2317 564289.431   20.994093513  105.852400125   -17.1652   5   4  21.7642  21.7642  21.7642   0.0000  -0.0000   0.0000   0.43    0.0
2317 564290.431   20.994078761  105.852586300     0.6760   5   4  21.7643  21.7643  21.7643   0.0000  -0.0000   0.0000   0.43    0.0
2317 564291.431   20.994078699  105.852589516     1.4031   5   4  21.7643  21.7643  21.7643   0.0000   0.0000   0.0000   0.43    0.0
2317 564294.431   20.994120970  105.852846555    21.8909   5   4  21.7643  21.7643  21.7643   0.0000  -0.0000   0.0000   0.43    0.0
2317 564295.431   20.994121182  105.852841988    21.0537   5   4  21.7643  21.7643  21.7643  -0.0000  -0.0000   0.0000   0.43    0.0
