MessageType,Provider,LatitudeDegrees,LongitudeDegrees,AltitudeMeters,SpeedMps,AccuracyMeters,BearingDegrees,UnixTimeMillis,SpeedAccuracyMps,BearingAccuracyDegrees,elapsedRealtimeNanos,VerticalAccuracyMeters
Fix,GT,37.5240083000,-122.3499206000,147.72434997558594,0.0022318054,0.1,83.631744,1626295841999,,,,
Fix,GT,37.5240083000,-122.3499206000,147.72434997558594,0.0009965478,0.1,83.63187,1626295842999,,,,
Fix,GT,37.5240083000,-122.3499206000,147.72434997558594,0.000004887517,0.1,83.63183,1626295843999,,,,
Fix,GT,37.5240083000,-122.3499206000,147.72434997558594,0.0014142136,0.1,83.631874,1626295844999,,,,
Fix,GT,37.5240083000,-122.3499206000,147.72434997558594,0.001412779,0.1,83.6319,1626295845999,,,,
Fix,GT,37.5240083000,-122.3499206000,147.72434997558594,0.001,0.1,83.63176,1626295846999,,,,
Fix,GT,37.5240083000,-122.3499206000,147.72434997558594,0.0014162466,0.1,83.63201,1626295847999,,,,
Fix,GT,37.5240083000,-122.3499206000,147.72434997558594,0.0000077690265,0.1,83.632164,1626295848999,,,,
Fix,GT,37.5240083000,-122.3499206000,147.72434997558594,0.0014142136,0.1,83.632,1626295849999,,,,
Fix,GT,37.5240083000,-122.3499206000,147.72434997558594,0.0009965184,0.1,83.63155,1626295850999,,,,
Fix,GT,37.5240083000,-122.3499206000,147.72434997558594,0.002000823,0.1,83.63123,1626295851999,,,,
Fix,GT,37.5240083000,-122.3499206000,147.72434997558594,0.0000049342157,0.1,83.63216,1626295852999,,,,
Fix,GT,37.5240083000,-122.3499206000,147.72434997558594,0.0009965074,0.1,83.63157,1626295853999,,,,
Fix,GT,37.5240083000,-122.3499206000,147.72434997558594,0.001,0.1,83.63089,1626295854999,,,,
Fix,GT,37.5240083000,-122.3499206000,147.72434997558594,0.0,0.1,83.63104,1626295855999,,,,
Fix,GT,37.5240083000,-122.3499206000,147.72434997558594,0.00000350374,0.1,83.63103,1626295856999,,,,
Fix,GT,37.5240083000,-122.3499206000,147.72434997558594,0.0009964927,0.1,83.63096,1626295857999,,,,
Fix,GT,37.5240083000,-122.3499206000,147.72434997558594,0.0,0.1,83.6309,1626295858999,,,,
Fix,GT,37.5240083000,-122.3499206000,147.72434997558594,0.0,0.1,83.630844,1626295859999,,,,
Fix,GT,37.5240083000,-122.3499206000,147.72434997558594,0.0014092377,0.1,83.63077,1626295860999,,,,
Fix,GT,37.5240083000,-122.3499206000,147.72434997558594,0.0000035220983,0.1,83.63077,1626295861999,,,,
Fix,GT,37.5240083000,-122.3499206000,147.72434997558594,0.0009964743,0.1,83.630554,1626295862999,,,,
Fix,GT,37.5240083000,-122.3499206000,147.72434997558594,0.0009964706,0.1,83.6303,1626295863999,,,,
Fix,GT,37.5240083000,-122.3499206000,147.72334645364754,0.0,0.1,83.63042,1626295864999,,,,
Fix,GT,37.5240083000,-122.3499206000,147.7233428955078,0.0,0.1,83.63049,1626295865999,,,,
Fix,GT,37.5240083000,-122.3499206000,147.7233428955078,0.0009964596,0.1,83.6304,1626295866999,,,,
Fix,GT,37.5240083000,-122.3499206000,147.7233428955078,0.001,0.1,83.63067,1626295867999,,,,
Fix,GT,37.5240083000,-122.3499206000,147.7233428955078,0.023151722,0.1,83.63161,1626295868999,,,,
Fix,GT,37.5240088000,-122.3499158000,147.70635170343758,0.91748226,0.1,83.75499,1626295869999,,,,
Fix,GT,37.5240088000,-122.3499001000,147.66237836066466,1.892235,0.1,87.179405,1626295870999,,,,
Fix,GT,37.5240046000,-122.3498746000,147.6323537592807,2.7705936,0.1,97.84706,1626295871999,,,,
Fix,GT,37.5239932000,-122.3498416000,147.5803670254154,3.6839416,0.1,111.43955,1626295872999,,,,
Fix,GT,37.5239728000,-122.3498019000,147.488402903542,4.752651,0.1,122.77375,1626295873999,,,,
Fix,GT,37.5239417000,-122.3497594000,147.46732478412378,5.516302,0.1,133.71791,1626295874999,,,,
Fix,GT,37.5239021000,-122.3497172000,147.5743015070475,5.973851,0.1,141.25014,1626295875999,,,,
Fix,GT,37.5238569000,-122.3496835000,147.65932963114756,5.7952166,0.1,151.04056,1626295876999,,,,
Fix,GT,37.5238091000,-122.3496599000,147.59337474453423,5.6619635,0.1,159.61253,1626295877999,,,,
Fix,GT,37.5237618000,-122.3496413000,147.63529530349297,5.314148,0.1,162.06885,1626295878999,,,,
Fix,GT,37.5237197000,-122.3496184000,147.80429081439252,4.735973,0.1,155.56635,1626295879999,,,,
Fix,GT,37.5236873000,-122.3495935000,147.98627876626506,3.620325,0.1,148.37039,1626295880999,,,,
Fix,GT,37.5236638000,-122.3495716000,148.19126253562627,2.845657,0.1,143.92877,1626295881999,,,,
Fix,GT,37.5236450000,-122.3495533000,148.39224484055285,2.443431,0.1,142.77176,1626295882999,,,,
Fix,GT,37.5236255000,-122.3495412000,148.4063091172975,2.458197,0.1,152.52586,1626295883999,,,,
Fix,GT,37.5236044000,-122.3495428000,148.28129829781392,2.3821526,0.1,175.49727,1626295884999,,,,
Fix,GT,37.5235839000,-122.3495569000,148.36430964671854,2.8091776,0.1,200.7626,1626295885999,,,,
Fix,GT,37.5235642000,-122.3495825000,148.3973497306506,3.653842,0.1,222.00919,1626295886999,,,,
Fix,GT,37.5235406000,-122.3496192000,148.32438426196677,4.7041526,0.1,229.83202,1626295887999,,,,
Fix,GT,37.5235110000,-122.3496648000,148.1744157168523,5.730647,0.1,230.98367,1626295888999,,,,
Fix,GT,37.5234769000,-122.3497177000,147.95443630241243,6.1905775,0.1,230.80774,1626295889999,,,,
Fix,GT,37.5234411000,-122.3497720000,147.6994279130895,6.1982574,0.1,230.29497,1626295890999,,,,
Fix,GT,37.5234061000,-122.3498240000,147.44842891999542,5.717519,0.1,229.80899,1626295891999,,,,
Fix,GT,37.5233759000,-122.3498684000,147.24440445575965,4.4445825,0.1,229.54385,1626295892999,,,,
Fix,GT,37.5233552000,-122.3498989000,147.11637375742612,2.6267157,0.1,229.46846,1626295893999,,,,
Fix,GT,37.5233446000,-122.3499144000,147.058360505398,1.0465256,0.1,229.44096,1626295894999,,,,
Fix,GT,37.5233377000,-122.3499245000,147.0113707360706,1.5862027,0.1,229.4352,1626295895999,,,,
Fix,GT,37.5233241000,-122.3499443000,146.95336057071108,3.0373769,0.1,229.5853,1626295896999,,,,
Fix,GT,37.5233027000,-122.3499767000,146.90336175907942,4.3103814,0.1,230.19473,1626295897999,,,,
Fix,GT,37.5232779000,-122.3500144000,146.87833436283017,4.2345295,0.1,230.46265,1626295898999,,,,
Fix,GT,37.5232547000,-122.3500502000,146.93732176640788,3.9225247,0.1,230.80618,1626295899999,,,,
Fix,GT,37.5232335000,-122.3500832000,147.00632931141445,3.5624385,0.1,231.1749,1626295900999,,,,
Fix,GT,37.5232146000,-122.3501128000,147.1053356506709,3.1620371,0.1,231.47585,1626295901999,,,,
Fix,GT,37.5231979000,-122.3501393000,147.2063115401579,2.8164244,0.1,231.63545,1626295902999,,,,
Fix,GT,37.5231829000,-122.3501632000,147.29630419843306,2.5783813,0.1,231.57779,1626295903999,,,,
Fix,GT,37.5231689000,-122.3501852000,147.40030436158304,2.4034276,0.1,231.51257,1626295904999,,,,
Fix,GT,37.5231559000,-122.3502058000,147.5072990066983,2.2775226,0.1,231.4507,1626295905999,,,,
Fix,GT,37.5231431000,-122.3502259000,147.60031231354878,2.42872,0.1,231.3588,1626295906999,,,,
Fix,GT,37.5231269000,-122.3502505000,147.7212812511225,3.209646,0.1,230.7107,1626295907999,,,,
Fix,GT,37.5231055000,-122.3502830000,147.9012780162784,4.312933,0.1,230.43425,1626295908999,,,,
Fix,GT,37.5230768000,-122.3503259000,148.14025045335802,5.564588,0.1,229.76805,1626295909999,,,,
Fix,GT,37.5230408000,-122.3503783000,148.40220676045283,6.650872,0.1,229.32448,1626295910999,,,,
Fix,GT,37.5229994000,-122.3504386000,148.7741973536631,7.146975,0.1,229.28294,1626295911999,,,,
Fix,GT,37.5229587000,-122.3504983000,149.122211445635,6.7011137,0.1,229.48515,1626295912999,,,,
Fix,GT,37.5229235000,-122.3505504000,149.4032431217156,5.107472,0.1,229.8678,1626295913999,,,,
Fix,GT,37.5229002000,-122.3505855000,149.59430051464187,2.9965646,0.1,230.14893,1626295914999,,,,
Fix,GT,37.5228865000,-122.3506065000,149.67432086567806,2.277843,0.1,230.78253,1626295915999,,,,
Fix,GT,37.5228734000,-122.3506299000,149.75431147633935,2.8434021,0.1,234.30739,1626295916999,,,,
Fix,GT,37.5228630000,-122.3506621000,149.83632337780728,3.2941597,0.1,247.25523,1626295917999,,,,
Fix,GT,37.5228636000,-122.3506988000,149.8143686908279,3.3358343,0.1,269.06775,1626295918999,,,,
Fix,GT,37.5228772000,-122.3507355000,149.79332029671423,4.0602503,0.1,292.92953,1626295919999,,,,
Fix,GT,37.5229042000,-122.3507756000,149.78836028445767,5.445478,0.1,310.08362,1626295920999,,,,
Fix,GT,37.5229443000,-122.3508251000,149.76635341337806,7.087227,0.1,315.98337,1626295921999,,,,
Fix,GT,37.5229978000,-122.3508860000,149.66038805882272,8.925947,0.1,318.27585,1626295922999,,,,
Fix,GT,37.5230639000,-122.3509580000,149.42249799356523,10.5987425,0.1,319.48648,1626295923999,,,,
Fix,GT,37.5231420000,-122.3510419000,148.8876033598408,11.953245,0.1,319.2747,1626295924999,,,,
Fix,GT,37.5232256000,-122.3511311000,148.18364641619428,12.396379,0.1,319.77164,1626295925999,,,,
Fix,GT,37.5233129000,-122.3512235000,147.40264842881516,12.935923,0.1,320.00955,1626295926999,,,,
Fix,GT,37.5234037000,-122.3513203000,146.5386690997766,13.5146475,0.1,319.88403,1626295927999,,,,
Fix,GT,37.5234990000,-122.3514207000,145.66567210888934,14.076079,0.1,319.9141,1626295928999,,,,
Fix,GT,37.5235966000,-122.3515249000,144.87361606644754,14.332967,0.1,319.69406,1626295929999,,,,
Fix,GT,37.5236956000,-122.3516299000,144.26351754090228,14.416826,0.1,320.04147,1626295930999,,,,
Fix,GT,37.5237952000,-122.3517345000,143.77049492551214,14.424764,0.1,320.22543,1626295931999,,,,
Fix,GT,37.5238949000,-122.3518393000,143.29953228082195,14.419925,0.1,320.1506,1626295932999,,,,
Fix,GT,37.5239946000,-122.3519439000,142.80854271687713,14.427154,0.1,320.06012,1626295933999,,,,
Fix,GT,37.5240941000,-122.3520491000,142.2785403086964,14.4476795,0.1,319.9499,1626295934999,,,,
Fix,GT,37.5241935000,-122.3521548000,141.78452967120393,14.466064,0.1,319.70187,1626295935999,,,,
Fix,GT,37.5242922000,-122.3522596000,141.31548250676497,13.993408,0.1,319.94965,1626295936999,,,,
Fix,GT,37.5243831000,-122.3523549000,140.88553171837793,12.190043,0.1,320.27313,1626295937999,,,,
Fix,GT,37.5244599000,-122.3524361000,140.44251969069865,10.070316,0.1,319.8207,1626295938999,,,,
Fix,GT,37.5245212000,-122.3525019000,140.1444433426841,7.749169,0.1,319.44763,1626295939999,,,,
Fix,GT,37.5245665000,-122.3525500000,139.90441129777173,5.487348,0.1,319.89554,1626295940999,,,,
Fix,GT,37.5245973000,-122.3525830000,139.7404022711653,3.5298433,0.1,319.76886,1626295941999,,,,
Fix,GT,37.5246154000,-122.3526024000,139.65334698309016,1.8616433,0.1,319.64786,1626295942999,,,,
Fix,GT,37.5246261000,-122.3526138000,139.61536032368167,1.689039,0.1,319.5575,1626295943999,,,,
Fix,GT,37.5246404000,-122.3526307000,139.55439391403797,2.7142513,0.1,317.63904,1626295944999,,,,
Fix,GT,37.5246582000,-122.3526604000,139.47737138809498,3.7053263,0.1,307.5992,1626295945999,,,,
Fix,GT,37.5246703000,-122.3527039000,139.41635898359527,4.036815,0.1,288.57175,1626295946999,,,,
Fix,GT,37.5246665000,-122.3527517000,139.2803919601556,4.288961,0.1,263.3421,1626295947999,,,,
Fix,GT,37.5246459000,-122.3527987000,139.12040756708575,4.8965616,0.1,240.02054,1626295948999,,,,
Fix,GT,37.5246161000,-122.3528459000,138.9394193719536,5.705231,0.1,231.75826,1626295949999,,,,
Fix,GT,37.5245790000,-122.3528997000,138.70144750571944,6.871376,0.1,229.24532,1626295950999,,,,
Fix,GT,37.5245351000,-122.3529628000,138.3684935657384,7.8019147,0.1,229.01488,1626295951999,,,,
Fix,GT,37.5244853000,-122.3530337000,137.93952374551554,8.931603,0.1,228.37007,1626295952999,,,,
Fix,GT,37.5244266000,-122.3531114000,137.44455194845796,9.909091,0.1,225.50311,1626295953999,,,,
Fix,GT,37.5243600000,-122.3531918000,136.94255707182856,10.5447445,0.1,223.68968,1626295954999,,,,
Fix,GT,37.5242890000,-122.3532765000,136.38856803990348,11.1975765,0.1,223.73878,1626295955999,,,,
Fix,GT,37.5242144000,-122.3533652000,135.7366105182682,11.573776,0.1,223.55324,1626295956999,,,,
Fix,GT,37.5241371000,-122.3534557000,134.99464126589737,11.822743,0.1,222.69914,1626295957999,,,,
Fix,GT,37.5240568000,-122.3535432000,134.13770119990022,11.734911,0.1,219.6705,1626295958999,,,,
Fix,GT,37.5239725000,-122.3536225000,133.19373624943637,11.668649,0.1,215.60434,1626295959999,,,,
Fix,GT,37.5238828000,-122.3536943000,132.17373240349116,11.872907,0.1,210.75735,1626295960999,,,,
Fix,GT,37.5237871000,-122.3537563000,131.09278186035954,11.999682,0.1,205.10713,1626295961999,,,,
Fix,GT,37.5236865000,-122.3538078000,129.96579508387094,12.138381,0.1,201.34631,1626295962999,,,,
Fix,GT,37.5235822000,-122.3538576000,128.86977941763507,12.612965,0.1,200.6615,1626295963999,,,,
Fix,GT,37.5234776000,-122.3539115000,127.76277347981613,12.430181,0.1,204.39528,1626295964999,,,,
Fix,GT,37.5233825000,-122.3539811000,126.60379290795572,12.191579,0.1,214.2892,1626295965999,,,,
Fix,GT,37.5233020000,-122.3540724000,125.4627864933027,12.052953,0.1,226.35982,1626295966999,,,,
Fix,GT,37.5232389000,-122.3541807000,124.32878421426176,11.7655,0.1,238.23051,1626295967999,,,,
Fix,GT,37.5231968000,-122.3543002000,123.29274651300511,11.592692,0.1,250.19597,1626295968999,,,,
Fix,GT,37.5231745000,-122.3544277000,122.27376537699729,11.794098,0.1,261.90805,1626295969999,,,,
Fix,GT,37.5231733000,-122.3545627000,121.1596810306255,12.23516,0.1,273.7333,1626295970999,,,,
Fix,GT,37.5231942000,-122.3546995000,120.15578953932709,12.573292,0.1,285.03326,1626295971999,,,,
Fix,GT,37.5232321000,-122.3548390000,119.10578300304041,13.619021,0.1,291.1508,1626295972999,,,,
Fix,GT,37.5232856000,-122.3549834000,117.95182707296044,14.505245,0.1,297.34137,1626295973999,,,,
Fix,GT,37.5233546000,-122.3551293000,116.46395485268204,15.674017,0.1,303.0853,1626295974999,,,,
Fix,GT,37.5234408000,-122.3552788000,114.96995212591446,17.03624,0.1,307.71527,1626295975999,,,,
Fix,GT,37.5235431000,-122.3554326000,113.50691576708323,18.423286,0.1,311.61505,1626295976999,,,,
Fix,GT,37.5236596000,-122.3555908000,112.0539213321299,19.71635,0.1,313.2121,1626295977999,,,,
Fix,GT,37.5237848000,-122.3557584000,110.68492587314904,20.895065,0.1,313.19968,1626295978999,,,,
Fix,GT,37.5239173000,-122.3559354000,109.40485699976125,22.085327,0.1,313.4875,1626295979999,,,,
Fix,GT,37.5240597000,-122.3561190000,108.05389913436466,23.228327,0.1,315.00186,1626295980999,,,,
Fix,GT,37.5242129000,-122.3563072000,106.64187666248199,24.348137,0.1,316.3054,1626295981999,,,,
Fix,GT,37.5243763000,-122.3564988000,105.3738559219164,25.259577,0.1,318.0638,1626295982999,,,,
Fix,GT,37.5245483000,-122.3566914000,104.3786785771299,25.868464,0.1,318.89188,1626295983999,,,,
Fix,GT,37.5247276000,-122.3568818000,103.65963374848161,26.267694,0.1,321.06647,1626295984999,,,,
Fix,GT,37.5249154000,-122.3570663000,102.85567693045596,26.702656,0.1,322.67697,1626295985999,,,,
Fix,GT,37.5251097000,-122.3572512000,102.01068397662402,27.525373,0.1,323.23755,1626295986999,,,,
Fix,GT,37.5253127000,-122.3574424000,101.00473940584834,28.80821,0.1,322.87805,1626295987999,,,,
Fix,GT,37.5255206000,-122.3576420000,99.9587704300775,29.099787,0.1,322.50333,1626295988999,,,,
Fix,GT,37.5257286000,-122.3578432000,98.73583475728083,29.14501,0.1,322.4195,1626295989999,,,,
Fix,GT,37.5259369000,-122.3580429000,97.558857219954,29.032286,0.1,323.28226,1626295990999,,,,
Fix,GT,37.5261480000,-122.3582357000,96.34185445308685,28.955725,0.1,324.86755,1626295991999,,,,
Fix,GT,37.5263639000,-122.3584204000,95.08485509494221,29.131416,0.1,326.68103,1626295992999,,,,
Fix,GT,37.5265871000,-122.3585974000,93.88577435409297,29.48579,0.1,328.85666,1626295993999,,,,
Fix,GT,37.5268185000,-122.3587645000,92.86374264405276,29.807621,0.1,331.4001,1626295994999,,,,
Fix,GT,37.5270580000,-122.3589204000,92.04765321251034,30.091423,0.1,334.08847,1626295995999,,,,
Fix,GT,37.5273051000,-122.3590636000,91.45553762346754,30.327677,0.1,336.39233,1626295996999,,,,
Fix,GT,37.5275578000,-122.3591957000,91.0824482395683,30.457743,0.1,338.55234,1626295997999,,,,
Fix,GT,37.5278150000,-122.3593159000,91.09126577494135,30.458664,0.1,340.91214,1626295998999,,,,
Fix,GT,37.5280746000,-122.3594262000,91.40722367398848,30.4025,0.1,341.6049,1626295999999,,,,
Fix,GT,37.5283346000,-122.3595337000,91.70426100649638,30.32315,0.1,342.18283,1626296000999,,,,
Fix,GT,37.5285940000,-122.3596397000,92.18414672539802,30.216589,0.1,341.89606,1626296001999,,,,
Fix,GT,37.5288518000,-122.3597468000,92.83903216098861,30.038565,0.1,341.46613,1626296002999,,,,
Fix,GT,37.5291069000,-122.3598567000,93.67796853683012,29.831394,0.1,341.07755,1626296003999,,,,
Fix,GT,37.5293603000,-122.3599655000,94.60596505619105,29.631788,0.1,341.31155,1626296004999,,,,
Fix,GT,37.5296125000,-122.3600717000,95.5069818784159,29.407053,0.1,341.49207,1626296005999,,,,
Fix,GT,37.5298627000,-122.3601769000,96.35097574639076,29.157919,0.1,341.47934,1626296006999,,,,
Fix,GT,37.5301111000,-122.3602820000,97.11204600082965,29.040724,0.1,341.13174,1626296007999,,,,
Fix,GT,37.5303581000,-122.3603884000,98.1189316419186,28.928364,0.1,341.17682,1626296008999,,,,
Fix,GT,37.5306042000,-122.3604948000,98.99901036501069,28.85035,0.1,340.9958,1626296009999,,,,
Fix,GT,37.5308499000,-122.3606015000,99.74008773253627,28.852598,0.1,341.04498,1626296010999,,,,
Fix,GT,37.5310953000,-122.3607078000,100.69992824452856,28.781261,0.1,341.01132,1626296011999,,,,
Fix,GT,37.5313405000,-122.3608129000,101.57995720217514,28.734793,0.1,341.4668,1626296012999,,,,
Fix,GT,37.5315858000,-122.3609159000,102.42199287900075,28.69768,0.1,341.50763,1626296013999,,,,
Fix,GT,37.5318308000,-122.3610191000,103.27098341431702,28.678423,0.1,341.46844,1626296014999,,,,
Fix,GT,37.5320756000,-122.3611230000,104.14196075506516,28.681978,0.1,341.25253,1626296015999,,,,
Fix,GT,37.5323199000,-122.3612279000,104.99399407530018,28.628145,0.1,341.13834,1626296016999,,,,
Fix,GT,37.5325638000,-122.3613333000,105.88400539687609,28.623367,0.1,341.09387,1626296017999,,,,
Fix,GT,37.5328077000,-122.3614383000,106.7420437056353,28.633717,0.1,341.1095,1626296018999,,,,
Fix,GT,37.5330516000,-122.3615433000,107.65194565973252,28.588411,0.1,341.20206,1626296019999,,,,
Fix,GT,37.5332951000,-122.3616476000,108.69090978565873,28.521744,0.1,341.31943,1626296020999,,,,
Fix,GT,37.5335380000,-122.3617512000,109.77684218994273,28.414478,0.1,341.22256,1626296021999,,,,
Fix,GT,37.5337794000,-122.3618573000,110.87789605055514,28.345963,0.1,340.80243,1626296022999,,,,
Fix,GT,37.5340201000,-122.3619624000,111.98290368221205,28.235245,0.1,340.98862,1626296023999,,,,
Fix,GT,37.5342601000,-122.3620663000,113.1198637821326,28.120281,0.1,341.2956,1626296024999,,,,
Fix,GT,37.5344987000,-122.3621701000,114.24189730773105,27.907022,0.1,340.645,1626296025999,,,,
Fix,GT,37.5347340000,-122.3622769000,115.35689129756156,27.540491,0.1,339.9563,1626296026999,,,,
Fix,GT,37.5349636000,-122.3623850000,116.4489013891025,26.90989,0.1,339.28372,1626296027999,,,,
Fix,GT,37.5351880000,-122.3624928000,117.52391447062018,26.416033,0.1,339.07266,1626296028999,,,,
Fix,GT,37.5354077000,-122.3626006000,118.58090154899037,25.9741,0.1,338.1201,1626296029999,,,,
Fix,GT,37.5356223000,-122.3627136000,119.60391135063583,25.709581,0.1,336.87024,1626296030999,,,,
Fix,GT,37.5358345000,-122.3628296000,120.61092441966684,25.690317,0.1,336.26132,1626296031999,,,,
Fix,GT,37.5360455000,-122.3629489000,121.61891824243685,25.682795,0.1,335.6103,1626296032999,,,,
Fix,GT,37.5362563000,-122.3630692000,122.64292411468341,25.704807,0.1,335.6195,1626296033999,,,,
Fix,GT,37.5364666000,-122.3631914000,123.64595608752279,25.734316,0.1,334.91458,1626296034999,,,,
Fix,GT,37.5366755000,-122.3633146000,124.56397997778913,25.38058,0.1,335.06805,1626296035999,,,,
Fix,GT,37.5368802000,-122.3634347000,125.43198419728287,24.76949,0.1,334.86002,1626296036999,,,,
Fix,GT,37.5370801000,-122.3635541000,126.27499453506607,24.391802,0.1,334.6098,1626296037999,,,,
Fix,GT,37.5372777000,-122.3636718000,127.15897601924553,24.192469,0.1,334.64926,1626296038999,,,,
Fix,GT,37.5374750000,-122.3637894000,128.11592632260636,24.362204,0.1,334.81006,1626296039999,,,,
Fix,GT,37.5376748000,-122.3639081000,129.0929434539521,24.71306,0.1,334.61508,1626296040999,,,,
Fix,GT,37.5378775000,-122.3640291000,130.09494620796613,25.086779,0.1,334.5977,1626296041999,,,,
Fix,GT,37.5380828000,-122.3641522000,131.09692800449375,25.440634,0.1,334.47775,1626296042999,,,,
Fix,GT,37.5382911000,-122.3642769000,132.13290213123037,25.790382,0.1,334.49442,1626296043999,,,,
Fix,GT,37.5385021000,-122.3644038000,133.1659148944018,26.125002,0.1,334.54218,1626296044999,,,,
Fix,GT,37.5387159000,-122.3645313000,134.2239089376253,26.430584,0.1,334.6334,1626296045999,,,,
Fix,GT,37.5389322000,-122.3646604000,135.2848854152926,26.716658,0.1,334.64578,1626296046999,,,,
Fix,GT,37.5391508000,-122.3647906000,136.3668646912447,26.995052,0.1,334.7759,1626296047999,,,,
Fix,GT,37.5393717000,-122.3649221000,137.4548979806459,27.260807,0.1,334.61734,1626296048999,,,,
Fix,GT,37.5395945000,-122.3650555000,138.53889722175336,27.533154,0.1,334.4712,1626296049999,,,,
Fix,GT,37.5398192000,-122.3651912000,139.65187972347758,27.805912,0.1,334.35876,1626296050999,,,,
Fix,GT,37.5400461000,-122.3653270000,140.79184069642633,27.983278,0.1,334.6201,1626296051999,,,,
Fix,GT,37.5402743000,-122.3654641000,142.0487680183851,28.178177,0.1,334.47467,1626296052999,,,,
Fix,GT,37.5405039000,-122.3656030000,143.39178247269592,28.370836,0.1,334.3603,1626296053999,,,,
Fix,GT,37.5407350000,-122.3657428000,144.72581546611582,28.569727,0.1,334.3447,1626296054999,,,,
Fix,GT,37.5409669000,-122.3658863000,145.91284540146535,28.800503,0.1,333.34915,1626296055999,,,,
Fix,GT,37.5411981000,-122.3660356000,147.06486143383245,28.876596,0.1,332.40588,1626296056999,,,,
Fix,GT,37.5414276000,-122.3661903000,148.20785966604944,28.93397,0.1,331.3039,1626296057999,,,,
Fix,GT,37.5416553000,-122.3663510000,149.35285075490538,29.023102,0.1,330.2095,1626296058999,,,,
Fix,GT,37.5418813000,-122.3665175000,150.4858587014196,29.140999,0.1,329.05243,1626296059999,,,,
Fix,GT,37.5421055000,-122.3666909000,151.51693218778473,29.272886,0.1,328.0718,1626296060999,,,,
Fix,GT,37.5423276000,-122.3668684000,152.43597405997934,29.146421,0.1,327.1252,1626296061999,,,,
Fix,GT,37.5425468000,-122.3670507000,153.25302198191002,29.253439,0.1,326.09625,1626296062999,,,,
Fix,GT,37.5427647000,-122.3672388000,153.9770292607427,29.435698,0.1,325.14966,1626296063999,,,,
Fix,GT,37.5429818000,-122.3674323000,154.59310130894028,29.653524,0.1,324.16208,1626296064999,,,,
Fix,GT,37.5431970000,-122.3676316000,155.097175845548,29.612944,0.1,323.1906,1626296065999,,,,
Fix,GT,37.5434083000,-122.3678344000,155.45524580585788,29.429781,0.1,322.16336,1626296066999,,,,
Fix,GT,37.5436161000,-122.3680407000,155.54332879270805,29.353859,0.1,321.32843,1626296067999,,,,
Fix,GT,37.5438207000,-122.3682483000,155.53535223603285,29.014725,0.1,320.7603,1626296068999,,,,
Fix,GT,37.5440213000,-122.3684557000,155.58529097141582,28.634615,0.1,320.56052,1626296069999,,,,
Fix,GT,37.5442193000,-122.3686604000,155.74128814178584,28.333914,0.1,320.52222,1626296070999,,,,
Fix,GT,37.5444156000,-122.3688642000,155.89128631292624,28.236778,0.1,320.54794,1626296071999,,,,
Fix,GT,37.5446111000,-122.3690666000,156.0612500551215,27.966806,0.1,320.6172,1626296072999,,,,
Fix,GT,37.5448050000,-122.3692658000,156.24027663910783,27.618082,0.1,320.90378,1626296073999,,,,
Fix,GT,37.5449961000,-122.3694624000,156.41426625795793,27.246645,0.1,320.66608,1626296074999,,,,
Fix,GT,37.5451856000,-122.3696552000,156.5542914230009,26.889297,0.1,321.79346,1626296075999,,,,
Fix,GT,37.5453764000,-122.3698393000,156.6972685801211,26.537178,0.1,323.58768,1626296076999,,,,
Fix,GT,37.5455687000,-122.3700142000,156.8243408203125,26.17103,0.1,324.68204,1626296077999,,,,
Fix,GT,37.5457610000,-122.3701820000,156.98527374556943,25.811832,0.1,325.64752,1626296078999,,,,
Fix,GT,37.5459517000,-122.3703453000,157.22519474435103,25.416645,0.1,325.65497,1626296079999,,,,
Fix,GT,37.5461387000,-122.3705063000,157.63313873783045,24.9309,0.1,325.7872,1626296080999,,,,
Fix,GT,37.5463227000,-122.3706636000,158.11408939823377,24.469728,0.1,325.70605,1626296081999,,,,
Fix,GT,37.5465038000,-122.3708176000,158.39326734872702,24.10086,0.1,325.90805,1626296082999,,,,
Fix,GT,37.5466818000,-122.3709709000,158.47335594252127,23.80682,0.1,325.31622,1626296083999,,,,
Fix,GT,37.5468572000,-122.3711237000,158.3144375202246,23.555397,0.1,325.26767,1626296084999,,,,
Fix,GT,37.5470282000,-122.3712725000,158.13540198097326,22.3354,0.1,325.50552,1626296085999,,,,
Fix,GT,37.5471862000,-122.3714095000,157.94643707740033,20.225744,0.1,325.43295,1626296086999,,,,
Fix,GT,37.5473274000,-122.3715316000,157.767401475332,17.6383,0.1,325.73508,1626296087999,,,,
Fix,GT,37.5474481000,-122.3716345000,157.62840272971698,14.707345,0.1,326.00183,1626296088999,,,,
Fix,GT,37.5475464000,-122.3717173000,157.49133082633125,11.564365,0.1,326.0386,1626296089999,,,,
Fix,GT,37.5476182000,-122.3717794000,157.47931781411535,7.633096,0.1,325.47812,1626296090999,,,,
Fix,GT,37.5476606000,-122.3718166000,157.56732602351622,3.9660623,0.1,325.2496,1626296091999,,,,
Fix,GT,37.5476787000,-122.3718324000,157.6103515625,1.1240255,0.1,325.32645,1626296092999,,,,
Fix,GT,37.5476834000,-122.3718365000,157.6083526611328,0.6552414,0.1,325.16605,1626296093999,,,,
Fix,GT,37.5476932000,-122.3718464000,157.61434060828378,2.4397113,0.1,323.1221,1626296094999,,,,
Fix,GT,37.5477153000,-122.3718786000,157.71929685480973,4.763497,0.1,310.2899,1626296095999,,,,
Fix,GT,37.5477288000,-122.3719372000,157.84030343082122,5.596611,0.1,280.82843,1626296096999,,,,
Fix,GT,37.5477122000,-122.3720063000,157.88334213449343,6.8245554,0.1,247.17155,1626296097999,,,,
Fix,GT,37.5476698000,-122.3720744000,157.9003492754182,8.364625,0.1,230.33455,1626296098999,,,,
Fix,GT,37.5476144000,-122.3721553000,157.9043207002187,10.430891,0.1,229.4094,1626296099999,,,,
Fix,GT,37.5475485000,-122.3722522000,157.9843180786056,11.960669,0.1,229.68312,1626296100999,,,,
Fix,GT,37.5474776000,-122.3723576000,158.04032662072495,12.182332,0.1,229.98772,1626296101999,,,,
Fix,GT,37.5474076000,-122.3724620000,158.12932668082067,11.916398,0.1,229.76616,1626296102999,,,,
Fix,GT,37.5473388000,-122.3725628000,158.19230811040325,11.531768,0.1,229.37256,1626296103999,,,,
Fix,GT,37.5472741000,-122.3726573000,158.31927610061575,10.272211,0.1,229.59398,1626296104999,,,,
Fix,GT,37.5472194000,-122.3727379000,158.46427834251426,8.434026,0.1,229.48901,1626296105999,,,,
Fix,GT,37.5471730000,-122.3728014000,158.65224638094696,7.05015,0.1,225.63101,1626296106999,,,,
Fix,GT,37.5471202000,-122.3728420000,158.86323598324088,6.70266,0.1,206.61914,1626296107999,,,,
Fix,GT,37.5470570000,-122.3728558000,159.01231777960675,7.5707493,0.1,184.95653,1626296108999,,,,
Fix,GT,37.5469828000,-122.3728344000,158.91432574639475,9.088051,0.1,160.18951,1626296109999,,,,
Fix,GT,37.5469071000,-122.3727776000,158.98436670414958,10.55843,0.1,145.3283,1626296110999,,,,
Fix,GT,37.5468280000,-122.3726933000,159.077302389117,12.397087,0.1,138.46788,1626296111999,,,,
Fix,GT,37.5467384000,-122.3725920000,159.17127423498277,14.380843,0.1,138.126,1626296112999,,,,
Fix,GT,37.5466354000,-122.3724754000,159.26730917241912,16.417442,0.1,137.81908,1626296113999,,,,
Fix,GT,37.5465195000,-122.3723434000,159.33032158322203,18.323341,0.1,137.90926,1626296114999,,,,
Fix,GT,37.5463908000,-122.3721977000,159.41728075595165,20.136162,0.1,137.99933,1626296115999,,,,
Fix,GT,37.5462510000,-122.3720390000,159.47433213713703,21.709389,0.1,138.022,1626296116999,,,,
Fix,GT,37.5461002000,-122.3718683000,159.43037933437517,23.405067,0.1,137.95375,1626296117999,,,,
Fix,GT,37.5459381000,-122.3716841000,159.14851576143155,25.099653,0.1,137.91138,1626296118999,,,,
Fix,GT,37.5457647000,-122.3714897000,158.62259997081856,26.454082,0.1,138.86261,1626296119999,,,,
Fix,GT,37.5455785000,-122.3712909000,157.8767098731405,27.755165,0.1,140.73248,1626296120999,,,,
Fix,GT,37.5453790000,-122.3710904000,157.02573016857423,28.956596,0.1,141.89604,1626296121999,,,,
Fix,GT,37.5451693000,-122.3708843000,156.16774225692734,30.10914,0.1,142.02493,1626296122999,,,,
Fix,GT,37.5449539000,-122.3706717000,155.30375759491562,30.609797,0.1,141.73082,1626296123999,,,,
Fix,GT,37.5447376000,-122.3704558000,154.45371146319667,30.630013,0.1,141.84013,1626296124999,,,,
Fix,GT,37.5445214000,-122.3702418000,153.5597100553059,30.479044,0.1,141.65785,1626296125999,,,,
Fix,GT,37.5443052000,-122.3700292000,152.70979145347337,30.56116,0.1,142.36037,1626296126999,,,,
Fix,GT,37.5440862000,-122.3698167000,151.87775054666417,30.861008,0.1,142.40192,1626296127999,,,,
Fix,GT,37.5438646000,-122.3696031000,151.14865235228353,31.134615,0.1,142.83633,1626296128999,,,,
Fix,GT,37.5436399000,-122.3693905000,150.43167539480237,31.310595,0.1,143.30072,1626296129999,,,,
Fix,GT,37.5434139000,-122.3691779000,149.877611644406,31.356638,0.1,143.42639,1626296130999,,,,
Fix,GT,37.5431867000,-122.3689662000,149.26461884627133,31.435545,0.1,143.55217,1626296131999,,,,
Fix,GT,37.5429587000,-122.3687544000,148.66462367742133,31.53495,0.1,143.68152,1626296132999,,,,
Fix,GT,37.5427297000,-122.3685426000,148.06861111048147,31.603561,0.1,143.96461,1626296133999,,,,
Fix,GT,37.5424984000,-122.3683329000,147.4646164744754,31.705511,0.1,144.47253,1626296134999,,,,
Fix,GT,37.5422646000,-122.3681260000,146.85162985842362,31.826706,0.1,145.39355,1626296135999,,,,
Fix,GT,37.5420274000,-122.3679224000,146.24060426341384,31.952505,0.1,146.15057,1626296136999,,,,
Fix,GT,37.5417870000,-122.3677220000,145.62762221896992,32.087658,0.1,146.87027,1626296137999,,,,
Fix,GT,37.5415442000,-122.3675246000,145.00962622486986,32.12897,0.1,147.51122,1626296138999,,,,
Fix,GT,37.5412993000,-122.3673305000,144.39562192940502,32.170277,0.1,148.19308,1626296139999,,,,
Fix,GT,37.5410514000,-122.3671410000,143.7896299574486,32.281994,0.1,149.33325,1626296140999,,,,
Fix,GT,37.5407996000,-122.3669554000,143.17065426740646,32.538315,0.1,149.99194,1626296141999,,,,
Fix,GT,37.5405444000,-122.3667716000,142.55660595973313,32.78997,0.1,150.59424,1626296142999,,,,
Fix,GT,37.5402856000,-122.3665907000,141.9176579037121,32.932507,0.1,151.48915,1626296143999,,,,
Fix,GT,37.5400244000,-122.3664129000,141.19768890908654,33.02103,0.1,151.729,1626296144999,,,,
Fix,GT,37.5397626000,-122.3662357000,140.37672204553382,32.93634,0.1,151.78737,1626296145999,,,,
Fix,GT,37.5395022000,-122.3660595000,139.44178877784998,32.72825,0.1,151.70534,1626296146999,,,,
Fix,GT,37.5392437000,-122.3658838000,138.4248274372194,32.50527,0.1,151.554,1626296147999,,,,
Fix,GT,37.5389869000,-122.3657092000,137.29188261614036,32.32886,0.1,151.86108,1626296148999,,,,
Fix,GT,37.5387306000,-122.3655370000,136.0739952879594,32.18766,0.1,151.89336,1626296149999,,,,
Fix,GT,37.5384758000,-122.3653646000,134.80494359576005,32.06976,0.1,151.643,1626296150999,,,,
Fix,GT,37.5382220000,-122.3651925000,133.50293749555203,31.964718,0.1,151.64706,1626296151999,,,,
Fix,GT,37.5379691000,-122.3650206000,132.20391299575567,31.864227,0.1,151.64513,1626296152999,,,,
Fix,GT,37.5377171000,-122.3648492000,130.9249447665643,31.756424,0.1,151.82784,1626296153999,,,,
Fix,GT,37.5374646000,-122.3646789000,129.63987713149982,31.90972,0.1,151.8823,1626296154999,,,,
Fix,GT,37.5372106000,-122.3645068000,128.3729207292199,32.165836,0.1,151.63246,1626296155999,,,,
Fix,GT,37.5369550000,-122.3643324000,127.0729840425629,32.40006,0.1,151.6279,1626296156999,,,,
Fix,GT,37.5366973000,-122.3641576000,125.78093105995686,32.53795,0.1,151.88602,1626296157999,,,,
Fix,GT,37.5364389000,-122.3639844000,124.47395701930327,32.489567,0.1,151.91917,1626296158999,,,,
Fix,GT,37.5361817000,-122.3638103000,123.18393186169124,32.38207,0.1,151.71298,1626296159999,,,,
Fix,GT,37.5359252000,-122.3636364000,121.88495943011549,32.3155,0.1,151.71292,1626296160999,,,,
Fix,GT,37.5356694000,-122.3634624000,120.59493752768321,32.279804,0.1,151.63947,1626296161999,,,,
Fix,GT,37.5354134000,-122.3632892000,119.31694270910339,32.246197,0.1,151.85597,1626296162999,,,,
Fix,GT,37.5351576000,-122.3631166000,118.02694063374747,32.23764,0.1,151.72372,1626296163999,,,,
Fix,GT,37.5349016000,-122.3629444000,116.68401304960571,32.23377,0.1,152.28185,1626296164999,,,,
Fix,GT,37.5346437000,-122.3627771000,115.36796816457354,32.203682,0.1,153.31628,1626296165999,,,,
Fix,GT,37.5343834000,-122.3626170000,114.06896217232679,32.147186,0.1,154.6597,1626296166999,,,,
Fix,GT,37.5341205000,-122.3624654000,112.76396061371906,32.084778,0.1,156.15082,1626296167999,,,,
Fix,GT,37.5338555000,-122.3623217000,111.48796012125331,32.013256,0.1,157.20468,1626296168999,,,,
Fix,GT,37.5335891000,-122.3621840000,110.2769248291761,31.94817,0.1,158.47685,1626296169999,,,,
Fix,GT,37.5333209000,-122.3620542000,109.15686956630543,31.870106,0.1,159.67464,1626296170999,,,,
Fix,GT,37.5330511000,-122.3619330000,108.12179633173582,31.7498,0.1,161.08984,1626296171999,,,,
Fix,GT,37.5327807000,-122.3618185000,107.19979962382422,31.6241,0.1,161.6067,1626296172999,,,,
Fix,GT,37.5325110000,-122.3617052000,106.24086571406315,31.491707,0.1,161.59563,1626296173999,,,,
Fix,GT,37.5322423000,-122.3615918000,105.28881298177475,31.41208,0.1,161.4165,1626296174999,,,,
Fix,GT,37.5319749000,-122.3614777000,104.35175605093718,31.25928,0.1,161.1642,1626296175999,,,,
Fix,GT,37.5317093000,-122.3613632000,103.39381999053148,31.085243,0.1,161.12334,1626296176999,,,,
Fix,GT,37.5314452000,-122.3612500000,102.48479449157458,30.858578,0.1,161.25745,1626296177999,,,,
Fix,GT,37.5311832000,-122.3611377000,101.57976321312526,30.620848,0.1,161.23439,1626296178999,,,,
Fix,GT,37.5309228000,-122.3610260000,100.64081044454906,30.44261,0.1,161.37149,1626296179999,,,,
Fix,GT,37.5306636000,-122.3609159000,99.65075361988602,30.278807,0.1,161.29137,1626296180999,,,,
Fix,GT,37.5304064000,-122.3608053000,98.84479652683876,30.047363,0.1,161.11858,1626296181999,,,,
Fix,GT,37.5301515000,-122.3606955000,97.91578187627238,29.686836,0.1,161.32317,1626296182999,,,,
Fix,GT,37.5299009000,-122.3605901000,97.0096832557374,28.967617,0.1,161.82141,1626296183999,,,,
Fix,GT,37.5296569000,-122.3604871000,96.20369317947188,28.186886,0.1,161.21606,1626296184999,,,,
Fix,GT,37.5294198000,-122.3603851000,95.38073786209134,27.505758,0.1,161.33813,1626296185999,,,,
Fix,GT,37.5291871000,-122.3602855000,94.55273522688731,27.066475,0.1,161.06477,1626296186999,,,,
Fix,GT,37.5289579000,-122.3601866000,93.72272901446377,26.767548,0.1,161.07608,1626296187999,,,,
Fix,GT,37.5287306000,-122.3600888000,92.9836788832763,26.59081,0.1,161.32526,1626296188999,,,,
Fix,GT,37.5285038000,-122.3599937000,92.3695766163728,26.473166,0.1,161.8104,1626296189999,,,,
Fix,GT,37.5282777000,-122.3599017000,91.92653997141679,26.322653,0.1,162.65402,1626296190999,,,,
Fix,GT,37.5280511000,-122.3598157000,91.59752642445619,26.23972,0.1,163.77043,1626296191999,,,,
Fix,GT,37.5278243000,-122.3597353000,91.56823983714366,26.073301,0.1,164.8723,1626296192999,,,,
Fix,GT,37.5275984000,-122.3596586000,91.86811461751313,25.857372,0.1,165.2165,1626296193999,,,,
Fix,GT,37.5273744000,-122.3595825000,92.3661107514381,25.661182,0.1,164.76338,1626296194999,,,,
Fix,GT,37.5271527000,-122.3595026000,92.78018333422733,25.543697,0.1,163.60153,1626296195999,,,,
Fix,GT,37.5269341000,-122.3594187000,93.16419540196785,25.171852,0.1,162.81374,1626296196999,,,,
Fix,GT,37.5267201000,-122.3593330000,93.6511281737694,24.64973,0.1,162.1248,1626296197999,,,,
Fix,GT,37.5265127000,-122.3592444000,94.06317818475236,23.936321,0.1,160.14175,1626296198999,,,,
Fix,GT,37.5263161000,-122.3591486000,94.416198739621,22.748804,0.1,157.71214,1626296199999,,,,
Fix,GT,37.5261337000,-122.3590502000,94.61228842466517,21.331715,0.1,156.23558,1626296200999,,,,
Fix,GT,37.5259638000,-122.3589557000,94.75228776549557,19.899858,0.1,155.98985,1626296201999,,,,
Fix,GT,37.5258072000,-122.3588688000,94.7862460843462,17.834986,0.1,156.67976,1626296202999,,,,
Fix,GT,37.5256700000,-122.3587936000,94.76536946413944,15.388266,0.1,156.07674,1626296203999,,,,
Fix,GT,37.5255528000,-122.3587283000,94.71842507219208,13.102881,0.1,156.32416,1626296204999,,,,
Fix,GT,37.5254539000,-122.3586744000,94.61739364998357,10.8180065,0.1,156.35216,1626296205999,,,,
Fix,GT,37.5253739000,-122.3586301000,94.54043538853512,8.587458,0.1,156.2289,1626296206999,,,,
Fix,GT,37.5253124000,-122.3585964000,94.4353868731414,6.3317876,0.1,156.44225,1626296207999,,,,
Fix,GT,37.5252696000,-122.3585730000,94.36339110068184,4.3477163,0.1,156.34846,1626296208999,,,,
Fix,GT,37.5252366000,-122.3585540000,94.29234797905701,3.887828,0.1,155.12428,1626296209999,,,,
Fix,GT,37.5252056000,-122.3585355000,94.2823870838547,3.7359216,0.1,154.51096,1626296210999,,,,
Fix,GT,37.5251754000,-122.3585175000,94.22135846107994,3.715727,0.1,154.74223,1626296211999,,,,
Fix,GT,37.5251439000,-122.3584990000,94.22239443486978,3.9140835,0.1,154.8076,1626296212999,,,,
Fix,GT,37.5251155000,-122.3584829000,94.18837854271624,2.6576111,0.1,155.57568,1626296213999,,,,
Fix,GT,37.5250994000,-122.3584740000,94.13137658281721,1.6005095,0.1,155.78404,1626296214999,,,,
Fix,GT,37.5250838000,-122.3584652000,94.09638266610546,2.4304967,0.1,155.30518,1626296215999,,,,
Fix,GT,37.5250582000,-122.3584470000,94.07738063840407,4.1241584,0.1,149.88605,1626296216999,,,,
Fix,GT,37.5250224000,-122.3584110000,93.97038603538022,5.8947372,0.1,139.8509,1626296217999,,,,
Fix,GT,37.5249820000,-122.3583546000,93.84741397819744,7.3653574,0.1,129.86975,1626296218999,,,,
Fix,GT,37.5249402000,-122.3582806000,93.93024196018814,8.532103,0.1,123.924545,1626296219999,,,,
Fix,GT,37.5248964000,-122.3581928000,94.20218693736206,9.717236,0.1,121.98926,1626296220999,,,,
Fix,GT,37.5248476000,-122.3580948000,94.76602279741383,10.716992,0.1,122.22109,1626296221999,,,,
Fix,GT,37.5247903000,-122.3579891000,95.44499362322858,11.890876,0.1,125.33011,1626296222999,,,,
Fix,GT,37.5247225000,-122.3578786000,96.07107321864169,12.791327,0.1,129.23328,1626296223999,,,,
Fix,GT,37.5246452000,-122.3577664000,96.81700229432045,13.403896,0.1,131.58247,1626296224999,,,,
Fix,GT,37.5245623000,-122.3576574000,97.40617191761612,13.169563,0.1,134.89743,1626296225999,,,,
Fix,GT,37.5244771000,-122.3575602000,98.06797902430571,12.418303,0.1,139.69116,1626296226999,,,,
Fix,GT,37.5243877000,-122.3574777000,98.73193152090425,12.421727,0.1,145.86708,1626296227999,,,,
Fix,GT,37.5242891000,-122.3574053000,99.60091493180698,13.0174675,0.1,151.84883,1626296228999,,,,
Fix,GT,37.5241810000,-122.3573440000,100.41096100620507,13.215521,0.1,158.24858,1626296229999,,,,
Fix,GT,37.5240694000,-122.3572972000,101.33189272320305,12.8367605,0.1,163.25923,1626296230999,,,,
Fix,GT,37.5239614000,-122.3572594000,102.19397002970072,12.0397835,0.1,165.08731,1626296231999,,,,
Fix,GT,37.5238608000,-122.3572227000,102.96097295734398,11.26453,0.1,162.37292,1626296232999,,,,
Fix,GT,37.5237647000,-122.3571816000,103.6789896330265,11.384606,0.1,161.38206,1626296233999,,,,
Fix,GT,37.5236649000,-122.3571421000,104.34803940980055,11.8644905,0.1,163.3472,1626296234999,,,,
Fix,GT,37.5235622000,-122.3571066000,104.91809060506148,11.660377,0.1,165.28137,1626296235999,,,,
Fix,GT,37.5234628000,-122.3570752000,105.38415262680519,11.082014,0.1,166.03078,1626296236999,,,,
Fix,GT,37.5233693000,-122.3570464000,105.75219772956916,10.095472,0.1,166.32574,1626296237999,,,,
Fix,GT,37.5232898000,-122.3570216000,105.91031041114184,7.952803,0.1,166.04404,1626296238999,,,,
Fix,GT,37.5232326000,-122.3570033000,105.98031226527928,5.143098,0.1,165.73897,1626296239999,,,,
Fix,GT,37.5231999000,-122.3569927000,105.98936414679702,2.4898832,0.1,165.51285,1626296240999,,,,
Fix,GT,37.5231856000,-122.3569879000,105.97736083792097,0.86098456,0.1,165.38243,1626296241999,,,,
Fix,GT,37.5231829000,-122.3569871000,105.96637405863112,0.01218457,0.1,165.35962,1626296242999,,,,
Fix,GT,37.5231828000,-122.3569871000,105.96734619140625,0.001006092,0.1,165.36092,1626296243999,,,,
Fix,GT,37.5231828000,-122.3569871000,105.96835327148438,0.000004932165,0.1,165.35725,1626296244999,,,,
Fix,GT,37.5231820000,-122.3569868000,105.96235656738281,0.37507653,0.1,165.3512,1626296245999,,,,
Fix,GT,37.5231753000,-122.3569846000,105.9593554850353,1.111523,0.1,165.28464,1626296246999,,,,
Fix,GT,37.5231630000,-122.3569804000,105.95136486142201,1.7345327,0.1,164.97127,1626296247999,,,,
Fix,GT,37.5231437000,-122.3569709000,105.93735239402122,2.889699,0.1,159.9115,1626296248999,,,,
Fix,GT,37.5231175000,-122.3569453000,105.9143573271449,4.298705,0.1,142.40047,1626296249999,,,,
Fix,GT,37.5230939000,-122.3568945000,105.87538066184788,5.86533,0.1,117.648705,1626296250999,,,,
Fix,GT,37.5230836000,-122.3568198000,105.78829079067691,7.261811,0.1,96.47335,1626296251999,,,,
Fix,GT,37.5230826000,-122.3567319000,106.09212792216476,8.093727,0.1,90.13482,1626296252999,,,,
Fix,GT,37.5230840000,-122.3566364000,106.73396717045034,8.797847,0.1,88.92668,1626296253999,,,,
Fix,GT,37.5230860000,-122.3565337000,107.61987900116947,9.410319,0.1,88.72842,1626296254999,,,,
Fix,GT,37.5230880000,-122.3564223000,108.61196757771177,10.257433,0.1,89.28812,1626296255999,,,,
Fix,GT,37.5230896000,-122.3563028000,109.53577912118999,10.912242,0.1,88.796555,1626296256999,,,,
Fix,GT,37.5230921000,-122.3561757000,110.61478864047967,11.535229,0.1,88.747536,1626296257999,,,,
Fix,GT,37.5230944000,-122.3560436000,111.7538005291799,11.541785,0.1,88.9443,1626296258999,,,,
Fix,GT,37.5230966000,-122.3559184000,112.82985878579348,10.588009,0.1,88.87777,1626296259999,,,,
Fix,GT,37.5230985000,-122.3558045000,113.78390307966492,9.544507,0.1,88.98624,1626296260999,,,,
Fix,GT,37.5231003000,-122.3557031000,114.54601634179471,8.314702,0.1,88.85414,1626296261999,,,,
Fix,GT,37.5231022000,-122.3556168000,115.11010149383219,7.017843,0.1,88.38764,1626296262999,,,,
Fix,GT,37.5231055000,-122.3555431000,115.52816067942877,6.0695148,0.1,85.76386,1626296263999,,,,
Fix,GT,37.5231164000,-122.3554801000,115.87648275326418,5.3475823,0.1,75.07892,1626296265000,,,,
Fix,GT,37.5231438000,-122.3554251000,116.08239626466944,5.9738584,0.1,54.6938,1626296266000,,,,
Fix,GT,37.5231910000,-122.3553811000,116.18937158345675,6.9045978,0.1,31.688553,1626296267000,,,,
Fix,GT,37.5232562000,-122.3553623000,116.16320072730818,7.562546,0.1,6.7150044,1626296268000,,,,
Fix,GT,37.5233265000,-122.3553817000,115.7110103982539,8.51263,0.1,341.71872,1626296269000,,,,
Fix,GT,37.5234015000,-122.3554352000,114.99389431514828,10.584647,0.099,326.8269,1626296270000,,,,
Fix,GT,37.5234848000,-122.3555183000,113.95671882472685,12.9474125,0.1,319.6633,1626296271000,,,,
Fix,GT,37.5235809000,-122.3556241000,112.68272669266412,15.379914,0.099,318.56046,1626296272000,,,,
Fix,GT,37.5236920000,-122.3557493000,111.38671757941012,17.685272,0.1,318.1085,1626296273000,,,,
Fix,GT,37.5238173000,-122.3558900000,110.16875528097779,19.671492,0.1,318.31805,1626296274000,,,,
Fix,GT,37.5239569000,-122.3560440000,108.91568596545608,21.605473,0.1,318.98648,1626296275000,,,,
Fix,GT,37.5241092000,-122.3562110000,107.53565245670796,23.283535,0.1,318.92285,1626296276000,,,,
Fix,GT,37.5242718000,-122.3563902000,106.14473267597205,24.676155,0.1,318.80756,1626296277000,,,,
Fix,GT,37.5244423000,-122.3565782000,104.94388687336294,25.59568,0.1,319.02988,1626296278000,,,,
Fix,GT,37.5246198000,-122.3567684000,104.1099255797169,26.225407,0.1,320.56982,1626296279000,,,,
Fix,GT,37.5248060000,-122.3569586000,103.38694499578529,27.101793,0.1,321.632,1626296280000,,,,
Fix,GT,37.5250024000,-122.3571499000,102.51192012804833,28.061567,0.1,322.75833,1626296281000,,,,
Fix,GT,37.5252044000,-122.3573427000,101.59688732627438,28.20056,0.1,322.56595,1626296282000,,,,
Fix,GT,37.5254032000,-122.3575414000,100.57081724580468,28.195509,0.1,321.19437,1626296283000,,,,
Fix,GT,37.5255998000,-122.3577433000,99.49877161721979,28.162907,0.1,320.443,1626296284000,,,,
Fix,GT,37.5257945000,-122.3579475000,98.3848962231198,28.135138,0.1,320.1546,1626296285000,,,,
Fix,GT,37.5259915000,-122.3581482000,97.30178555235837,28.305317,0.099,322.26794,1626296286000,,,,
Fix,GT,37.5261990000,-122.3583401000,96.11975909107099,28.976706,0.1,325.09448,1626296287000,,,,
Fix,GT,37.5264195000,-122.3585236000,94.91674248973843,29.78868,0.099,327.952,1626296288000,,,,
Fix,GT,37.5266528000,-122.3586993000,93.74082701943153,30.628408,0.1,330.27765,1626296289000,,,,
Fix,GT,37.5268979000,-122.3588664000,92.7559048040505,31.301598,0.1,332.9247,1626296290000,,,,
Fix,GT,37.5271537000,-122.3590233000,91.99604240333224,31.883768,0.1,335.10544,1626296291000,,,,
Fix,GT,37.5274189000,-122.3591685000,91.46817006252559,32.36441,0.1,337.841,1626296292000,,,,
Fix,GT,37.5276928000,-122.3593011000,91.22736351883273,32.814922,0.099,340.02188,1626296293000,,,,
Fix,GT,37.5279731000,-122.3594246000,91.44146957382742,33.134632,0.1,341.46323,1626296294000,,,,
Fix,GT,37.5282573000,-122.3595452000,91.76850544251258,33.470783,0.099,341.4691,1626296295000,,,,
Fix,GT,37.5285443000,-122.3596659000,92.22661941115098,33.68815,0.1,341.60626,1626296296000,,,,
Fix,GT,37.5288325000,-122.3597873000,92.94077009281376,33.78761,0.1,341.41013,1626296297000,,,,
Fix,GT,37.5291211000,-122.3599098000,93.87787355600767,33.795834,0.1,341.38397,1626296298000,,,,
Fix,GT,37.5294088000,-122.3600315000,94.9398357279577,33.599598,0.1,341.42957,1626296299000,,,,
Fix,GT,37.5296949000,-122.3601528000,95.9408176312744,33.42355,0.1,341.38788,1626296300000,,,,
Fix,GT,37.5299789000,-122.3602722000,96.87680236230852,32.947163,0.1,341.4252,1626296301000,,,,
Fix,GT,37.5302569000,-122.3603911000,97.89184527569088,32.210323,0.1,341.07767,1626296302000,,,,
Fix,GT,37.5305283000,-122.3605073000,98.89180080188268,31.470608,0.1,341.37604,1626296303000,,,,
Fix,GT,37.5307943000,-122.3606200000,99.72967731536758,30.88654,0.1,341.35193,1626296304000,,,,
Fix,GT,37.5310560000,-122.3607312000,100.6828483156163,30.503672,0.1,341.2419,1626296305000,,,,
Fix,GT,37.5313150000,-122.3608429000,101.62182999121416,30.27327,0.1,341.00015,1626296306000,,,,
Fix,GT,37.5315719000,-122.3609540000,102.51179464411604,30.043602,0.1,341.19482,1626296307000,,,,
Fix,GT,37.5318267000,-122.3610621000,103.39675103455406,29.584383,0.1,341.4996,1626296308000,,,,
Fix,GT,37.5320768000,-122.3611664000,104.29073299157686,28.913773,0.1,341.77066,1626296309000,,,,
Fix,GT,37.5323215000,-122.3612697000,105.1427661662861,28.437094,0.1,341.08243,1626296310000,,,,
Fix,GT,37.5325627000,-122.3613736000,106.01474496928068,28.166021,0.1,340.99097,1626296311000,,,,
Fix,GT,37.5328014000,-122.3614775000,106.84173704558378,27.920721,0.1,340.99503,1626296312000,,,,
Fix,GT,37.5330380000,-122.3615799000,107.72478594233966,27.626642,0.1,341.03174,1626296313000,,,,
Fix,GT,37.5332720000,-122.3616828000,108.67883658184965,27.448925,0.1,340.88922,1626296314000,,,,
Fix,GT,37.5335055000,-122.3617831000,109.69088392929766,27.33529,0.1,341.29602,1626296315000,,,,
Fix,GT,37.5337380000,-122.3618837000,110.7368446674005,27.242607,0.1,340.77737,1626296316000,,,,
Fix,GT,37.5339699000,-122.3619847000,111.78787318365019,27.280437,0.099,341.1054,1626296317000,,,,
Fix,GT,37.5342030000,-122.3620844000,112.88488849908686,27.425076,0.1,341.3242,1626296318000,,,,
Fix,GT,37.5344377000,-122.3621862000,113.99188340066428,27.661444,0.1,340.68448,1626296319000,,,,
Fix,GT,37.5346731000,-122.3622923000,115.10888211109308,27.850128,0.1,340.02225,1626296320000,,,,
Fix,GT,37.5349088000,-122.3624035000,116.22790835869321,28.032997,0.1,339.04514,1626296321000,,,,
Fix,GT,37.5351444000,-122.3625194000,117.35689211607426,28.137098,0.1,338.47336,1626296322000,,,,
Fix,GT,37.5353796000,-122.3626385000,118.49490595356413,28.118958,0.1,337.89438,1626296323000,,,,
Fix,GT,37.5356148000,-122.3627609000,119.62288144003786,28.428938,0.1,337.2795,1626296324000,,,,
Fix,GT,37.5358517000,-122.3628886000,120.7479092128574,28.787346,0.1,336.6003,1626296325000,,,,
Fix,GT,37.5360906000,-122.3630208000,121.90389267018452,29.157665,0.1,335.8307,1626296326000,,,,
Fix,GT,37.5363300000,-122.3631585000,123.06590731183509,29.220121,0.1,335.1866,1626296327000,,,,
Fix,GT,37.5365682000,-122.3632982000,124.17684167617028,29.12497,0.1,334.94702,1626296328000,,,,
Fix,GT,37.5368054000,-122.3634387000,125.21585296952878,29.08316,0.1,334.6689,1626296329000,,,,
Fix,GT,37.5370418000,-122.3635800000,126.25984536273694,29.032745,0.1,334.72742,1626296330000,,,,
Fix,GT,37.5372780000,-122.3637201000,127.33288172143838,28.973309,0.1,334.79276,1626296331000,,,,
Fix,GT,37.5375139000,-122.3638597000,128.4798842454067,28.918953,0.1,334.87238,1626296332000,,,,
Fix,GT,37.5377492000,-122.3640001000,129.62790767239812,28.90282,0.1,334.5509,1626296333000,,,,
Fix,GT,37.5379842000,-122.3641403000,130.78990452535774,28.838058,0.1,334.6737,1626296334000,,,,
Fix,GT,37.5382190000,-122.3642801000,131.9379093137821,28.884409,0.1,334.6289,1626296335000,,,,
Fix,GT,37.5384544000,-122.3644208000,133.0978959280946,28.980843,0.099,334.5954,1626296336000,,,,
Fix,GT,37.5386904000,-122.3645616000,134.25788187330517,29.028103,0.1,334.6951,1626296337000,,,,
Fix,GT,37.5389268000,-122.3647022000,135.41888952242329,29.01162,0.099,334.71527,1626296338000,,,,
Fix,GT,37.5391625000,-122.3648421000,136.5829054136155,28.831322,0.1,334.75812,1626296339000,,,,
Fix,GT,37.5393961000,-122.3649818000,137.73089604198637,28.62467,0.1,334.23376,1626296340000,,,,
Fix,GT,37.5396275000,-122.3651224000,138.8688907527855,28.44039,0.099,334.34518,1626296341000,,,,
Fix,GT,37.5398579000,-122.3652613000,139.99687344204747,28.300348,0.1,334.30963,1626296342000,,,,
Fix,GT,37.5400873000,-122.3653995000,141.16591197148517,28.196583,0.1,334.57294,1626296343000,,,,
Fix,GT,37.5403168000,-122.3655365000,142.42294427510353,28.18221,0.1,334.7075,1626296344000,,,,
Fix,GT,37.5405459000,-122.3656735000,143.70393380289016,28.164667,0.1,334.4737,1626296345000,,,,
Fix,GT,37.5407737000,-122.3658132000,144.95690110690776,28.075249,0.1,333.63382,1626296346000,,,,
Fix,GT,37.5409990000,-122.3659565000,146.08686872475332,27.985834,0.1,332.87735,1626296347000,,,,
Fix,GT,37.5412222000,-122.3661029000,147.19784754945096,27.90366,0.1,332.13235,1626296348000,,,,
Fix,GT,37.5414432000,-122.3662526000,148.30084632360834,27.82937,0.1,331.32727,1626296349000,,,,
Fix,GT,37.5416625000,-122.3664075000,149.40486931118602,28.049978,0.1,330.19012,1626296350000,,,,
Fix,GT,37.5418814000,-122.3665688000,150.49883560919136,28.302582,0.1,329.1204,1626296351000,,,,
Fix,GT,37.5421000000,-122.3667370000,151.49679507467118,28.597624,0.1,328.07898,1626296352000,,,,
Fix,GT,37.5423184000,-122.3669124000,152.39676151041036,28.93623,0.1,326.94043,1626296353000,,,,
Fix,GT,37.5425373000,-122.3670946000,153.20670219990308,29.462515,0.1,326.1565,1626296354000,,,,
Fix,GT,37.5427579000,-122.3672841000,153.94165988395304,29.613441,0.1,325.3839,1626296355000,,,,
Fix,GT,37.5429749000,-122.3674743000,154.55761129721185,29.097767,0.1,324.85587,1626296356000,,,,
Fix,GT,37.5431863000,-122.3676643000,155.0465390165652,28.606623,0.1,324.45132,1626296357000,,,,
Fix,GT,37.5433947000,-122.3678523000,155.4084416594838,28.427374,0.1,324.12314,1626296358000,,,,
Fix,GT,37.5436014000,-122.3680441000,155.52637951951863,28.647337,0.1,323.04163,1626296359000,,,,
Fix,GT,37.5438067000,-122.3682422000,155.53232910113184,28.710314,0.1,321.9559,1626296360000,,,,
Fix,GT,37.5440080000,-122.3684432000,155.56741247042498,28.380907,0.1,321.1494,1626296361000,,,,
Fix,GT,37.5442051000,-122.3686448000,155.72140497776581,28.062292,0.1,320.58768,1626296362000,,,,
Fix,GT,37.5443991000,-122.3688460000,155.87240058321396,27.747217,0.099,320.4445,1626296363000,,,,
Fix,GT,37.5445904000,-122.3690444000,156.0274402811031,27.314465,0.1,320.5875,1626296364000,,,,
Fix,GT,37.5447789000,-122.3692393000,156.20641262376566,26.891758,0.1,320.53894,1626296365000,,,,
Fix,GT,37.5449643000,-122.3694316000,156.36544076706107,26.463732,0.1,320.42316,1626296366000,,,,
Fix,GT,37.5451472000,-122.3696200000,156.5124047182843,26.053352,0.1,321.3144,1626296367000,,,,
Fix,GT,37.5453315000,-122.3697987000,156.64938495974621,25.655973,0.099,323.60883,1626296368000,,,,
Fix,GT,37.5455175000,-122.3699672000,156.7814020342463,25.258474,0.1,324.64926,1626296369000,,,,
Fix,GT,37.5457023000,-122.3701298000,156.8994264987329,24.861315,0.1,325.24734,1626296370000,,,,
Fix,GT,37.5458853000,-122.3702886000,157.10544862440295,24.512037,0.1,325.5655,1626296371000,,,,
Fix,GT,37.5460659000,-122.3704443000,157.43953637404286,24.111992,0.1,325.6266,1626296372000,,,,
Fix,GT,37.5462436000,-122.3705970000,157.83157667153614,23.680914,0.1,325.7544,1626296373000,,,,
Fix,GT,37.5464183000,-122.3707464000,158.2344671131126,23.257504,0.1,325.79678,1626296374000,,,,
Fix,GT,37.5465901000,-122.3708939000,158.4093713419117,22.926065,0.1,325.54498,1626296375000,,,,
Fix,GT,37.5467592000,-122.3710400000,158.38021865031075,22.678835,0.1,325.4028,1626296376000,,,,
Fix,GT,37.5469266000,-122.3711853000,158.1902644430494,22.477903,0.1,325.44104,1626296377000,,,,
Fix,GT,37.5470899000,-122.3713267000,158.02120419139578,21.248348,0.1,325.53998,1626296378000,,,,
Fix,GT,37.5472378000,-122.3714541000,157.82527006401347,18.461168,0.1,325.70276,1626296379000,,,,
Fix,GT,37.5473641000,-122.3715617000,157.6663108662679,15.399377,0.1,326.2486,1626296380000,,,,
Fix,GT,37.5474678000,-122.3716480000,157.54630445816656,12.185265,0.1,326.6111,1626296381000,,,,
Fix,GT,37.5475473000,-122.3717148000,157.42032710846544,9.165686,0.1,325.736,1626296382000,,,,
Fix,GT,37.5476056000,-122.3717668000,157.38237016392816,6.756666,0.1,324.23093,1626296383000,,,,
Fix,GT,37.5476463000,-122.3718046000,157.44839415811416,4.52879,0.1,323.63422,1626296384000,,,,
Fix,GT,37.5476711000,-122.3718280000,157.5203554310594,2.2226775,0.099,323.38144,1626296385000,,,,
Fix,GT,37.5476794000,-122.3718357000,157.5313380316345,0.18043536,0.1,323.35822,1626296386000,,,,
Fix,GT,37.5476794000,-122.3718356000,157.52233172274876,0.0022490683,0.1,323.36444,1626296387000,,,,
Fix,GT,37.5476794000,-122.3718356000,157.5213484395787,0.0014123343,0.1,323.36313,1626296388000,,,,
Fix,GT,37.5476794000,-122.3718356000,157.5213508601813,0.001,0.1,323.36304,1626296389000,,,,
Fix,GT,37.5476794000,-122.3718356000,157.5213517404004,0.0071255798,0.1,323.36264,1626296390000,,,,
Fix,GT,37.5476803000,-122.3718364000,157.51534350975484,0.45964265,0.1,323.33084,1626296391000,,,,
Fix,GT,37.5476899000,-122.3718466000,157.53035422336518,2.400162,0.1,321.56903,1626296392000,,,,
Fix,GT,37.5477104000,-122.3718752000,157.6203965950682,4.2011433,0.1,311.97092,1626296393000,,,,
Fix,GT,37.5477252000,-122.3719279000,157.72740269525576,5.311569,0.1,286.24646,1626296394000,,,,
Fix,GT,37.5477155000,-122.3719945000,157.80033676111645,6.3080964,0.1,253.72682,1626296395000,,,,
Fix,GT,37.5476775000,-122.3720597000,157.81734665295195,7.7977076,0.1,230.94449,1626296396000,,,,
Fix,GT,37.5476263000,-122.3721351000,157.81036629648148,9.717179,0.1,229.92227,1626296397000,,,,
Fix,GT,37.5475655000,-122.3722260000,157.88036829367985,11.250521,0.1,229.97737,1626296398000,,,,
Fix,GT,37.5474975000,-122.3723268000,157.93537993064865,11.820342,0.1,229.9408,1626296399000,,,,
Fix,GT,37.5474293000,-122.3724281000,158.0154037449352,11.609599,0.1,229.55406,1626296400000,,,,
Fix,GT,37.5473622000,-122.3725270000,158.0813476533228,11.365266,0.1,229.69647,1626296401000,,,,
Fix,GT,37.5472974000,-122.3726232000,158.17738980166956,10.693442,0.1,229.97272,1626296402000,,,,
Fix,GT,37.5472398000,-122.3727095000,158.3024459593224,9.163548,0.1,230.11873,1626296403000,,,,
Fix,GT,37.5471899000,-122.3727820000,158.47442699769022,8.021005,0.099,227.75264,1626296404000,,,,
Fix,GT,37.5471325000,-122.3728331000,158.68945549001663,7.5484867,0.1,208.68356,1626296405000,,,,
Fix,GT,37.5470628000,-122.3728491000,158.86436546345772,8.113732,0.1,184.08961,1626296406000,,,,
Fix,GT,37.5469858000,-122.3728295000,158.75639016480784,9.153264,0.1,162.71638,1626296407000,,,,
Fix,GT,37.5469074000,-122.3727796000,158.84635159593694,10.330372,0.1,148.632,1626296408000,,,,
Fix,GT,37.5468293000,-122.3727007000,158.91736161250756,11.814109,0.1,138.53358,1626296409000,,,,
Fix,GT,37.5467452000,-122.3726033000,158.99541598990214,13.614581,0.1,137.71677,1626296410000,,,,
Fix,GT,37.5466477000,-122.3724933000,159.08137682574787,15.472009,0.1,138.15569,1626296411000,,,,
Fix,GT,37.5465386000,-122.3723685000,159.13336626963456,17.22777,0.1,137.54921,1626296412000,,,,
Fix,GT,37.5464183000,-122.3722316000,159.1993792464075,18.728846,0.1,138.0758,1626296413000,,,,
Fix,GT,37.5462878000,-122.3720842000,159.26134547052845,20.240332,0.1,137.79811,1626296414000,,,,
Fix,GT,37.5461473000,-122.3719245000,159.2283121475797,21.85939,0.1,138.077,1626296415000,,,,
Fix,GT,37.5459957000,-122.3717522000,159.0531858613029,23.475216,0.1,137.76425,1626296416000,,,,
Fix,GT,37.5458337000,-122.3715677000,158.60613662268224,25.02419,0.1,138.48816,1626296417000,,,,
Fix,GT,37.5456584000,-122.3713773000,157.94901856511592,26.486086,0.1,140.03299,1626296418000,,,,
Fix,GT,37.5454685000,-122.3711817000,157.15499318749835,28.03386,0.1,141.1753,1626296419000,,,,
Fix,GT,37.5452653000,-122.3709800000,156.32796995271525,29.478823,0.1,142.14375,1626296420000,,,,
Fix,GT,37.5450519000,-122.3707700000,155.4300364539249,30.568527,0.1,141.63289,1626296421000,,,,
Fix,GT,37.5448373000,-122.3705537000,154.58592268580992,30.487211,0.1,141.36562,1626296422000,,,,
Fix,GT,37.5446238000,-122.3703378000,153.73494946933909,30.356346,0.1,141.0424,1626296423000,,,,
Fix,GT,37.5444118000,-122.3701229000,152.86504012202118,30.161392,0.1,141.18874,1626296424000,,,,
Fix,GT,37.5442005000,-122.3699102000,152.06202097581507,29.956589,0.1,141.34492,1626296425000,,,,
Fix,GT,37.5439903000,-122.3696979000,151.29202223546616,30.01351,0.1,141.12843,1626296426000,,,,
Fix,GT,37.5437779000,-122.3694838000,150.6240677773186,30.529585,0.1,141.84698,1626296427000,,,,
Fix,GT,37.5435579000,-122.3692704000,150.00108095650842,31.181421,0.099,142.68605,1626296428000,,,,
Fix,GT,37.5433322000,-122.3690561000,149.41107395852583,31.59154,0.1,143.2517,1626296429000,,,,
Fix,GT,37.5431029000,-122.3688419000,148.8080781948925,31.872515,0.1,143.46007,1626296430000,,,,
Fix,GT,37.5428712000,-122.3686262000,148.19209648015033,32.16121,0.1,143.82817,1626296431000,,,,
Fix,GT,37.5426357000,-122.3684115000,147.58605236945954,32.457523,0.099,144.3364,1626296432000,,,,
Fix,GT,37.5423971000,-122.3681969000,146.96407337854907,32.701675,0.1,144.73137,1626296433000,,,,
Fix,GT,37.5421543000,-122.3679850000,146.34005523582596,32.949043,0.099,145.8325,1626296434000,,,,
Fix,GT,37.5419070000,-122.3677766000,145.70708973954294,33.124107,0.1,146.58983,1626296435000,,,,
Fix,GT,37.5416569000,-122.3675708000,145.0700604024912,33.272343,0.099,147.24048,1626296436000,,,,
Fix,GT,37.5414035000,-122.3673676000,144.44207499228605,33.517056,0.1,148.0953,1626296437000,,,,
Fix,GT,37.5411445000,-122.3671683000,143.79308705036573,33.903374,0.1,148.93277,1626296438000,,,,
Fix,GT,37.5408806000,-122.3669712000,143.15806670712706,34.24189,0.1,149.92714,1626296439000,,,,
Fix,GT,37.5406124000,-122.3667781000,142.5050562537999,34.374783,0.1,150.67331,1626296440000,,,,
Fix,GT,37.5403419000,-122.3665879000,141.84405742259787,34.46477,0.1,151.2513,1626296441000,,,,
Fix,GT,37.5400691000,-122.3664005000,141.11300353961465,34.55505,0.1,151.60722,1626296442000,,,,
Fix,GT,37.5397955000,-122.3662152000,140.26294467132152,34.407707,0.1,151.75148,1626296443000,,,,
Fix,GT,37.5395237000,-122.3660300000,139.3229317195099,34.21266,0.1,151.53973,1626296444000,,,,
Fix,GT,37.5392537000,-122.3658449000,138.31082904760396,34.052505,0.1,151.71672,1626296445000,,,,
Fix,GT,37.5389841000,-122.3656623000,137.12179295778537,33.956013,0.1,151.83797,1626296446000,,,,
Fix,GT,37.5387147000,-122.3654808000,135.83176635130263,33.90219,0.1,151.8029,1626296447000,,,,
Fix,GT,37.5384463000,-122.3652987000,134.49176232065378,33.83004,0.1,151.67989,1626296448000,,,,
Fix,GT,37.5381786000,-122.3651163000,133.10875297744954,33.76862,0.1,151.4709,1626296449000,,,,
Fix,GT,37.5379114000,-122.3649346000,131.75475537846177,33.683434,0.1,151.83218,1626296450000,,,,
Fix,GT,37.5376445000,-122.3647540000,130.40274955910067,33.611023,0.099,151.66187,1626296451000,,,,
Fix,GT,37.5373781000,-122.3645738000,129.06477058147743,33.553307,0.1,151.8172,1626296452000,,,,
Fix,GT,37.5371122000,-122.3643936000,127.729735067796,33.51463,0.1,151.6252,1626296453000,,,,
Fix,GT,37.5368471000,-122.3642130000,126.38075877921237,33.42216,0.1,151.72285,1626296454000,,,,
Fix,GT,37.5365819000,-122.3640343000,125.05077221148436,33.412132,0.1,151.88286,1626296455000,,,,
Fix,GT,37.5363161000,-122.3638553000,123.70478034141712,33.535854,0.1,151.82182,1626296456000,,,,
