$GPGGA,003413.44,3725.6974180,N,12204.3516860,W,1,0,0.0,-28.2088,M,0.0000,M,0.0000,0000*7c
$GPRMC,003413.44,A,3725.6974180,N,12204.3516860,W,0.0265,238.6409,250620,,,,A*69
$GPGGA,003414.44,3725.6974120,N,12204.3516860,W,1,0,0.0,-28.2098,M,0.0000,M,0.0000,0000*70
$GPRMC,003414.44,A,3725.6974120,N,12204.3516860,W,0.0399,238.6421,250620,,,,A*6c
$GPGGA,003415.44,3725.6973700,N,12204.3517340,W,1,0,0.0,-28.2218,M,0.0000,M,0.0000,0000*70
$GPRMC,003415.44,A,3725.6973700,N,12204.3517340,W,0.9199,238.3120,250620,,,,A*6c
$GPGGA,003416.44,3725.6969560,N,12204.3522500,W,1,0,0.0,-28.2082,M,0.0000,M,0.0000,0000*79
$GPRMC,003416.44,A,3725.6969560,N,12204.3522500,W,3.0155,233.0109,250620,,,,A*6d
$GPGGA,003417.44,3725.6963020,N,12204.3532880,W,1,0,0.0,-28.1898,M,0.0000,M,0.0000,0000*77
$GPRMC,003417.44,A,3725.6963020,N,12204.3532880,W,4.5038,233.9210,250620,,,,A*69
$GPGGA,003418.44,3725.6960380,N,12204.3550460,W,1,0,0.0,-28.2396,M,0.0000,M,0.0000,0000*72
$GPRMC,003418.44,A,3725.6960380,N,12204.3550460,W,5.8671,255.6059,250620,,,,A*6d
$GPGGA,003419.44,3725.6966440,N,12204.3572780,W,1,0,0.0,-28.1838,M,0.0000,M,0.0000,0000*7f
$GPRMC,003419.44,A,3725.6966440,N,12204.3572780,W,7.8887,286.5615,250620,,,,A*6a
$GPGGA,003420.44,3725.6982520,N,12204.3600020,W,1,0,0.0,-28.2313,M,0.0000,M,0.0000,0000*72
$GPRMC,003420.44,A,3725.6982520,N,12204.3600020,W,11.8089,306.0676,250620,,,,A*5e
$GPGGA,003421.44,3725.7003520,N,12204.3640160,W,1,0,0.0,-28.3133,M,0.0000,M,0.0000,0000*72
$GPRMC,003421.44,A,3725.7003520,N,12204.3640160,W,15.5500,301.2742,250620,,,,A*51
$GPGGA,003422.44,3725.7021280,N,12204.3694460,W,1,0,0.0,-28.4015,M,0.0000,M,0.0000,0000*72
$GPRMC,003422.44,A,3725.7021280,N,12204.3694460,W,17.9945,288.5732,250620,,,,A*50
$GPGGA,003423.44,3725.7030160,N,12204.3760580,W,1,0,0.0,-28.4724,M,0.0000,M,0.0000,0000*7e
$GPRMC,003423.44,A,3725.7030160,N,12204.3760580,W,20.2784,275.8887,250620,,,,A*5b
$GPGGA,003424.44,3725.7032320,N,12204.3834860,W,1,0,0.0,-28.4413,M,0.0000,M,0.0000,0000*77
$GPRMC,003424.44,A,3725.7032320,N,12204.3834860,W,22.3086,270.4466,250620,,,,A*59
$GPGGA,003425.44,3725.7031300,N,12204.3916280,W,1,0,0.0,-28.3457,M,0.0000,M,0.0000,0000*75
$GPRMC,003425.44,A,3725.7031300,N,12204.3916280,W,24.3059,268.8192,250620,,,,A*53
$GPGGA,003426.44,3725.7029800,N,12204.4003760,W,1,0,0.0,-28.1841,M,0.0000,M,0.0000,0000*7c
$GPRMC,003426.44,A,3725.7029800,N,12204.4003760,W,25.8884,269.0686,250620,,,,A*5a
$GPGGA,003427.44,3725.7029200,N,12204.4097300,W,1,0,0.0,-28.0741,M,0.0000,M,0.0000,0000*76
$GPRMC,003427.44,A,3725.7029200,N,12204.4097300,W,27.7508,269.5206,250620,,,,A*53
$GPGGA,003428.44,3725.7028780,N,12204.4196960,W,1,0,0.0,-28.0202,M,0.0000,M,0.0000,0000*7b
$GPRMC,003428.44,A,3725.7028780,N,12204.4196960,W,29.0662,269.7542,250620,,,,A*5f
$GPGGA,003429.44,3725.7028480,N,12204.4298180,W,1,0,0.0,-28.0747,M,0.0000,M,0.0000,0000*76
$GPRMC,003429.44,A,3725.7028480,N,12204.4298180,W,28.9044,269.8273,250620,,,,A*56
$GPGGA,003430.44,3725.7028180,N,12204.4399160,W,1,0,0.0,-28.1944,M,0.0000,M,0.0000,0000*79
$GPRMC,003430.44,A,3725.7028180,N,12204.4399160,W,29.2892,269.7184,250620,,,,A*58
$GPGGA,003431.44,3725.7027580,N,12204.4503560,W,1,0,0.0,-28.2818,M,0.0000,M,0.0000,0000*79
$GPRMC,003431.44,A,3725.7027580,N,12204.4503560,W,30.4467,269.5112,250620,,,,A*56
$GPGGA,003432.44,3725.7026980,N,12204.4610660,W,1,0,0.0,-28.3601,M,0.0000,M,0.0000,0000*72
$GPRMC,003432.44,A,3725.7026980,N,12204.4610660,W,30.9745,269.6486,250620,,,,A*5f
$GPGGA,003433.44,3725.7026560,N,12204.4720340,W,1,0,0.0,-28.4889,M,0.0000,M,0.0000,0000*7d
$GPRMC,003433.44,A,3725.7026560,N,12204.4720340,W,31.9652,269.9134,250620,,,,A*5c
$GPGGA,003434.44,3725.7026740,N,12204.4833980,W,1,0,0.0,-28.7487,M,0.0000,M,0.0000,0000*70
$GPRMC,003434.44,A,3725.7026740,N,12204.4833980,W,33.2518,270.3362,250620,,,,A*57
$GPGGA,003435.44,3725.7027640,N,12204.4952000,W,1,0,0.0,-29.1533,M,0.0000,M,0.0000,0000*7f
$GPRMC,003435.44,A,3725.7027640,N,12204.4952000,W,34.4047,270.5685,250620,,,,A*55
$GPGGA,003436.44,3725.7028480,N,12204.5073440,W,1,0,0.0,-29.6081,M,0.0000,M,0.0000,0000*7d
$GPRMC,003436.44,A,3725.7028480,N,12204.5073440,W,35.0919,270.3606,250620,,,,A*56
$GPGGA,003437.44,3725.7029020,N,12204.5195960,W,1,0,0.0,-29.9326,M,0.0000,M,0.0000,0000*74
$GPRMC,003437.44,A,3725.7029020,N,12204.5195960,W,35.0785,270.4042,250620,,,,A*54
$GPGGA,003438.44,3725.7029680,N,12204.5317760,W,1,0,0.0,-30.0784,M,0.0000,M,0.0000,0000*7c
$GPRMC,003438.44,A,3725.7029680,N,12204.5317760,W,34.8115,270.3536,250620,,,,A*56
$GPGGA,003439.44,3725.7030100,N,12204.5438900,W,1,0,0.0,-30.1310,M,0.0000,M,0.0000,0000*70
$GPRMC,003439.44,A,3725.7030100,N,12204.5438900,W,34.6057,270.1668,250620,,,,A*51
$GPGGA,003440.44,3725.7030340,N,12204.5558780,W,1,0,0.0,-30.1891,M,0.0000,M,0.0000,0000*7b
$GPRMC,003440.44,A,3725.7030340,N,12204.5558780,W,34.1612,270.2870,250620,,,,A*5c
$GPGGA,003441.44,3725.7029980,N,12204.5677160,W,1,0,0.0,-30.2396,M,0.0000,M,0.0000,0000*7d
$GPRMC,003441.44,A,3725.7029980,N,12204.5677160,W,33.7107,268.9937,250620,,,,A*57
$GPGGA,003442.44,3725.7025600,N,12204.5794280,W,1,0,0.0,-30.2987,M,0.0000,M,0.0000,0000*7e
$GPRMC,003442.44,A,3725.7025600,N,12204.5794280,W,33.6150,265.4926,250620,,,,A*5d
$GPGGA,003443.44,3725.7013840,N,12204.5910680,W,1,0,0.0,-30.2559,M,0.0000,M,0.0000,0000*79
$GPRMC,003443.44,A,3725.7013840,N,12204.5910680,W,33.6657,260.4495,250620,,,,A*55
$GPGGA,003444.44,3725.6993980,N,12204.6025640,W,1,0,0.0,-30.1873,M,0.0000,M,0.0000,0000*75
$GPRMC,003444.44,A,3725.6993980,N,12204.6025640,W,33.7236,255.8467,250620,,,,A*5a
$GPGGA,003445.44,3725.6968180,N,12204.6137840,W,1,0,0.0,-30.1313,M,0.0000,M,0.0000,0000*79
$GPRMC,003445.44,A,3725.6968180,N,12204.6137840,W,33.1379,252.8789,250620,,,,A*53
$GPGGA,003446.44,3725.6940820,N,12204.6246320,W,1,0,0.0,-30.0488,M,0.0000,M,0.0000,0000*7f
$GPRMC,003446.44,A,3725.6940820,N,12204.6246320,W,31.9172,252.2660,250620,,,,A*5e
$GPGGA,003447.44,3725.6914900,N,12204.6349160,W,1,0,0.0,-30.0122,M,0.0000,M,0.0000,0000*71
$GPRMC,003447.44,A,3725.6914900,N,12204.6349160,W,29.9883,253.2477,250620,,,,A*5e
$GPGGA,003448.44,3725.6895040,N,12204.6447080,W,1,0,0.0,-30.0358,M,0.0000,M,0.0000,0000*72
$GPRMC,003448.44,A,3725.6895040,N,12204.6447080,W,27.9190,258.0067,250620,,,,A*5b
$GPGGA,003449.44,3725.6883460,N,12204.6539060,W,1,0,0.0,-30.0931,M,0.0000,M,0.0000,0000*71
$GPRMC,003449.44,A,3725.6883460,N,12204.6539060,W,25.3694,262.9988,250620,,,,A*5e
$GPGGA,003450.44,3725.6878300,N,12204.6620900,W,1,0,0.0,-30.1588,M,0.0000,M,0.0000,0000*77
$GPRMC,003450.44,A,3725.6878300,N,12204.6620900,W,21.6170,266.6743,250620,,,,A*59
$GPGGA,003451.44,3725.6876560,N,12204.6688220,W,1,0,0.0,-30.2353,M,0.0000,M,0.0000,0000*70
$GPRMC,003451.44,A,3725.6876560,N,12204.6688220,W,16.9281,268.6810,250620,,,,A*5c
$GPGGA,003452.44,3725.6876260,N,12204.6738620,W,1,0,0.0,-30.2730,M,0.0000,M,0.0000,0000*7b
$GPRMC,003452.44,A,3725.6876260,N,12204.6738620,W,12.1281,269.7628,250620,,,,A*5f
$GPGGA,003453.44,3725.6876080,N,12204.6777500,W,1,0,0.0,-30.3661,M,0.0000,M,0.0000,0000*78
$GPRMC,003453.44,A,3725.6876080,N,12204.6777500,W,10.8544,269.3949,250620,,,,A*51
$GPGGA,003454.44,3725.6872000,N,12204.6815480,W,1,0,0.0,-30.5403,M,0.0000,M,0.0000,0000*71
$GPRMC,003454.44,A,3725.6872000,N,12204.6815480,W,11.4642,259.2637,250620,,,,A*54
$GPGGA,003455.44,3725.6856940,N,12204.6853280,W,1,0,0.0,-30.5880,M,0.0000,M,0.0000,0000*78
$GPRMC,003455.44,A,3725.6856940,N,12204.6853280,W,12.5981,239.1150,250620,,,,A*5b
$GPGGA,003456.44,3725.6829460,N,12204.6885320,W,1,0,0.0,-30.5757,M,0.0000,M,0.0000,0000*79
$GPRMC,003456.44,A,3725.6829460,N,12204.6885320,W,14.4919,217.7255,250620,,,,A*55
$GPGGA,003457.44,3725.6789680,N,12204.6907820,W,1,0,0.0,-30.6523,M,0.0000,M,0.0000,0000*73
$GPRMC,003457.44,A,3725.6789680,N,12204.6907820,W,16.9297,199.3944,250620,,,,A*55
$GPGGA,003458.44,3725.6738740,N,12204.6919820,W,1,0,0.0,-30.7081,M,0.0000,M,0.0000,0000*78
$GPRMC,003458.44,A,3725.6738740,N,12204.6919820,W,20.2771,186.7616,250620,,,,A*53
$GPGGA,003459.44,3725.6678080,N,12204.6922280,W,1,0,0.0,-30.7625,M,0.0000,M,0.0000,0000*77
$GPRMC,003459.44,A,3725.6678080,N,12204.6922280,W,23.2662,180.1714,250620,,,,A*57
$GPGGA,003500.44,3725.6609140,N,12204.6920180,W,1,0,0.0,-30.7852,M,0.0000,M,0.0000,0000*7e
$GPRMC,003500.44,A,3725.6609140,N,12204.6920180,W,26.1050,177.7715,250620,,,,A*5e
$GPGGA,003501.44,3725.6533600,N,12204.6914660,W,1,0,0.0,-30.7810,M,0.0000,M,0.0000,0000*7e
$GPRMC,003501.44,A,3725.6533600,N,12204.6914660,W,28.1418,175.9554,250620,,,,A*55
$GPGGA,003502.44,3725.6454100,N,12204.6905780,W,1,0,0.0,-30.7028,M,0.0000,M,0.0000,0000*76
$GPRMC,003502.44,A,3725.6454100,N,12204.6905780,W,29.1638,174.0138,250620,,,,A*59
$GPGGA,003503.44,3725.6372320,N,12204.6893480,W,1,0,0.0,-30.6498,M,0.0000,M,0.0000,0000*77
$GPRMC,003503.44,A,3725.6372320,N,12204.6893480,W,29.9948,172.8320,250620,,,,A*53
$GPGGA,003504.44,3725.6287780,N,12204.6880700,W,1,0,0.0,-30.6113,M,0.0000,M,0.0000,0000*7a
$GPRMC,003504.44,A,3725.6287780,N,12204.6880700,W,31.4106,173.6720,250620,,,,A*55
$GPGGA,003505.44,3725.6198620,N,12204.6869660,W,1,0,0.0,-30.5743,M,0.0000,M,0.0000,0000*7d
$GPRMC,003505.44,A,3725.6198620,N,12204.6869660,W,33.0500,174.9188,250620,,,,A*5a
$GPGGA,003506.44,3725.6105080,N,12204.6860540,W,1,0,0.0,-30.5216,M,0.0000,M,0.0000,0000*7b
$GPRMC,003506.44,A,3725.6105080,N,12204.6860540,W,34.3559,176.1941,250620,,,,A*56
$GPGGA,003507.44,3725.6008360,N,12204.6854240,W,1,0,0.0,-30.4389,M,0.0000,M,0.0000,0000*7d
$GPRMC,003507.44,A,3725.6008360,N,12204.6854240,W,35.2485,177.7639,250620,,,,A*51
$GPGGA,003508.44,3725.5909420,N,12204.6851240,W,1,0,0.0,-30.4064,M,0.0000,M,0.0000,0000*7f
$GPRMC,003508.44,A,3725.5909420,N,12204.6851240,W,35.9325,179.2645,250620,,,,A*55
$GPGGA,003509.44,3725.5808800,N,12204.6850700,W,1,0,0.0,-30.3427,M,0.0000,M,0.0000,0000*74
$GPRMC,003509.44,A,3725.5808800,N,12204.6850700,W,36.4606,180.1911,250620,,,,A*5b
$GPGGA,003510.44,3725.5706440,N,12204.6852440,W,1,0,0.0,-30.2951,M,0.0000,M,0.0000,0000*7d
$GPRMC,003510.44,A,3725.5706440,N,12204.6852440,W,37.1957,181.3261,250620,,,,A*5f
$GPGGA,003511.44,3725.5602160,N,12204.6856880,W,1,0,0.0,-30.2381,M,0.0000,M,0.0000,0000*7d
$GPRMC,003511.44,A,3725.5602160,N,12204.6856880,W,37.8185,182.5121,250620,,,,A*54
$GPGGA,003512.44,3725.5497040,N,12204.6864020,W,1,0,0.0,-30.1583,M,0.0000,M,0.0000,0000*77
$GPRMC,003512.44,A,3725.5497040,N,12204.6864020,W,37.7022,183.6115,250620,,,,A*5f
$GPGGA,003513.44,3725.5393900,N,12204.6872660,W,1,0,0.0,-30.0923,M,0.0000,M,0.0000,0000*7a
$GPRMC,003513.44,A,3725.5393900,N,12204.6872660,W,36.3621,183.9891,250620,,,,A*5f
$GPGGA,003514.44,3725.5297540,N,12204.6880220,W,1,0,0.0,-30.0432,M,0.0000,M,0.0000,0000*70
$GPRMC,003514.44,A,3725.5297540,N,12204.6880220,W,32.7356,183.2091,250620,,,,A*5e
$GPGGA,003515.44,3725.5213180,N,12204.6885200,W,1,0,0.0,-29.9742,M,0.0000,M,0.0000,0000*77
$GPRMC,003515.44,A,3725.5213180,N,12204.6885200,W,27.8678,182.3041,250620,,,,A*53
$GPGGA,003516.44,3725.5142620,N,12204.6888500,W,1,0,0.0,-29.9293,M,0.0000,M,0.0000,0000*7d
$GPRMC,003516.44,A,3725.5142620,N,12204.6888500,W,22.7677,182.1291,250620,,,,A*58
$GPGGA,003517.44,3725.5086460,N,12204.6890840,W,1,0,0.0,-29.8974,M,0.0000,M,0.0000,0000*70
$GPRMC,003517.44,A,3725.5086460,N,12204.6890840,W,17.6967,181.7273,250620,,,,A*56
$GPGGA,003518.44,3725.5043860,N,12204.6892040,W,1,0,0.0,-29.8686,M,0.0000,M,0.0000,0000*72
$GPRMC,003518.44,A,3725.5043860,N,12204.6892040,W,13.4215,181.1095,250620,,,,A*52
$GPGGA,003519.44,3725.5011520,N,12204.6892400,W,1,0,0.0,-29.8674,M,0.0000,M,0.0000,0000*70
$GPRMC,003519.44,A,3725.5011520,N,12204.6892400,W,9.6106,180.4144,250620,,,,A*6c
$GPGGA,003520.44,3725.4990520,N,12204.6892280,W,1,0,0.0,-29.8612,M,0.0000,M,0.0000,0000*75
$GPRMC,003520.44,A,3725.4990520,N,12204.6892280,W,5.5061,179.8271,250620,,,,A*69
$GPGGA,003521.44,3725.4979180,N,12204.6892220,W,1,0,0.0,-29.8714,M,0.0000,M,0.0000,0000*70
$GPRMC,003521.44,A,3725.4979180,N,12204.6892220,W,2.9311,179.5897,250620,,,,A*6b
$GPGGA,003522.44,3725.4973720,N,12204.6892160,W,1,0,0.0,-29.8682,M,0.0000,M,0.0000,0000*7c
$GPRMC,003522.44,A,3725.4973720,N,12204.6892160,W,0.9594,179.5331,250620,,,,A*67
$GPGGA,003523.44,3725.4972880,N,12204.6892160,W,1,0,0.0,-29.8748,M,0.0000,M,0.0000,0000*7e
$GPRMC,003523.44,A,3725.4972880,N,12204.6892160,W,0.0291,179.5281,250620,,,,A*63
$GPGGA,003524.44,3725.4972880,N,12204.6892160,W,1,0,0.0,-29.8748,M,0.0000,M,0.0000,0000*79
$GPRMC,003524.44,A,3725.4972880,N,12204.6892160,W,0.0042,179.5281,250620,,,,A*68
$GPGGA,003525.44,3725.4972880,N,12204.6892160,W,1,0,0.0,-29.8748,M,0.0000,M,0.0000,0000*78
$GPRMC,003525.44,A,3725.4972880,N,12204.6892160,W,0.0019,179.5263,250620,,,,A*6b
$GPGGA,003526.44,3725.4972880,N,12204.6892160,W,1,0,0.0,-29.8748,M,0.0000,M,0.0000,0000*7b
$GPRMC,003526.44,A,3725.4972880,N,12204.6892160,W,0.0016,179.5267,250620,,,,A*63
$GPGGA,003527.44,3725.4972880,N,12204.6892160,W,1,0,0.0,-29.8748,M,0.0000,M,0.0000,0000*7a
$GPRMC,003527.44,A,3725.4972880,N,12204.6892160,W,0.0065,179.5276,250620,,,,A*66
$GPGGA,003528.44,3725.4972820,N,12204.6892160,W,1,0,0.0,-29.8756,M,0.0000,M,0.0000,0000*70
$GPRMC,003528.44,A,3725.4972820,N,12204.6892160,W,0.1040,179.5307,250620,,,,A*62
$GPGGA,003529.44,3725.4971320,N,12204.6892160,W,1,0,0.0,-29.8738,M,0.0000,M,0.0000,0000*71
$GPRMC,003529.44,A,3725.4971320,N,12204.6892160,W,0.5332,179.5106,250620,,,,A*6a
$GPGGA,003530.44,3725.4970600,N,12204.6892100,W,1,0,0.0,-29.8728,M,0.0000,M,0.0000,0000*78
$GPRMC,003530.44,A,3725.4970600,N,12204.6892100,W,0.0574,179.5061,250620,,,,A*63
$GPGGA,003531.44,3725.4970240,N,12204.6892100,W,1,0,0.0,-29.8738,M,0.0000,M,0.0000,0000*78
$GPRMC,003531.44,A,3725.4970240,N,12204.6892100,W,0.2296,179.5034,250620,,,,A*6b
$GPGGA,003532.44,3725.4969640,N,12204.6892100,W,1,0,0.0,-29.8718,M,0.0000,M,0.0000,0000*75
$GPRMC,003532.44,A,3725.4969640,N,12204.6892100,W,0.0587,179.4902,250620,,,,A*6c
$GPGGA,003533.44,3725.4968980,N,12204.6892040,W,1,0,0.0,-29.8732,M,0.0000,M,0.0000,0000*7b
$GPRMC,003533.44,A,3725.4968980,N,12204.6892040,W,0.5844,179.4834,250620,,,,A*69
$GPGGA,003534.44,3725.4965500,N,12204.6892040,W,1,0,0.0,-29.8714,M,0.0000,M,0.0000,0000*71
$GPRMC,003534.44,A,3725.4965500,N,12204.6892040,W,1.9617,179.3555,250620,,,,A*6f
$GPGGA,003535.44,3725.4955900,N,12204.6891380,W,1,0,0.0,-29.8530,M,0.0000,M,0.0000,0000*77
$GPRMC,003535.44,A,3725.4955900,N,12204.6891380,W,5.2537,177.9934,250620,,,,A*6c
$GPGGA,003536.44,3725.4936160,N,12204.6890180,W,1,0,0.0,-29.8348,M,0.0000,M,0.0000,0000*75
$GPRMC,003536.44,A,3725.4936160,N,12204.6890180,W,8.8617,177.3815,250620,,,,A*69
$GPGGA,003537.44,3725.4905680,N,12204.6888860,W,1,0,0.0,-29.8286,M,0.0000,M,0.0000,0000*70
$GPRMC,003537.44,A,3725.4905680,N,12204.6888860,W,13.6269,178.2287,250620,,,,A*59
$GPGGA,003538.44,3725.4860860,N,12204.6887960,W,1,0,0.0,-29.8000,M,0.0000,M,0.0000,0000*7f
$GPRMC,003538.44,A,3725.4860860,N,12204.6887960,W,18.4151,179.3094,250620,,,,A*5b
$GPGGA,003539.44,3725.4805060,N,12204.6887300,W,1,0,0.0,-29.7684,M,0.0000,M,0.0000,0000*7c
$GPRMC,003539.44,A,3725.4805060,N,12204.6887300,W,21.3796,179.3138,250620,,,,A*5a
$GPGGA,003540.44,3725.4741340,N,12204.6885440,W,1,0,0.0,-29.7406,M,0.0000,M,0.0000,0000*75
$GPRMC,003540.44,A,3725.4741340,N,12204.6885440,W,24.2599,178.3504,250620,,,,A*58
$GPGGA,003541.44,3725.4671260,N,12204.6881660,W,1,0,0.0,-29.7042,M,0.0000,M,0.0000,0000*75
$GPRMC,003541.44,A,3725.4671260,N,12204.6881660,W,26.0197,177.2195,250620,,,,A*54
$GPGGA,003542.44,3725.4597160,N,12204.6876500,W,1,0,0.0,-29.6268,M,0.0000,M,0.0000,0000*78
$GPRMC,003542.44,A,3725.4597160,N,12204.6876500,W,27.2757,176.6266,250620,,,,A*51
$GPGGA,003543.44,3725.4520720,N,12204.6869660,W,1,0,0.0,-29.5939,M,0.0000,M,0.0000,0000*70
$GPRMC,003543.44,A,3725.4520720,N,12204.6869660,W,27.6273,175.4418,250620,,,,A*5c
$GPGGA,003544.44,3725.4444820,N,12204.6861320,W,1,0,0.0,-29.5677,M,0.0000,M,0.0000,0000*77
$GPRMC,003544.44,A,3725.4444820,N,12204.6861320,W,27.1392,174.9150,250620,,,,A*52
$GPGGA,003545.44,3725.4371140,N,12204.6853280,W,1,0,0.0,-29.5017,M,0.0000,M,0.0000,0000*72
$GPRMC,003545.44,A,3725.4371140,N,12204.6853280,W,25.9388,175.2061,250620,,,,A*5f
$GPGGA,003546.44,3725.4301180,N,12204.6846320,W,1,0,0.0,-29.4819,M,0.0000,M,0.0000,0000*72
$GPRMC,003546.44,A,3725.4301180,N,12204.6846320,W,24.3430,175.8602,250620,,,,A*5e
$GPGGA,003547.44,3725.4236800,N,12204.6840800,W,1,0,0.0,-29.4517,M,0.0000,M,0.0000,0000*7b
$GPRMC,003547.44,A,3725.4236800,N,12204.6840800,W,21.9432,176.3931,250620,,,,A*5e
$GPGGA,003548.44,3725.4180940,N,12204.6837380,W,1,0,0.0,-29.4162,M,0.0000,M,0.0000,0000*7a
$GPRMC,003548.44,A,3725.4180940,N,12204.6837380,W,18.3252,178.6716,250620,,,,A*59
$GPGGA,003549.44,3725.4133780,N,12204.6841340,W,1,0,0.0,-29.4410,M,0.0000,M,0.0000,0000*7c
$GPRMC,003549.44,A,3725.4133780,N,12204.6841340,W,15.9489,187.2668,250620,,,,A*54
$GPGGA,003550.44,3725.4093940,N,12204.6858620,W,1,0,0.0,-29.4968,M,0.0000,M,0.0000,0000*74
$GPRMC,003550.44,A,3725.4093940,N,12204.6858620,W,14.9900,205.7652,250620,,,,A*56
$GPGGA,003551.44,3725.4065380,N,12204.6894560,W,1,0,0.0,-29.5308,M,0.0000,M,0.0000,0000*70
$GPRMC,003551.44,A,3725.4065380,N,12204.6894560,W,14.8253,232.8594,250620,,,,A*51
$GPGGA,003552.44,3725.4052060,N,12204.6944600,W,1,0,0.0,-29.5862,M,0.0000,M,0.0000,0000*74
$GPRMC,003552.44,A,3725.4052060,N,12204.6944600,W,16.1772,257.6098,250620,,,,A*5b
$GPGGA,003553.44,3725.4049120,N,12204.7005680,W,1,0,0.0,-29.5279,M,0.0000,M,0.0000,0000*7f
$GPRMC,003553.44,A,3725.4049120,N,12204.7005680,W,19.2507,268.2459,250620,,,,A*5d
$GPGGA,003554.44,3725.4047560,N,12204.7078760,W,1,0,0.0,-29.4435,M,0.0000,M,0.0000,0000*7c
$GPRMC,003554.44,A,3725.4047560,N,12204.7078760,W,22.6675,268.4973,250620,,,,A*58
$GPGGA,003555.44,3725.4045100,N,12204.7163480,W,1,0,0.0,-29.3575,M,0.0000,M,0.0000,0000*79
$GPRMC,003555.44,A,3725.4045100,N,12204.7163480,W,25.9312,267.7714,250620,,,,A*50
$GPGGA,003556.44,3725.4041800,N,12204.7259480,W,1,0,0.0,-29.2365,M,0.0000,M,0.0000,0000*7b
$GPRMC,003556.44,A,3725.4041800,N,12204.7259480,W,29.1299,267.4802,250620,,,,A*59
$GPGGA,003557.44,3725.4037540,N,12204.7365620,W,1,0,0.0,-29.1001,M,0.0000,M,0.0000,0000*76
$GPRMC,003557.44,A,3725.4037540,N,12204.7365620,W,31.5494,267.1917,250620,,,,A*50
$GPGGA,003558.44,3725.4033040,N,12204.7478840,W,1,0,0.0,-28.9355,M,0.0000,M,0.0000,0000*70
$GPRMC,003558.44,A,3725.4033040,N,12204.7478840,W,33.3059,267.0580,250620,,,,A*5f
$GPGGA,003559.44,3725.4027940,N,12204.7597040,W,1,0,0.0,-28.8031,M,0.0000,M,0.0000,0000*75
$GPRMC,003559.44,A,3725.4027940,N,12204.7597040,W,34.5384,266.7908,250620,,,,A*52
$GPGGA,003600.44,3725.4021580,N,12204.7718420,W,1,0,0.0,-28.6530,M,0.0000,M,0.0000,0000*71
$GPRMC,003600.44,A,3725.4021580,N,12204.7718420,W,35.0579,265.8810,250620,,,,A*58
$GPGGA,003601.44,3725.4013420,N,12204.7840940,W,1,0,0.0,-28.5037,M,0.0000,M,0.0000,0000*72
$GPRMC,003601.44,A,3725.4013420,N,12204.7840940,W,35.5224,264.8132,250620,,,,A*58
$GPGGA,003602.44,3725.4003460,N,12204.7965380,W,1,0,0.0,-28.3663,M,0.0000,M,0.0000,0000*75
$GPRMC,003602.44,A,3725.4003460,N,12204.7965380,W,36.0962,263.9746,250620,,,,A*52
$GPGGA,003603.44,3725.3992300,N,12204.8090000,W,1,0,0.0,-28.2881,M,0.0000,M,0.0000,0000*77
$GPRMC,003603.44,A,3725.3992300,N,12204.8090000,W,35.7126,263.4297,250620,,,,A*5b
$GPGGA,003604.44,3725.3980600,N,12204.8212640,W,1,0,0.0,-28.1846,M,0.0000,M,0.0000,0000*74
$GPRMC,003604.44,A,3725.3980600,N,12204.8212640,W,35.0550,263.0323,250620,,,,A*58
$GPGGA,003605.44,3725.3968000,N,12204.8332640,W,1,0,0.0,-28.2018,M,0.0000,M,0.0000,0000*76
$GPRMC,003605.44,A,3725.3968000,N,12204.8332640,W,34.4231,262.3728,250620,,,,A*52
$GPGGA,003606.44,3725.3957020,N,12204.8450720,W,1,0,0.0,-28.2995,M,0.0000,M,0.0000,0000*73
$GPRMC,003606.44,A,3725.3957020,N,12204.8450720,W,33.7652,263.9866,250620,,,,A*50
$GPGGA,003607.44,3725.3948260,N,12204.8566880,W,1,0,0.0,-28.3858,M,0.0000,M,0.0000,0000*7a
$GPRMC,003607.44,A,3725.3948260,N,12204.8566880,W,33.1574,264.9097,250620,,,,A*58
$GPGGA,003608.44,3725.3939740,N,12204.8681060,W,1,0,0.0,-28.5151,M,0.0000,M,0.0000,0000*7e
$GPRMC,003608.44,A,3725.3939740,N,12204.8681060,W,32.6368,264.4798,250620,,,,A*52
$GPGGA,003609.44,3725.3930680,N,12204.8793500,W,1,0,0.0,-28.6565,M,0.0000,M,0.0000,0000*7a
$GPRMC,003609.44,A,3725.3930680,N,12204.8793500,W,32.1627,264.0909,250620,,,,A*5d
$GPGGA,003610.44,3725.3921080,N,12204.8904200,W,1,0,0.0,-28.7890,M,0.0000,M,0.0000,0000*75
$GPRMC,003610.44,A,3725.3921080,N,12204.8904200,W,31.7092,263.7085,250620,,,,A*54
$GPGGA,003611.44,3725.3911780,N,12204.9013340,W,1,0,0.0,-28.9411,M,0.0000,M,0.0000,0000*70
$GPRMC,003611.44,A,3725.3911780,N,12204.9013340,W,31.2438,264.1790,250620,,,,A*59
$GPGGA,003612.44,3725.3902960,N,12204.9120920,W,1,0,0.0,-29.0618,M,0.0000,M,0.0000,0000*7f
$GPRMC,003612.44,A,3725.3902960,N,12204.9120920,W,30.7893,263.8239,250620,,,,A*54
$GPGGA,003613.44,3725.3893120,N,12204.9226880,W,1,0,0.0,-29.1982,M,0.0000,M,0.0000,0000*78
$GPRMC,003613.44,A,3725.3893120,N,12204.9226880,W,30.3394,263.1609,250620,,,,A*58
$GPGGA,003614.44,3725.3883040,N,12204.9331580,W,1,0,0.0,-29.3269,M,0.0000,M,0.0000,0000*7f
$GPRMC,003614.44,A,3725.3883040,N,12204.9331580,W,30.3236,263.3076,250620,,,,A*56
$GPGGA,003615.44,3725.3873440,N,12204.9436400,W,1,0,0.0,-29.4399,M,0.0000,M,0.0000,0000*75
$GPRMC,003615.44,A,3725.3873440,N,12204.9436400,W,30.1353,263.7865,250620,,,,A*5b
$GPGGA,003616.44,3725.3865520,N,12204.9540260,W,1,0,0.0,-29.5653,M,0.0000,M,0.0000,0000*74
$GPRMC,003616.44,A,3725.3865520,N,12204.9540260,W,29.7107,265.3539,250620,,,,A*53
$GPGGA,003617.44,3725.3860060,N,12204.9642740,W,1,0,0.0,-29.6917,M,0.0000,M,0.0000,0000*7b
$GPRMC,003617.44,A,3725.3860060,N,12204.9642740,W,29.1917,266.7867,250620,,,,A*5e
$GPGGA,003618.44,3725.3856160,N,12204.9743480,W,1,0,0.0,-29.7813,M,0.0000,M,0.0000,0000*7b
$GPRMC,003618.44,A,3725.3856160,N,12204.9743480,W,28.6679,267.6562,250620,,,,A*53
$GPGGA,003619.44,3725.3853880,N,12204.9842420,W,1,0,0.0,-29.8438,M,0.0000,M,0.0000,0000*76
$GPRMC,003619.44,A,3725.3853880,N,12204.9842420,W,28.1004,269.1224,250620,,,,A*53
$GPGGA,003620.44,3725.3853460,N,12204.9939680,W,1,0,0.0,-29.8880,M,0.0000,M,0.0000,0000*74
$GPRMC,003620.44,A,3725.3853460,N,12204.9939680,W,27.9281,269.9458,250620,,,,A*53
$GPGGA,003621.44,3725.3853580,N,12205.0038500,W,1,0,0.0,-29.9281,M,0.0000,M,0.0000,0000*7b
$GPRMC,003621.44,A,3725.3853580,N,12205.0038500,W,28.7769,270.3769,250620,,,,A*57
$GPGGA,003622.44,3725.3854840,N,12205.0140740,W,1,0,0.0,-29.9816,M,0.0000,M,0.0000,0000*72
$GPRMC,003622.44,A,3725.3854840,N,12205.0140740,W,30.0375,271.4239,250620,,,,A*5b
$GPGGA,003623.44,3725.3858440,N,12205.0247780,W,1,0,0.0,-29.9559,M,0.0000,M,0.0000,0000*7d
$GPRMC,003623.44,A,3725.3858440,N,12205.0247780,W,31.3276,273.2222,250620,,,,A*5c
$GPGGA,003624.44,3725.3864440,N,12205.0358660,W,1,0,0.0,-29.8900,M,0.0000,M,0.0000,0000*74
$GPRMC,003624.44,A,3725.3864440,N,12205.0358660,W,32.4768,274.3268,250620,,,,A*52
$GPGGA,003625.44,3725.3871940,N,12205.0474040,W,1,0,0.0,-29.8600,M,0.0000,M,0.0000,0000*7e
$GPRMC,003625.44,A,3725.3871940,N,12205.0474040,W,33.9553,275.2346,250620,,,,A*5c
$GPGGA,003626.44,3725.3881840,N,12205.0593860,W,1,0,0.0,-29.8036,M,0.0000,M,0.0000,0000*72
$GPRMC,003626.44,A,3725.3881840,N,12205.0593860,W,35.0718,276.5260,250620,,,,A*50
$GPGGA,003627.44,3725.3893900,N,12205.0716320,W,1,0,0.0,-29.7413,M,0.0000,M,0.0000,0000*79
$GPRMC,003627.44,A,3725.3893900,N,12205.0716320,W,35.6546,277.5159,250620,,,,A*50
$GPGGA,003628.44,3725.3907580,N,12205.0840160,W,1,0,0.0,-29.6759,M,0.0000,M,0.0000,0000*78
$GPRMC,003628.44,A,3725.3907580,N,12205.0840160,W,36.0470,278.1515,250620,,,,A*5b
$GPGGA,003629.44,3725.3922400,N,12205.0964960,W,1,0,0.0,-29.4763,M,0.0000,M,0.0000,0000*73
$GPRMC,003629.44,A,3725.3922400,N,12205.0964960,W,36.2741,278.9021,250620,,,,A*52
$GPGGA,003630.44,3725.3938900,N,12205.1089520,W,1,0,0.0,-29.0857,M,0.0000,M,0.0000,0000*72
$GPRMC,003630.44,A,3725.3938900,N,12205.1089520,W,36.1085,279.9324,250620,,,,A*54
$GPGGA,003631.44,3725.3956480,N,12205.1212580,W,1,0,0.0,-28.4495,M,0.0000,M,0.0000,0000*73
$GPRMC,003631.44,A,3725.3956480,N,12205.1212580,W,35.4808,280.4099,250620,,,,A*57
$GPGGA,003632.44,3725.3974420,N,12205.1332640,W,1,0,0.0,-27.7572,M,0.0000,M,0.0000,0000*72
$GPRMC,003632.44,A,3725.3974420,N,12205.1332640,W,34.6699,281.0863,250620,,,,A*5f
$GPGGA,003633.44,3725.3994760,N,12205.1450420,W,1,0,0.0,-27.0886,M,0.0000,M,0.0000,0000*7c
$GPRMC,003633.44,A,3725.3994760,N,12205.1450420,W,34.4851,283.2478,250620,,,,A*5e
$GPGGA,003634.44,3725.4017560,N,12205.1566640,W,1,0,0.0,-26.5500,M,0.0000,M,0.0000,0000*7b
$GPRMC,003634.44,A,3725.4017560,N,12205.1566640,W,34.1658,284.2258,250620,,,,A*5f
$GPGGA,003635.44,3725.4040960,N,12205.1681540,W,1,0,0.0,-26.2172,M,0.0000,M,0.0000,0000*7b
$GPRMC,003635.44,A,3725.4040960,N,12205.1681540,W,33.8793,284.5020,250620,,,,A*5b
$GPGGA,003636.44,3725.4064600,N,12205.1795720,W,1,0,0.0,-25.9991,M,0.0000,M,0.0000,0000*7a
$GPRMC,003636.44,A,3725.4064600,N,12205.1795720,W,33.8667,284.7346,250620,,,,A*5c
$GPGGA,003637.44,3725.4088720,N,12205.1910620,W,1,0,0.0,-25.9595,M,0.0000,M,0.0000,0000*70
$GPRMC,003637.44,A,3725.4088720,N,12205.1910620,W,34.2926,284.7608,250620,,,,A*56
$GPGGA,003638.44,3725.4113080,N,12205.2027080,W,1,0,0.0,-26.0565,M,0.0000,M,0.0000,0000*76
$GPRMC,003638.44,A,3725.4113080,N,12205.2027080,W,34.7694,284.7003,250620,,,,A*5b
$GPGGA,003639.44,3725.4137620,N,12205.2145220,W,1,0,0.0,-26.2304,M,0.0000,M,0.0000,0000*73
$GPRMC,003639.44,A,3725.4137620,N,12205.2145220,W,35.2871,284.5851,250620,,,,A*51
$GPGGA,003640.44,3725.4162340,N,12205.2265520,W,1,0,0.0,-26.6590,M,0.0000,M,0.0000,0000*77
$GPRMC,003640.44,A,3725.4162340,N,12205.2265520,W,35.9673,284.4882,250620,,,,A*52
$GPGGA,003641.44,3725.4187540,N,12205.2388280,W,1,0,0.0,-27.2015,M,0.0000,M,0.0000,0000*79
$GPRMC,003641.44,A,3725.4187540,N,12205.2388280,W,36.7427,284.4589,250620,,,,A*59
$GPGGA,003642.44,3725.4213280,N,12205.2513800,W,1,0,0.0,-27.9007,M,0.0000,M,0.0000,0000*71
$GPRMC,003642.44,A,3725.4213280,N,12205.2513800,W,37.6055,284.4468,250620,,,,A*56
$GPGGA,003643.44,3725.4239500,N,12205.2642080,W,1,0,0.0,-28.6175,M,0.0000,M,0.0000,0000*74
$GPRMC,003643.44,A,3725.4239500,N,12205.2642080,W,38.2652,284.4947,250620,,,,A*5d
$GPGGA,003644.44,3725.4266260,N,12205.2771380,W,1,0,0.0,-29.2558,M,0.0000,M,0.0000,0000*74
$GPRMC,003644.44,A,3725.4266260,N,12205.2771380,W,38.3173,284.6226,250620,,,,A*58
$GPGGA,003645.44,3725.4292720,N,12205.2900440,W,1,0,0.0,-29.6213,M,0.0000,M,0.0000,0000*70
$GPRMC,003645.44,A,3725.4292720,N,12205.2900440,W,37.9843,284.0980,250620,,,,A*5e
$GPGGA,003646.44,3725.4317620,N,12205.3028180,W,1,0,0.0,-29.8590,M,0.0000,M,0.0000,0000*77
$GPRMC,003646.44,A,3725.4317620,N,12205.3028180,W,37.3835,283.5692,250620,,,,A*5e
$GPGGA,003647.44,3725.4341140,N,12205.3152980,W,1,0,0.0,-29.9168,M,0.0000,M,0.0000,0000*72
$GPRMC,003647.44,A,3725.4341140,N,12205.3152980,W,35.9878,283.1741,250620,,,,A*53
$GPGGA,003648.44,3725.4363280,N,12205.3272200,W,1,0,0.0,-29.9611,M,0.0000,M,0.0000,0000*79
$GPRMC,003648.44,A,3725.4363280,N,12205.3272200,W,34.2131,282.8379,250620,,,,A*58
$GPGGA,003649.44,3725.4381760,N,12205.3385120,W,1,0,0.0,-30.0170,M,0.0000,M,0.0000,0000*76
$GPRMC,003649.44,A,3725.4381760,N,12205.3385120,W,31.7536,280.2361,250620,,,,A*54
$GPGGA,003650.44,3725.4393100,N,12205.3490180,W,1,0,0.0,-30.0797,M,0.0000,M,0.0000,0000*7b
$GPRMC,003650.44,A,3725.4393100,N,12205.3490180,W,29.0143,275.6523,250620,,,,A*50
$GPGGA,003651.44,3725.4396520,N,12205.3586300,W,1,0,0.0,-30.1223,M,0.0000,M,0.0000,0000*7e
$GPRMC,003651.44,A,3725.4396520,N,12205.3586300,W,25.9784,270.5739,250620,,,,A*59
$GPGGA,003652.44,3725.4395020,N,12205.3671440,W,1,0,0.0,-30.1464,M,0.0000,M,0.0000,0000*76
$GPRMC,003652.44,A,3725.4395020,N,12205.3671440,W,22.8050,267.2638,250620,,,,A*5d
$GPGGA,003653.44,3725.4389260,N,12205.3747220,W,1,0,0.0,-30.1141,M,0.0000,M,0.0000,0000*7a
$GPRMC,003653.44,A,3725.4389260,N,12205.3747220,W,21.2999,262.8257,250620,,,,A*54
$GPGGA,003654.44,3725.4377860,N,12205.3818320,W,1,0,0.0,-30.0077,M,0.0000,M,0.0000,0000*77
$GPRMC,003654.44,A,3725.4377860,N,12205.3818320,W,20.1391,256.4426,250620,,,,A*57
$GPGGA,003655.44,3725.4362860,N,12205.3883180,W,1,0,0.0,-29.8833,M,0.0000,M,0.0000,0000*70
$GPRMC,003655.44,A,3725.4362860,N,12205.3883180,W,18.3722,253.6596,250620,,,,A*50
$GPGGA,003656.44,3725.4351580,N,12205.3940660,W,1,0,0.0,-29.7688,M,0.0000,M,0.0000,0000*76
$GPRMC,003656.44,A,3725.4351580,N,12205.3940660,W,15.7082,259.6546,250620,,,,A*54
$GPGGA,003657.44,3725.4352540,N,12205.3991840,W,1,0,0.0,-29.6746,M,0.0000,M,0.0000,0000*7a
$GPRMC,003657.44,A,3725.4352540,N,12205.3991840,W,14.1487,276.9239,250620,,,,A*51
$GPGGA,003658.44,3725.4367660,N,12205.4034740,W,1,0,0.0,-29.4372,M,0.0000,M,0.0000,0000*7d
$GPRMC,003658.44,A,3725.4367660,N,12205.4034740,W,13.3122,300.0160,250620,,,,A*5e
$GPGGA,003659.44,3725.4395380,N,12205.4066780,W,1,0,0.0,-29.3450,M,0.0000,M,0.0000,0000*71
$GPRMC,003659.44,A,3725.4395380,N,12205.4066780,W,14.4934,322.2189,250620,,,,A*58
$GPGGA,003700.44,3725.4432220,N,12205.4095400,W,1,0,0.0,-29.3008,M,0.0000,M,0.0000,0000*73
$GPRMC,003700.44,A,3725.4432220,N,12205.4095400,W,16.7253,328.5039,250620,,,,A*5f
$GPGGA,003701.44,3725.4474400,N,12205.4128820,W,1,0,0.0,-29.2831,M,0.0000,M,0.0000,0000*7e
$GPRMC,003701.44,A,3725.4474400,N,12205.4128820,W,19.2803,327.2613,250620,,,,A*52
$GPGGA,003702.44,3725.4521800,N,12205.4170220,W,1,0,0.0,-29.2293,M,0.0000,M,0.0000,0000*75
$GPRMC,003702.44,A,3725.4521800,N,12205.4170220,W,22.1466,323.9633,250620,,,,A*52
$GPGGA,003703.44,3725.4572200,N,12205.4220800,W,1,0,0.0,-29.1736,M,0.0000,M,0.0000,0000*7f
$GPRMC,003703.44,A,3725.4572200,N,12205.4220800,W,24.1359,319.9599,250620,,,,A*56
$GPGGA,003704.44,3725.4623260,N,12205.4279480,W,1,0,0.0,-29.1262,M,0.0000,M,0.0000,0000*75
$GPRMC,003704.44,A,3725.4623260,N,12205.4279480,W,25.6792,315.5963,250620,,,,A*54
$GPGGA,003705.44,3725.4672460,N,12205.4347580,W,1,0,0.0,-29.1336,M,0.0000,M,0.0000,0000*7b
$GPRMC,003705.44,A,3725.4672460,N,12205.4347580,W,26.8538,310.1222,250620,,,,A*5a
$GPGGA,003706.44,3725.4718300,N,12205.4423300,W,1,0,0.0,-29.1699,M,0.0000,M,0.0000,0000*7f
$GPRMC,003706.44,A,3725.4718300,N,12205.4423300,W,27.5405,305.1424,250620,,,,A*59
$GPGGA,003707.44,3725.4759220,N,12205.4504360,W,1,0,0.0,-29.2018,M,0.0000,M,0.0000,0000*76
$GPRMC,003707.44,A,3725.4759220,N,12205.4504360,W,27.5272,300.1907,250620,,,,A*53
$GPGGA,003708.44,3725.4794380,N,12205.4590640,W,1,0,0.0,-29.2457,M,0.0000,M,0.0000,0000*76
$GPRMC,003708.44,A,3725.4794380,N,12205.4590640,W,27.9762,294.6615,250620,,,,A*53
$GPGGA,003709.44,3725.4823120,N,12205.4681960,W,1,0,0.0,-29.2897,M,0.0000,M,0.0000,0000*72
$GPRMC,003709.44,A,3725.4823120,N,12205.4681960,W,28.1461,289.4978,250620,,,,A*5a
$GPGGA,003710.44,3725.4846040,N,12205.4775080,W,1,0,0.0,-29.3254,M,0.0000,M,0.0000,0000*77
$GPRMC,003710.44,A,3725.4846040,N,12205.4775080,W,27.6707,285.6727,250620,,,,A*5a
$GPGGA,003711.44,3725.4865600,N,12205.4867540,W,1,0,0.0,-29.2718,M,0.0000,M,0.0000,0000*7c
$GPRMC,003711.44,A,3725.4865600,N,12205.4867540,W,27.0986,284.3212,250620,,,,A*5b
$GPGGA,003712.44,3725.4883720,N,12205.4958140,W,1,0,0.0,-29.2650,M,0.0000,M,0.0000,0000*70
$GPRMC,003712.44,A,3725.4883720,N,12205.4958140,W,26.6281,284.1774,250620,,,,A*56
$GPGGA,003713.44,3725.4902440,N,12205.5049040,W,1,0,0.0,-29.1899,M,0.0000,M,0.0000,0000*7d
$GPRMC,003713.44,A,3725.4902440,N,12205.5049040,W,27.3882,284.6595,250620,,,,A*54
$GPGGA,003714.44,3725.4923080,N,12205.5143120,W,1,0,0.0,-29.1478,M,0.0000,M,0.0000,0000*7e
$GPRMC,003714.44,A,3725.4923080,N,12205.5143120,W,28.5752,286.0953,250620,,,,A*5d
$GPGGA,003715.44,3725.4947200,N,12205.5239900,W,1,0,0.0,-29.1629,M,0.0000,M,0.0000,0000*75
$GPRMC,003715.44,A,3725.4947200,N,12205.5239900,W,29.5741,288.2572,250620,,,,A*50
$GPGGA,003716.44,3725.4974500,N,12205.5337820,W,1,0,0.0,-29.2333,M,0.0000,M,0.0000,0000*70
$GPRMC,003716.44,A,3725.4974500,N,12205.5337820,W,29.6962,290.0849,250620,,,,A*5a
$GPGGA,003717.44,3725.5004380,N,12205.5433880,W,1,0,0.0,-29.2605,M,0.0000,M,0.0000,0000*79
$GPRMC,003717.44,A,3725.5004380,N,12205.5433880,W,29.4668,292.2835,250620,,,,A*5f
$GPGGA,003718.44,3725.5036960,N,12205.5527780,W,1,0,0.0,-29.3204,M,0.0000,M,0.0000,0000*7c
$GPRMC,003718.44,A,3725.5036960,N,12205.5527780,W,29.2289,294.4894,250620,,,,A*58
$GPGGA,003719.44,3725.5071760,N,12205.5619220,W,1,0,0.0,-29.3548,M,0.0000,M,0.0000,0000*7e
$GPRMC,003719.44,A,3725.5071760,N,12205.5619220,W,28.9622,296.4057,250620,,,,A*5f
$GPGGA,003720.44,3725.5108480,N,12205.5708680,W,1,0,0.0,-29.3191,M,0.0000,M,0.0000,0000*79
$GPRMC,003720.44,A,3725.5108480,N,12205.5708680,W,28.7996,297.9681,250620,,,,A*57
$GPGGA,003721.44,3725.5147660,N,12205.5796340,W,1,0,0.0,-29.2414,M,0.0000,M,0.0000,0000*78
$GPRMC,003721.44,A,3725.5147660,N,12205.5796340,W,28.9522,300.2668,250620,,,,A*51
$GPGGA,003722.44,3725.5190020,N,12205.5883220,W,1,0,0.0,-29.1812,M,0.0000,M,0.0000,0000*76
$GPRMC,003722.44,A,3725.5190020,N,12205.5883220,W,29.4402,302.5441,250620,,,,A*55
$GPGGA,003723.44,3725.5235740,N,12205.5967820,W,1,0,0.0,-29.2273,M,0.0000,M,0.0000,0000*75
$GPRMC,003723.44,A,3725.5235740,N,12205.5967820,W,29.1255,305.2610,250620,,,,A*5f
$GPGGA,003724.44,3725.5282900,N,12205.6049420,W,1,0,0.0,-29.2804,M,0.0000,M,0.0000,0000*74
$GPRMC,003724.44,A,3725.5282900,N,12205.6049420,W,28.6391,306.3919,250620,,,,A*5f
$GPGGA,003725.44,3725.5330240,N,12205.6128440,W,1,0,0.0,-29.3188,M,0.0000,M,0.0000,0000*7e
$GPRMC,003725.44,A,3725.5330240,N,12205.6128440,W,28.0422,307.7478,250620,,,,A*5f
$GPGGA,003726.44,3725.5379200,N,12205.6203800,W,1,0,0.0,-29.3762,M,0.0000,M,0.0000,0000*74
$GPRMC,003726.44,A,3725.5379200,N,12205.6203800,W,27.7212,310.1129,250620,,,,A*5b
$GPGGA,003727.44,3725.5428820,N,12205.6276100,W,1,0,0.0,-29.3715,M,0.0000,M,0.0000,0000*75
$GPRMC,003727.44,A,3725.5428820,N,12205.6276100,W,26.7294,311.0912,250620,,,,A*55
$GPGGA,003728.44,3725.5476820,N,12205.6344020,W,1,0,0.0,-29.3173,M,0.0000,M,0.0000,0000*74
$GPRMC,003728.44,A,3725.5476820,N,12205.6344020,W,25.4531,312.1968,250620,,,,A*55
$GPGGA,003729.44,3725.5524760,N,12205.6407800,W,1,0,0.0,-29.2835,M,0.0000,M,0.0000,0000*78
$GPRMC,003729.44,A,3725.5524760,N,12205.6407800,W,25.0077,314.0706,250620,,,,A*51
$GPGGA,003730.44,3725.5574800,N,12205.6469960,W,1,0,0.0,-29.2226,M,0.0000,M,0.0000,0000*7b
$GPRMC,003730.44,A,3725.5574800,N,12205.6469960,W,25.8730,316.2308,250620,,,,A*5c
$GPGGA,003731.44,3725.5629220,N,12205.6532000,W,1,0,0.0,-29.1872,M,0.0000,M,0.0000,0000*71
$GPRMC,003731.44,A,3725.5629220,N,12205.6532000,W,26.9758,318.9999,250620,,,,A*55
$GPGGA,003732.44,3725.5688200,N,12205.6592900,W,1,0,0.0,-29.2175,M,0.0000,M,0.0000,0000*75
$GPRMC,003732.44,A,3725.5688200,N,12205.6592900,W,28.0627,321.4354,250620,,,,A*5e
$GPGGA,003733.44,3725.5750960,N,12205.6653560,W,1,0,0.0,-29.2813,M,0.0000,M,0.0000,0000*70
$GPRMC,003733.44,A,3725.5750960,N,12205.6653560,W,28.8329,322.9164,250620,,,,A*5e
$GPGGA,003734.44,3725.5815760,N,12205.6714220,W,1,0,0.0,-29.3328,M,0.0000,M,0.0000,0000*74
$GPRMC,003734.44,A,3725.5815760,N,12205.6714220,W,29.1751,323.6409,250620,,,,A*5b
$GPGGA,003735.44,3725.5881400,N,12205.6774040,W,1,0,0.0,-29.3917,M,0.0000,M,0.0000,0000*79
$GPRMC,003735.44,A,3725.5881400,N,12205.6774040,W,29.3406,324.4073,250620,,,,A*5f
$GPGGA,003736.44,3725.5949440,N,12205.6831280,W,1,0,0.0,-29.3634,M,0.0000,M,0.0000,0000*75
$GPRMC,003736.44,A,3725.5949440,N,12205.6831280,W,29.3982,327.9279,250620,,,,A*5a
$GPGGA,003737.44,3725.6019100,N,12205.6881680,W,1,0,0.0,-29.3158,M,0.0000,M,0.0000,0000*78
$GPRMC,003737.44,A,3725.6019100,N,12205.6881680,W,28.2609,331.3739,250620,,,,A*5a
$GPGGA,003738.44,3725.6086420,N,12205.6925600,W,1,0,0.0,-29.2557,M,0.0000,M,0.0000,0000*7b
$GPRMC,003738.44,A,3725.6086420,N,12205.6925600,W,26.5098,333.2062,250620,,,,A*5e
$GPGGA,003739.44,3725.6151220,N,12205.6966340,W,1,0,0.0,-29.2180,M,0.0000,M,0.0000,0000*7f
$GPRMC,003739.44,A,3725.6151220,N,12205.6966340,W,25.5106,333.2828,250620,,,,A*57
$GPGGA,003740.44,3725.6211940,N,12205.7006540,W,1,0,0.0,-29.2060,M,0.0000,M,0.0000,0000*7c
$GPRMC,003740.44,A,3725.6211940,N,12205.7006540,W,23.7018,331.0546,250620,,,,A*54
$GPGGA,003741.44,3725.6267680,N,12205.7048420,W,1,0,0.0,-29.2230,M,0.0000,M,0.0000,0000*75
$GPRMC,003741.44,A,3725.6267680,N,12205.7048420,W,23.1758,327.8306,250620,,,,A*52
$GPGGA,003742.44,3725.6321920,N,12205.7093960,W,1,0,0.0,-29.2777,M,0.0000,M,0.0000,0000*79
$GPRMC,003742.44,A,3725.6321920,N,12205.7093960,W,23.9948,325.1167,250620,,,,A*51
$GPGGA,003743.44,3725.6377060,N,12205.7146100,W,1,0,0.0,-29.3054,M,0.0000,M,0.0000,0000*76
$GPRMC,003743.44,A,3725.6377060,N,12205.7146100,W,25.6063,321.6281,250620,,,,A*58
$GPGGA,003744.44,3725.6432020,N,12205.7205440,W,1,0,0.0,-29.3355,M,0.0000,M,0.0000,0000*74
$GPRMC,003744.44,A,3725.6432020,N,12205.7205440,W,26.4190,317.5611,250620,,,,A*5f
$GPGGA,003745.44,3725.6484460,N,12205.7271620,W,1,0,0.0,-29.3568,M,0.0000,M,0.0000,0000*77
$GPRMC,003745.44,A,3725.6484460,N,12205.7271620,W,27.0310,312.8914,250620,,,,A*59
$GPGGA,003746.44,3725.6532880,N,12205.7343260,W,1,0,0.0,-29.3438,M,0.0000,M,0.0000,0000*7e
$GPRMC,003746.44,A,3725.6532880,N,12205.7343260,W,26.7231,308.4681,250620,,,,A*54
$GPGGA,003747.44,3725.6576260,N,12205.7417840,W,1,0,0.0,-29.2857,M,0.0000,M,0.0000,0000*71
$GPRMC,003747.44,A,3725.6576260,N,12205.7417840,W,26.1299,304.5661,250620,,,,A*58
$GPGGA,003748.44,3725.6615200,N,12205.7493800,W,1,0,0.0,-29.2450,M,0.0000,M,0.0000,0000*7d
$GPRMC,003748.44,A,3725.6615200,N,12205.7493800,W,25.8008,301.1057,250620,,,,A*5d
$GPGGA,003749.44,3725.6649580,N,12205.7573660,W,1,0,0.0,-29.2048,M,0.0000,M,0.0000,0000*70
$GPRMC,003749.44,A,3725.6649580,N,12205.7573660,W,26.1206,296.3100,250620,,,,A*55
$GPGGA,003750.44,3725.6679040,N,12205.7656760,W,1,0,0.0,-29.1918,M,0.0000,M,0.0000,0000*78
$GPRMC,003750.44,A,3725.6679040,N,12205.7656760,W,26.0054,292.3076,250620,,,,A*52
$GPGGA,003751.44,3725.6704000,N,12205.7742740,W,1,0,0.0,-29.2438,M,0.0000,M,0.0000,0000*7c
$GPRMC,003751.44,A,3725.6704000,N,12205.7742740,W,26.6062,288.1856,250620,,,,A*5a
$GPGGA,003752.44,3725.6724040,N,12205.7832800,W,1,0,0.0,-29.3247,M,0.0000,M,0.0000,0000*75
$GPRMC,003752.44,A,3725.6724040,N,12205.7832800,W,26.8232,283.7946,250620,,,,A*58
$GPGGA,003753.44,3725.6738920,N,12205.7923820,W,1,0,0.0,-29.3571,M,0.0000,M,0.0000,0000*77
$GPRMC,003753.44,A,3725.6738920,N,12205.7923820,W,26.4274,279.8685,250620,,,,A*5c
$GPGGA,003754.44,3725.6748400,N,12205.8015440,W,1,0,0.0,-29.4146,M,0.0000,M,0.0000,0000*76
$GPRMC,003754.44,A,3725.6748400,N,12205.8015440,W,26.5467,275.5316,250620,,,,A*51
$GPGGA,003755.44,3725.6752420,N,12205.8107360,W,1,0,0.0,-29.4713,M,0.0000,M,0.0000,0000*7f
$GPRMC,003755.44,A,3725.6752420,N,12205.8107360,W,26.1639,271.3539,250620,,,,A*5a
$GPGGA,003756.44,3725.6751160,N,12205.8197720,W,1,0,0.0,-29.5202,M,0.0000,M,0.0000,0000*73
$GPRMC,003756.44,A,3725.6751160,N,12205.8197720,W,25.6198,267.4129,250620,,,,A*5f
$GPGGA,003757.44,3725.6744740,N,12205.8285920,W,1,0,0.0,-29.5901,M,0.0000,M,0.0000,0000*74
$GPRMC,003757.44,A,3725.6744740,N,12205.8285920,W,25.2137,262.7713,250620,,,,A*58
$GPGGA,003758.44,3725.6733340,N,12205.8368360,W,1,0,0.0,-29.6318,M,0.0000,M,0.0000,0000*72
$GPRMC,003758.44,A,3725.6733340,N,12205.8368360,W,22.2962,258.9093,250620,,,,A*58
$GPGGA,003759.44,3725.6721280,N,12205.8439220,W,1,0,0.0,-29.6459,M,0.0000,M,0.0000,0000*79
$GPRMC,003759.44,A,3725.6721280,N,12205.8439220,W,19.6696,257.4341,250620,,,,A*57
$GPGGA,003800.44,3725.6710060,N,12205.8501860,W,1,0,0.0,-29.5909,M,0.0000,M,0.0000,0000*7b
$GPRMC,003800.44,A,3725.6710060,N,12205.8501860,W,17.0051,257.5172,250620,,,,A*58
$GPGGA,003801.44,3725.6700760,N,12205.8556820,W,1,0,0.0,-29.6763,M,0.0000,M,0.0000,0000*7b
$GPRMC,003801.44,A,3725.6700760,N,12205.8556820,W,15.6573,258.1070,250620,,,,A*50
$GPGGA,003802.44,3725.6691580,N,12205.8609860,W,1,0,0.0,-29.7382,M,0.0000,M,0.0000,0000*7a
$GPRMC,003802.44,A,3725.6691580,N,12205.8609860,W,15.4352,257.4522,250620,,,,A*54
$GPGGA,003803.44,3725.6682040,N,12205.8662240,W,1,0,0.0,-29.7480,M,0.0000,M,0.0000,0000*70
$GPRMC,003803.44,A,3725.6682040,N,12205.8662240,W,15.4675,256.9446,250620,,,,A*54
$GPGGA,003804.44,3725.6672260,N,12205.8715520,W,1,0,0.0,-29.7698,M,0.0000,M,0.0000,0000*73
$GPRMC,003804.44,A,3725.6672260,N,12205.8715520,W,16.0504,256.9749,250620,,,,A*52
$GPGGA,003805.44,3725.6661940,N,12205.8771800,W,1,0,0.0,-29.7918,M,0.0000,M,0.0000,0000*73
$GPRMC,003805.44,A,3725.6661940,N,12205.8771800,W,17.0145,257.2290,250620,,,,A*5e
$GPGGA,003806.44,3725.6651740,N,12205.8831380,W,1,0,0.0,-29.7318,M,0.0000,M,0.0000,0000*7f
$GPRMC,003806.44,A,3725.6651740,N,12205.8831380,W,17.9732,258.9810,250620,,,,A*51
$GPGGA,003807.44,3725.6642980,N,12205.8894980,W,1,0,0.0,-29.7741,M,0.0000,M,0.0000,0000*73
$GPRMC,003807.44,A,3725.6642980,N,12205.8894980,W,19.0971,260.1780,250620,,,,A*5e
$GPGGA,003808.44,3725.6632960,N,12205.8963440,W,1,0,0.0,-29.8202,M,0.0000,M,0.0000,0000*70
$GPRMC,003808.44,A,3725.6632960,N,12205.8963440,W,20.9171,259.2762,250620,,,,A*5e
$GPGGA,003809.44,3725.6621620,N,12205.9037540,W,1,0,0.0,-29.7892,M,0.0000,M,0.0000,0000*7c
$GPRMC,003809.44,A,3725.6621620,N,12205.9037540,W,22.2618,259.0688,250620,,,,A*58
$GPGGA,003810.44,3725.6609200,N,12205.9115300,W,1,0,0.0,-29.7686,M,0.0000,M,0.0000,0000*70
$GPRMC,003810.44,A,3725.6609200,N,12205.9115300,W,23.0554,258.4811,250620,,,,A*5c
$GPGGA,003811.44,3725.6596060,N,12205.9194440,W,1,0,0.0,-29.7954,M,0.0000,M,0.0000,0000*7a
$GPRMC,003811.44,A,3725.6596060,N,12205.9194440,W,23.1409,258.0924,250620,,,,A*5d
$GPGGA,003812.44,3725.6583040,N,12205.9271180,W,1,0,0.0,-29.8350,M,0.0000,M,0.0000,0000*7f
$GPRMC,003812.44,A,3725.6583040,N,12205.9271180,W,21.6311,258.0079,250620,,,,A*53
$GPGGA,003813.44,3725.6570680,N,12205.9341620,W,1,0,0.0,-29.8690,M,0.0000,M,0.0000,0000*7e
$GPRMC,003813.44,A,3725.6570680,N,12205.9341620,W,19.6051,257.3890,250620,,,,A*54
$GPGGA,003814.44,3725.6559640,N,12205.9403120,W,1,0,0.0,-29.8958,M,0.0000,M,0.0000,0000*73
$GPRMC,003814.44,A,3725.6559640,N,12205.9403120,W,16.5329,257.2948,250620,,,,A*57
$GPGGA,003815.44,3725.6549860,N,12205.9455620,W,1,0,0.0,-29.9128,M,0.0000,M,0.0000,0000*75
$GPRMC,003815.44,A,3725.6549860,N,12205.9455620,W,14.3027,256.9088,250620,,,,A*59
$GPGGA,003816.44,3725.6541940,N,12205.9497440,W,1,0,0.0,-29.9260,M,0.0000,M,0.0000,0000*78
$GPRMC,003816.44,A,3725.6541940,N,12205.9497440,W,9.9595,256.8723,250620,,,,A*66
$GPGGA,003817.44,3725.6537140,N,12205.9523840,W,1,0,0.0,-29.9386,M,0.0000,M,0.0000,0000*7b
$GPRMC,003817.44,A,3725.6537140,N,12205.9523840,W,6.3289,257.3732,250620,,,,A*69
$GPGGA,003818.44,3725.6533600,N,12205.9543040,W,1,0,0.0,-29.9568,M,0.0000,M,0.0000,0000*7b
$GPRMC,003818.44,A,3725.6533600,N,12205.9543040,W,5.3316,257.6751,250620,,,,A*6b
$GPGGA,003819.44,3725.6530420,N,12205.9562060,W,1,0,0.0,-29.9964,M,0.0000,M,0.0000,0000*78
$GPRMC,003819.44,A,3725.6530420,N,12205.9562060,W,5.8623,258.5672,250620,,,,A*6c
$GPGGA,003820.44,3725.6528680,N,12205.9584140,W,1,0,0.0,-30.0438,M,0.0000,M,0.0000,0000*7d
$GPRMC,003820.44,A,3725.6528680,N,12205.9584140,W,7.1412,265.3083,250620,,,,A*67
$GPGGA,003821.44,3725.6532880,N,12205.9611560,W,1,0,0.0,-30.1407,M,0.0000,M,0.0000,0000*7d
$GPRMC,003821.44,A,3725.6532880,N,12205.9611560,W,9.1516,282.1408,250620,,,,A*6d
$GPGGA,003822.44,3725.6547880,N,12205.9641200,W,1,0,0.0,-30.2510,M,0.0000,M,0.0000,0000*7c
$GPRMC,003822.44,A,3725.6547880,N,12205.9641200,W,11.2587,305.9571,250620,,,,A*53
$GPGGA,003823.44,3725.6575720,N,12205.9665740,W,1,0,0.0,-30.3183,M,0.0000,M,0.0000,0000*71
$GPRMC,003823.44,A,3725.6575720,N,12205.9665740,W,13.6148,329.1633,250620,,,,A*53
$GPGGA,003824.44,3725.6615740,N,12205.9683740,W,1,0,0.0,-30.2868,M,0.0000,M,0.0000,0000*70
$GPRMC,003824.44,A,3725.6615740,N,12205.9683740,W,16.9881,341.8588,250620,,,,A*5d
$GPGGA,003825.44,3725.6663860,N,12205.9703780,W,1,0,0.0,-30.2998,M,0.0000,M,0.0000,0000*76
$GPRMC,003825.44,A,3725.6663860,N,12205.9703780,W,19.7582,341.5854,250620,,,,A*5b
$GPGGA,003826.44,3725.6719660,N,12205.9728920,W,1,0,0.0,-30.2822,M,0.0000,M,0.0000,0000*7a
$GPRMC,003826.44,A,3725.6719660,N,12205.9728920,W,22.7081,340.0212,250620,,,,A*55
$GPGGA,003827.44,3725.6782420,N,12205.9758020,W,1,0,0.0,-30.2760,M,0.0000,M,0.0000,0000*78
$GPRMC,003827.44,A,3725.6782420,N,12205.9758020,W,25.5109,339.7814,250620,,,,A*5f
$GPGGA,003828.44,3725.6852140,N,12205.9790060,W,1,0,0.0,-30.3143,M,0.0000,M,0.0000,0000*70
$GPRMC,003828.44,A,3725.6852140,N,12205.9790060,W,27.7724,340.0794,250620,,,,A*56
$GPGGA,003829.44,3725.6927740,N,12205.9824080,W,1,0,0.0,-30.3453,M,0.0000,M,0.0000,0000*7e
$GPRMC,003829.44,A,3725.6927740,N,12205.9824080,W,29.8614,340.4034,250620,,,,A*56
$GPGGA,003830.44,3725.7008320,N,12205.9860200,W,1,0,0.0,-30.3887,M,0.0000,M,0.0000,0000*7e
$GPRMC,003830.44,A,3725.7008320,N,12205.9860200,W,31.5141,340.3107,250620,,,,A*56
$GPGGA,003831.44,3725.7091960,N,12205.9897340,W,1,0,0.0,-30.4176,M,0.0000,M,0.0000,0000*7c
$GPRMC,003831.44,A,3725.7091960,N,12205.9897340,W,31.9321,340.8097,250620,,,,A*5f
$GPGGA,003832.44,3725.7175600,N,12205.9933280,W,1,0,0.0,-30.4450,M,0.0000,M,0.0000,0000*7e
$GPRMC,003832.44,A,3725.7175600,N,12205.9933280,W,31.8048,341.3577,250620,,,,A*50
$GPGGA,003833.44,3725.7260500,N,12205.9968680,W,1,0,0.0,-30.4728,M,0.0000,M,0.0000,0000*7d
$GPRMC,003833.44,A,3725.7260500,N,12205.9968680,W,32.5552,341.8450,250620,,,,A*50
$GPGGA,003834.44,3725.7347380,N,12206.0004380,W,1,0,0.0,-30.4908,M,0.0000,M,0.0000,0000*70
$GPRMC,003834.44,A,3725.7347380,N,12206.0004380,W,33.1153,341.9203,250620,,,,A*50
$GPGGA,003835.44,3725.7435520,N,12206.0040800,W,1,0,0.0,-30.4912,M,0.0000,M,0.0000,0000*77
$GPRMC,003835.44,A,3725.7435520,N,12206.0040800,W,33.5598,341.7341,250620,,,,A*52
$GPGGA,003836.44,3725.7523600,N,12206.0077640,W,1,0,0.0,-30.5234,M,0.0000,M,0.0000,0000*73
$GPRMC,003836.44,A,3725.7523600,N,12206.0077640,W,33.1799,341.4391,250620,,,,A*51
$GPGGA,003837.44,3725.7609640,N,12206.0114600,W,1,0,0.0,-30.5403,M,0.0000,M,0.0000,0000*7f
$GPRMC,003837.44,A,3725.7609640,N,12206.0114600,W,31.9322,340.8285,250620,,,,A*58
$GPGGA,003838.44,3725.7690700,N,12206.0149940,W,1,0,0.0,-30.5874,M,0.0000,M,0.0000,0000*7a
$GPRMC,003838.44,A,3725.7690700,N,12206.0149940,W,29.7867,340.9233,250620,,,,A*50
$GPGGA,003839.44,3725.7766600,N,12206.0181140,W,1,0,0.0,-30.6088,M,0.0000,M,0.0000,0000*76
$GPRMC,003839.44,A,3725.7766600,N,12206.0181140,W,27.7010,342.5899,250620,,,,A*56
$GPGGA,003840.44,3725.7838840,N,12206.0207120,W,1,0,0.0,-30.6835,M,0.0000,M,0.0000,0000*73
$GPRMC,003840.44,A,3725.7838840,N,12206.0207120,W,26.5329,345.2016,250620,,,,A*58
$GPGGA,003841.44,3725.7910000,N,12206.0224100,W,1,0,0.0,-30.7888,M,0.0000,M,0.0000,0000*71
$GPRMC,003841.44,A,3725.7910000,N,12206.0224100,W,25.7500,352.4783,250620,,,,A*5a
$GPGGA,003842.44,3725.7979300,N,12206.0226380,W,1,0,0.0,-30.7688,M,0.0000,M,0.0000,0000*78
$GPRMC,003842.44,A,3725.7979300,N,12206.0226380,W,24.2075,2.2827,250620,,,,A*5f
$GPGGA,003843.44,3725.8044100,N,12206.0214680,W,1,0,0.0,-30.6567,M,0.0000,M,0.0000,0000*74
$GPRMC,003843.44,A,3725.8044100,N,12206.0214680,W,23.1480,11.8700,250620,,,,A*68
$GPGGA,003844.44,3725.8105540,N,12206.0191940,W,1,0,0.0,-30.6013,M,0.0000,M,0.0000,0000*7c
$GPRMC,003844.44,A,3725.8105540,N,12206.0191940,W,23.3348,18.1922,250620,,,,A*69
$GPGGA,003845.44,3725.8168240,N,12206.0163800,W,1,0,0.0,-30.5393,M,0.0000,M,0.0000,0000*71
$GPRMC,003845.44,A,3725.8168240,N,12206.0163800,W,24.5404,20.5041,250620,,,,A*61
$GPGGA,003846.44,3725.8231780,N,12206.0133140,W,1,0,0.0,-30.4927,M,0.0000,M,0.0000,0000*78
$GPRMC,003846.44,A,3725.8231780,N,12206.0133140,W,24.0679,21.5947,250620,,,,A*6f
$GPGGA,003847.44,3725.8291600,N,12206.0103320,W,1,0,0.0,-30.4389,M,0.0000,M,0.0000,0000*73
$GPRMC,003847.44,A,3725.8291600,N,12206.0103320,W,22.1146,21.1066,250620,,,,A*68
$GPGGA,003848.44,3725.8347400,N,12206.0084900,W,1,0,0.0,-30.3906,M,0.0000,M,0.0000,0000*78
$GPRMC,003848.44,A,3725.8347400,N,12206.0084900,W,19.6343,9.6898,250620,,,,A*55
$GPGGA,003849.44,3725.8400020,N,12206.0086160,W,1,0,0.0,-30.3650,M,0.0000,M,0.0000,0000*7b
$GPRMC,003849.44,A,3725.8400020,N,12206.0086160,W,17.9802,353.3352,250620,,,,A*51
$GPGGA,003850.44,3725.8445560,N,12206.0105780,W,1,0,0.0,-30.3282,M,0.0000,M,0.0000,0000*7a
$GPRMC,003850.44,A,3725.8445560,N,12206.0105780,W,16.1775,334.8295,250620,,,,A*5d
$GPGGA,003851.44,3725.8478260,N,12206.0137700,W,1,0,0.0,-30.4031,M,0.0000,M,0.0000,0000*76
$GPRMC,003851.44,A,3725.8478260,N,12206.0137700,W,13.7094,318.3082,250620,,,,A*56
$GPGGA,003852.44,3725.8505260,N,12206.0171060,W,1,0,0.0,-30.4347,M,0.0000,M,0.0000,0000*7f
$GPRMC,003852.44,A,3725.8505260,N,12206.0171060,W,13.5514,315.2866,250620,,,,A*5c
$GPGGA,003853.44,3725.8533100,N,12206.0203340,W,1,0,0.0,-30.5778,M,0.0000,M,0.0000,0000*70
$GPRMC,003853.44,A,3725.8533100,N,12206.0203340,W,13.9876,319.3245,250620,,,,A*59
$GPGGA,003854.44,3725.8567720,N,12206.0226440,W,1,0,0.0,-30.7545,M,0.0000,M,0.0000,0000*7c
$GPRMC,003854.44,A,3725.8567720,N,12206.0226440,W,14.4190,337.0711,250620,,,,A*5b
$GPGGA,003855.44,3725.8607260,N,12206.0235140,W,1,0,0.0,-30.8116,M,0.0000,M,0.0000,0000*73
$GPRMC,003855.44,A,3725.8607260,N,12206.0235140,W,14.7098,353.2274,250620,,,,A*55
$GPGGA,003856.44,3725.8650100,N,12206.0235440,W,1,0,0.0,-30.7513,M,0.0000,M,0.0000,0000*7c
$GPRMC,003856.44,A,3725.8650100,N,12206.0235440,W,16.4283,1.4023,250620,,,,A*5f
$GPGGA,003857.44,3725.8698460,N,12206.0231900,W,1,0,0.0,-30.7376,M,0.0000,M,0.0000,0000*72
$GPRMC,003857.44,A,3725.8698460,N,12206.0231900,W,18.5198,3.8359,250620,,,,A*52
$GPGGA,003858.44,3725.8753060,N,12206.0227400,W,1,0,0.0,-30.7248,M,0.0000,M,0.0000,0000*79
$GPRMC,003858.44,A,3725.8753060,N,12206.0227400,W,20.7907,3.9044,250620,,,,A*5c
$GPGGA,003859.44,3725.8812940,N,12206.0222600,W,1,0,0.0,-30.6719,M,0.0000,M,0.0000,0000*7e
$GPRMC,003859.44,A,3725.8812940,N,12206.0222600,W,22.3177,3.4922,250620,,,,A*56
$GPGGA,003900.44,3725.8876420,N,12206.0216960,W,1,0,0.0,-30.5933,M,0.0000,M,0.0000,0000*71
$GPRMC,003900.44,A,3725.8876420,N,12206.0216960,W,23.1088,4.8788,250620,,,,A*5b
$GPGGA,003901.44,3725.8940080,N,12206.0208560,W,1,0,0.0,-30.5397,M,0.0000,M,0.0000,0000*7d
$GPRMC,003901.44,A,3725.8940080,N,12206.0208560,W,22.8402,6.3976,250620,,,,A*5b
$GPGGA,003902.44,3725.9002660,N,12206.0199800,W,1,0,0.0,-30.4565,M,0.0000,M,0.0000,0000*72
$GPRMC,003902.44,A,3725.9002660,N,12206.0199800,W,22.6899,6.4760,250620,,,,A*50
$GPGGA,003903.44,3725.9066500,N,12206.0191160,W,1,0,0.0,-30.3172,M,0.0000,M,0.0000,0000*76
$GPRMC,003903.44,A,3725.9066500,N,12206.0191160,W,23.4232,6.2140,250620,,,,A*5b
$GPGGA,003904.44,3725.9130820,N,12206.0182040,W,1,0,0.0,-30.1338,M,0.0000,M,0.0000,0000*73
$GPRMC,003904.44,A,3725.9130820,N,12206.0182040,W,22.9273,7.0535,250620,,,,A*5c
$GPGGA,003905.44,3725.9191840,N,12206.0172260,W,1,0,0.0,-29.9657,M,0.0000,M,0.0000,0000*7c
$GPRMC,003905.44,A,3725.9191840,N,12206.0172260,W,21.2013,7.6681,250620,,,,A*59
$GPGGA,003906.44,3725.9246680,N,12206.0161580,W,1,0,0.0,-29.8119,M,0.0000,M,0.0000,0000*73
$GPRMC,003906.44,A,3725.9246680,N,12206.0161580,W,18.5570,10.9667,250620,,,,A*66
$GPGGA,003907.44,3725.9291260,N,12206.0141180,W,1,0,0.0,-29.7398,M,0.0000,M,0.0000,0000*70
$GPRMC,003907.44,A,3725.9291260,N,12206.0141180,W,16.1829,26.1577,250620,,,,A*65
$GPGGA,003908.44,3725.9323060,N,12206.0104940,W,1,0,0.0,-29.6514,M,0.0000,M,0.0000,0000*73
$GPRMC,003908.44,A,3725.9323060,N,12206.0104940,W,15.2337,49.6165,250620,,,,A*68
$GPGGA,003909.44,3725.9339620,N,12206.0056640,W,1,0,0.0,-29.5660,M,0.0000,M,0.0000,0000*71
$GPRMC,003909.44,A,3725.9339620,N,12206.0056640,W,15.8300,73.5826,250620,,,,A*63
$GPGGA,003910.44,3725.9341540,N,12205.9998560,W,1,0,0.0,-29.5628,M,0.0000,M,0.0000,0000*7f
$GPRMC,003910.44,A,3725.9341540,N,12205.9998560,W,17.9885,91.9679,250620,,,,A*60
$GPGGA,003911.44,3725.9334880,N,12205.9931780,W,1,0,0.0,-29.5928,M,0.0000,M,0.0000,0000*7d
$GPRMC,003911.44,A,3725.9334880,N,12205.9931780,W,20.6648,98.3568,250620,,,,A*69
$GPGGA,003912.44,3725.9325700,N,12205.9855820,W,1,0,0.0,-29.6644,M,0.0000,M,0.0000,0000*79
$GPRMC,003912.44,A,3725.9325700,N,12205.9855820,W,23.3165,98.7898,250620,,,,A*63
$GPGGA,003913.44,3725.9316040,N,12205.9771880,W,1,0,0.0,-29.6888,M,0.0000,M,0.0000,0000*76
$GPRMC,003913.44,A,3725.9316040,N,12205.9771880,W,25.1956,97.9762,250620,,,,A*65
$GPGGA,003914.44,3725.9307280,N,12205.9681520,W,1,0,0.0,-29.7531,M,0.0000,M,0.0000,0000*78
$GPRMC,003914.44,A,3725.9307280,N,12205.9681520,W,26.8804,96.4743,250620,,,,A*66
$GPGGA,003915.44,3725.9299540,N,12205.9586600,W,1,0,0.0,-29.7603,M,0.0000,M,0.0000,0000*73
$GPRMC,003915.44,A,3725.9299540,N,12205.9586600,W,27.5908,95.6994,250620,,,,A*6b
$GPGGA,003916.44,3725.9292340,N,12205.9491320,W,1,0,0.0,-29.8140,M,0.0000,M,0.0000,0000*72
$GPRMC,003916.44,A,3725.9292340,N,12205.9491320,W,27.2648,95.4179,250620,,,,A*60
$GPGGA,003917.44,3725.9285140,N,12205.9397180,W,1,0,0.0,-29.8833,M,0.0000,M,0.0000,0000*73
$GPRMC,003917.44,A,3725.9285140,N,12205.9397180,W,27.0914,95.7237,250620,,,,A*62
$GPGGA,003918.44,3725.9277400,N,12205.9302680,W,1,0,0.0,-29.8242,M,0.0000,M,0.0000,0000*77
$GPRMC,003918.44,A,3725.9277400,N,12205.9302680,W,27.4084,95.9796,250620,,,,A*6e
$GPGGA,003919.44,3725.9269240,N,12205.9206920,W,1,0,0.0,-29.8695,M,0.0000,M,0.0000,0000*75
$GPRMC,003919.44,A,3725.9269240,N,12205.9206920,W,27.8570,96.2134,250620,,,,A*66
$GPGGA,003920.44,3725.9260300,N,12205.9110800,W,1,0,0.0,-29.8394,M,0.0000,M,0.0000,0000*70
$GPRMC,003920.44,A,3725.9260300,N,12205.9110800,W,27.5331,96.9635,250620,,,,A*64
$GPGGA,003921.44,3725.9250520,N,12205.9016360,W,1,0,0.0,-29.8052,M,0.0000,M,0.0000,0000*75
$GPRMC,003921.44,A,3725.9250520,N,12205.9016360,W,27.1822,97.6258,250620,,,,A*64
$GPGGA,003922.44,3725.9240020,N,12205.8923540,W,1,0,0.0,-29.8411,M,0.0000,M,0.0000,0000*7b
$GPRMC,003922.44,A,3725.9240020,N,12205.8923540,W,26.3761,98.1557,250620,,,,A*62
$GPGGA,003923.44,3725.9230300,N,12205.8835760,W,1,0,0.0,-29.9143,M,0.0000,M,0.0000,0000*79
$GPRMC,003923.44,A,3725.9230300,N,12205.8835760,W,24.2532,97.2818,250620,,,,A*6e
$GPGGA,003924.44,3725.9223520,N,12205.8757640,W,1,0,0.0,-29.9554,M,0.0000,M,0.0000,0000*72
$GPRMC,003924.44,A,3725.9223520,N,12205.8757640,W,20.7298,94.6527,250620,,,,A*67
$GPGGA,003925.44,3725.9224060,N,12205.8691220,W,1,0,0.0,-29.9598,M,0.0000,M,0.0000,0000*7c
$GPRMC,003925.44,A,3725.9224060,N,12205.8691220,W,17.6317,85.5840,250620,,,,A*65
$GPGGA,003926.44,3725.9235880,N,12205.8634700,W,1,0,0.0,-29.9315,M,0.0000,M,0.0000,0000*72
$GPRMC,003926.44,A,3725.9235880,N,12205.8634700,W,15.8442,69.7860,250620,,,,A*61
$GPGGA,003927.44,3725.9259040,N,12205.8591140,W,1,0,0.0,-29.9260,M,0.0000,M,0.0000,0000*70
$GPRMC,003927.44,A,3725.9259040,N,12205.8591140,W,14.2606,50.3291,250620,,,,A*63
$GPGGA,003928.44,3725.9290840,N,12205.8563480,W,1,0,0.0,-29.9638,M,0.0000,M,0.0000,0000*7f
$GPRMC,003928.44,A,3725.9290840,N,12205.8563480,W,12.9364,28.0952,250620,,,,A*61
$GPGGA,003929.44,3725.9322820,N,12205.8558740,W,1,0,0.0,-29.9828,M,0.0000,M,0.0000,0000*78
$GPRMC,003929.44,A,3725.9322820,N,12205.8558740,W,10.0615,359.7389,250620,,,,A*5f
$GPGGA,003930.44,3725.9345920,N,12205.8573200,W,1,0,0.0,-29.9566,M,0.0000,M,0.0000,0000*7f
$GPRMC,003930.44,A,3725.9345920,N,12205.8573200,W,8.2057,329.1140,250620,,,,A*62
$GPGGA,003931.44,3725.9356780,N,12205.8596840,W,1,0,0.0,-30.0063,M,0.0000,M,0.0000,0000*7c
$GPRMC,003931.44,A,3725.9356780,N,12205.8596840,W,7.2023,299.3663,250620,,,,A*62
$GPGGA,003932.44,3725.9360620,N,12205.8622220,W,1,0,0.0,-30.1427,M,0.0000,M,0.0000,0000*74
$GPRMC,003932.44,A,3725.9360620,N,12205.8622220,W,7.0041,281.9602,250620,,,,A*6d
$GPGGA,003933.44,3725.9363140,N,12205.8646940,W,1,0,0.0,-30.0249,M,0.0000,M,0.0000,0000*77
$GPRMC,003933.44,A,3725.9363140,N,12205.8646940,W,7.3307,277.6970,250620,,,,A*6f
$GPGGA,003934.44,3725.9366020,N,12205.8676340,W,1,0,0.0,-29.9252,M,0.0000,M,0.0000,0000*70
$GPRMC,003934.44,A,3725.9366020,N,12205.8676340,W,10.2264,276.8373,250620,,,,A*56
$GPGGA,003935.44,3725.9370580,N,12205.8719900,W,1,0,0.0,-29.8939,M,0.0000,M,0.0000,0000*78
$GPRMC,003935.44,A,3725.9370580,N,12205.8719900,W,14.8704,277.3034,250620,,,,A*5e
$GPGGA,003936.44,3725.9377060,N,12205.8777260,W,1,0,0.0,-29.7895,M,0.0000,M,0.0000,0000*7a
$GPRMC,003936.44,A,3725.9377060,N,12205.8777260,W,17.9706,278.1628,250620,,,,A*52
$GPGGA,003937.44,3725.9384920,N,12205.8842420,W,1,0,0.0,-29.6924,M,0.0000,M,0.0000,0000*7b
$GPRMC,003937.44,A,3725.9384920,N,12205.8842420,W,19.5993,278.4092,250620,,,,A*5b
$GPGGA,003938.44,3725.9392240,N,12205.8909980,W,1,0,0.0,-29.6023,M,0.0000,M,0.0000,0000*79
$GPRMC,003938.44,A,3725.9392240,N,12205.8909980,W,19.1006,276.7078,250620,,,,A*5f
$GPGGA,003939.44,3725.9392960,N,12205.8972500,W,1,0,0.0,-29.5378,M,0.0000,M,0.0000,0000*77
$GPRMC,003939.44,A,3725.9392960,N,12205.8972500,W,16.6027,266.4778,250620,,,,A*51
$GPGGA,003940.44,3725.9381200,N,12205.9023500,W,1,0,0.0,-29.5708,M,0.0000,M,0.0000,0000*79
$GPRMC,003940.44,A,3725.9381200,N,12205.9023500,W,13.6334,247.8599,250620,,,,A*5a
$GPGGA,003941.44,3725.9361520,N,12205.9057880,W,1,0,0.0,-29.6875,M,0.0000,M,0.0000,0000*73
$GPRMC,003941.44,A,3725.9361520,N,12205.9057880,W,10.5710,230.5861,250620,,,,A*53
$GPGGA,003942.44,3725.9340100,N,12205.9076720,W,1,0,0.0,-29.7093,M,0.0000,M,0.0000,0000*72
$GPRMC,003942.44,A,3725.9340100,N,12205.9076720,W,7.6866,213.1215,250620,,,,A*64
$GPGGA,003943.44,3725.9324380,N,12205.9084940,W,1,0,0.0,-29.8033,M,0.0000,M,0.0000,0000*7b
$GPRMC,003943.44,A,3725.9324380,N,12205.9084940,W,5.6327,205.0636,250620,,,,A*67
$GPGGA,003944.44,3725.9311480,N,12205.9096580,W,1,0,0.0,-30.0569,M,0.0000,M,0.0000,0000*74
$GPRMC,003944.44,A,3725.9311480,N,12205.9096580,W,6.4192,215.7202,250620,,,,A*6a
$GPGGA,003945.44,3725.9300920,N,12205.9120160,W,1,0,0.0,-29.9266,M,0.0000,M,0.0000,0000*7d
$GPRMC,003945.44,A,3725.9300920,N,12205.9120160,W,9.4994,240.8494,250620,,,,A*6d
$GPGGA,003946.44,3725.9297020,N,12205.9161140,W,1,0,0.0,-29.8874,M,0.0000,M,0.0000,0000*77
$GPRMC,003946.44,A,3725.9297020,N,12205.9161140,W,14.7074,266.1571,250620,,,,A*50
$GPGGA,003947.44,3725.9300800,N,12205.9221680,W,1,0,0.0,-29.8978,M,0.0000,M,0.0000,0000*72
$GPRMC,003947.44,A,3725.9300800,N,12205.9221680,W,20.1538,276.5576,250620,,,,A*56
$GPGGA,003948.44,3725.9310280,N,12205.9299320,W,1,0,0.0,-29.8440,M,0.0000,M,0.0000,0000*74
$GPRMC,003948.44,A,3725.9310280,N,12205.9299320,W,24.8939,278.6765,250620,,,,A*5b
$GPGGA,003949.44,3725.9319580,N,12205.9392200,W,1,0,0.0,-29.8823,M,0.0000,M,0.0000,0000*7b
$GPRMC,003949.44,A,3725.9319580,N,12205.9392200,W,28.5595,276.4359,250620,,,,A*51
$GPGGA,003950.44,3725.9327080,N,12205.9497080,W,1,0,0.0,-29.8361,M,0.0000,M,0.0000,0000*7e
$GPRMC,003950.44,A,3725.9327080,N,12205.9497080,W,31.2750,274.5667,250620,,,,A*56
$GPGGA,003951.44,3725.9333320,N,12205.9607060,W,1,0,0.0,-29.7564,M,0.0000,M,0.0000,0000*7a
$GPRMC,003951.44,A,3725.9333320,N,12205.9607060,W,31.6138,274.3250,250620,,,,A*54
$GPGGA,003952.44,3725.9340820,N,12205.9714460,W,1,0,0.0,-29.7106,M,0.0000,M,0.0000,0000*71
$GPRMC,003952.44,A,3725.9340820,N,12205.9714460,W,29.7625,275.5098,250620,,,,A*5d
$GPGGA,003953.44,3725.9349040,N,12205.9812320,W,1,0,0.0,-29.6483,M,0.0000,M,0.0000,0000*74
$GPRMC,003953.44,A,3725.9349040,N,12205.9812320,W,26.5541,276.4308,250620,,,,A*55
$GPGGA,003954.44,3725.9357080,N,12205.9897460,W,1,0,0.0,-29.5995,M,0.0000,M,0.0000,0000*77
$GPRMC,003954.44,A,3725.9357080,N,12205.9897460,W,22.5748,276.6302,250620,,,,A*58
$GPGGA,003955.44,3725.9362840,N,12205.9970000,W,1,0,0.0,-29.5324,M,0.0000,M,0.0000,0000*7e
$GPRMC,003955.44,A,3725.9362840,N,12205.9970000,W,19.0781,275.2905,250620,,,,A*53
$GPGGA,003956.44,3725.9367160,N,12206.0027840,W,1,0,0.0,-29.5124,M,0.0000,M,0.0000,0000*7c
$GPRMC,003956.44,A,3725.9367160,N,12206.0027840,W,13.9995,275.4782,250620,,,,A*5c
$GPGGA,003957.44,3725.9370220,N,12206.0066540,W,1,0,0.0,-29.4848,M,0.0000,M,0.0000,0000*76
$GPRMC,003957.44,A,3725.9370220,N,12206.0066540,W,8.2145,275.3063,250620,,,,A*6f
$GPGGA,003958.44,3725.9371120,N,12206.0091140,W,1,0,0.0,-29.4856,M,0.0000,M,0.0000,0000*78
$GPRMC,003958.44,A,3725.9371120,N,12206.0091140,W,6.6847,271.6137,250620,,,,A*6e
$GPGGA,003959.44,3725.9366140,N,12206.0117540,W,1,0,0.0,-29.4754,M,0.0000,M,0.0000,0000*7f
$GPRMC,003959.44,A,3725.9366140,N,12206.0117540,W,9.5573,255.8536,250620,,,,A*6f
