MessageType,Provider,LatitudeDegrees,LongitudeDegrees,AltitudeMeters,SpeedMps,AccuracyMeters,BearingDegrees,UnixTimeMillis,SpeedAccuracyMps,BearingAccuracyDegrees,elapsedRealtimeNanos,VerticalAccuracyMeters
Fix,GT,37.6922066000,-122.0883995000,21.076949445100126,0.001,0.1,288.26706,1694115207434,,,,
Fix,GT,37.6922066000,-122.0883995000,21.076950073242188,0.001,0.1,288.26688,1694115208434,,,,
Fix,GT,37.6922066000,-122.0883995000,21.076950073242188,0.00076414977,0.1,288.2672,1694115209434,,,,
Fix,GT,37.6922066000,-122.0883995000,21.07695070138425,0.0018904164,0.1,288.26797,1694115210434,,,,
Fix,GT,37.6922066000,-122.0883995000,21.07695070138425,0.0027389354,0.1,288.2674,1694115211434,,,,
Fix,GT,37.6922066000,-122.0883995000,21.07695070138425,0.00065826194,0.1,288.26727,1694115212434,,,,
Fix,GT,37.6922066000,-122.0883996000,21.076949445100126,0.001272661,0.1,288.26782,1694115213434,,,,
Fix,GT,37.6922066000,-122.0883996000,21.07695070138425,0.0010806709,0.1,288.2673,1694115214434,,,,
Fix,GT,37.6922066000,-122.0883996000,21.07795015209763,0.0,0.1,288.26593,1694115215434,,,,
Fix,GT,37.6922066000,-122.0883996000,21.077948895753934,0.0014142136,0.1,288.2659,1694115216434,,,,
Fix,GT,37.6922065000,-122.0883991000,21.080291882964502,0.12676921,0.1,288.2738,1694115217434,,,,
Fix,GT,37.6922058000,-122.0883965000,21.090290227811693,0.38118866,0.1,288.42758,1694115218434,,,,
Fix,GT,37.6922049000,-122.0883903000,21.107632605236972,0.6897117,0.1,290.5926,1694115219434,,,,
Fix,GT,37.6922047000,-122.0883802000,21.130633322400058,0.9165578,0.1,300.18286,1694115220434,,,,
Fix,GT,37.6922027000,-122.0883681000,21.15129102859146,0.7906555,0.1,312.35178,1694115221434,,,,
Fix,GT,37.6922017000,-122.0883649000,21.161266056830755,0.02627146,0.1,315.67957,1694115222434,,,,
Fix,GT,37.6922018000,-122.0883649000,21.156607794692377,0.010872902,0.1,315.83408,1694115223434,,,,
Fix,GT,37.6922044000,-122.0883679000,21.14026677825416,0.9289003,0.1,316.48376,1694115224434,,,,
Fix,GT,37.6922159000,-122.0883786000,21.095899374694227,2.2899961,0.1,320.4244,1694115225434,,,,
Fix,GT,37.6922389000,-122.0883955000,21.012848137774768,3.6283884,0.1,328.0186,1694115226434,,,,
Fix,GT,37.6922741000,-122.0884131000,20.89358272812899,4.834515,0.1,338.69666,1694115227434,,,,
Fix,GT,37.6923192000,-122.0884249000,20.840556756017804,5.2387605,0.1,349.09048,1694115228434,,,,
Fix,GT,37.6923680000,-122.0884340000,20.738265720899108,5.937092,0.1,351.12134,1694115229434,,,,
Fix,GT,37.6924248000,-122.0884503000,20.601823601446995,6.954357,0.1,345.00684,1694115230434,,,,
Fix,GT,37.6924867000,-122.0884809000,20.418772626513828,7.593885,0.1,336.73346,1694115231434,,,,
Fix,GT,37.6925490000,-122.0885194000,20.22413973320846,7.8043203,0.1,332.77844,1694115232434,,,,
Fix,GT,37.6926107000,-122.0885622000,20.029404689708315,7.8435497,0.1,330.6965,1694115233434,,,,
Fix,GT,37.6926722000,-122.0886066000,19.872505956083955,7.863985,0.1,329.76593,1694115234434,,,,
Fix,GT,37.6927332000,-122.0886520000,19.702406211501227,7.871998,0.1,329.18536,1694115235434,,,,
Fix,GT,37.6927924000,-122.0886966000,19.5424814267667,7.2580166,0.1,328.88852,1694115236434,,,,
Fix,GT,37.6928450000,-122.0887349000,19.40219021121601,6.225236,0.1,330.45514,1694115237434,,,,
Fix,GT,37.6928921000,-122.0887628000,19.303506309359364,5.408041,0.1,336.11002,1694115238434,,,,
Fix,GT,37.6929369000,-122.0887735000,19.194557424065124,4.931324,0.1,351.94873,1694115239434,,,,
Fix,GT,37.6929801000,-122.0887730000,19.14821520477227,4.538189,0.1,359.57574,1694115240434,,,,
Fix,GT,37.6930163000,-122.0887756000,19.06989962280346,3.445619,0.1,356.40137,1694115241434,,,,
Fix,GT,37.6930417000,-122.0887805000,19.030974489226423,2.2236986,0.1,352.24548,1694115242434,,,,
Fix,GT,37.6930572000,-122.0887851000,19.015948682548128,1.3740208,0.1,349.27893,1694115243434,,,,
Fix,GT,37.6930652000,-122.0887876000,19.00760771298269,0.37414914,0.1,347.84363,1694115244434,,,,
Fix,GT,37.6930674000,-122.0887884000,18.99660851429894,0.19442664,0.1,347.3667,1694115245434,,,,
Fix,GT,37.6930679000,-122.0887885000,18.9909490647629,0.02363712,0.1,347.25397,1694115246434,,,,
Fix,GT,37.6930682000,-122.0887887000,18.985924620375613,0.12836725,0.1,347.18106,1694115247434,,,,
Fix,GT,37.6930732000,-122.0887904000,18.957240427082525,0.99315333,0.1,346.30026,1694115248434,,,,
Fix,GT,37.6930846000,-122.0887952000,18.83545620370643,1.7604437,0.1,344.38086,1694115249434,,,,
Fix,GT,37.6931001000,-122.0888023000,18.723899641246817,1.7284045,0.1,340.9694,1694115250434,,,,
Fix,GT,37.6931140000,-122.0888104000,18.53092524941178,1.7185633,0.1,337.46768,1694115251434,,,,
Fix,GT,37.6931266000,-122.0888192000,18.625000754890095,1.6469779,0.1,333.18378,1694115252434,,,,
Fix,GT,37.6931388000,-122.0888334000,18.7290249301588,1.7982073,0.099,322.62744,1694115253434,,,,
Fix,GT,37.6931470000,-122.0888512000,18.830367521182893,1.600844,0.1,308.4523,1694115254434,,,,
Fix,GT,37.6931503000,-122.0888668000,18.904317698911825,1.1387023,0.1,296.65045,1694115255434,,,,
Fix,GT,37.6931524000,-122.0888832000,18.927631733430132,2.0330544,0.1,287.1102,1694115256434,,,,
Fix,GT,37.6931557000,-122.0889160000,18.96065844078919,3.603662,0.1,279.7694,1694115257434,,,,
Fix,GT,37.6931595000,-122.0889625000,19.02399979975837,4.4329944,0.1,275.2987,1694115258434,,,,
Fix,GT,37.6931588000,-122.0890129000,19.076291484749845,4.3194957,0.1,268.31668,1694115259434,,,,
Fix,GT,37.6931533000,-122.0890619000,19.10199891242405,4.487891,0.1,261.53076,1694115260434,,,,
Fix,GT,37.6931432000,-122.0891107000,19.139000137595986,4.32356,0.1,254.77179,1694115261434,,,,
Fix,GT,37.6931298000,-122.0891546000,19.19165751316848,3.7547586,0.1,248.7019,1694115262434,,,,
Fix,GT,37.6931179000,-122.0891872000,19.230975823742995,2.5739727,0.1,245.66258,1694115263434,,,,
Fix,GT,37.6931093000,-122.0892087000,19.258975702507144,1.6914616,0.1,244.0459,1694115264434,,,,
Fix,GT,37.6931034000,-122.0892226000,19.280632938306667,1.197891,0.1,242.94708,1694115265434,,,,
Fix,GT,37.6930994000,-122.0892323000,19.297290935847286,0.685591,0.1,242.62263,1694115266434,,,,
Fix,GT,37.6930976000,-122.0892366000,19.3002911952467,0.2725245,0.1,242.63339,1694115267434,,,,
Fix,GT,37.6930967000,-122.0892388000,19.30394878077658,0.120167255,0.1,242.6458,1694115268434,,,,
Fix,GT,37.6930965000,-122.0892394000,19.302949905395508,0.011673763,0.1,242.65154,1694115269434,,,,
Fix,GT,37.6930965000,-122.0892394000,19.301947972120388,0.0017998151,0.1,242.65173,1694115270434,,,,
Fix,GT,37.6930965000,-122.0892394000,19.30094852146658,0.0014224099,0.1,242.64902,1694115271434,,,,
Fix,GT,37.6930965000,-122.0892394000,19.300949096679688,0.0003417368,0.1,242.64894,1694115272434,,,,
Fix,GT,37.6930965000,-122.0892394000,19.300949096679688,0.0,0.1,242.6488,1694115273434,,,,
Fix,GT,37.6930965000,-122.0892394000,19.30094852146658,0.0,0.1,242.64874,1694115274434,,,,
Fix,GT,37.6930965000,-122.0892394000,19.300949096679688,0.0,0.1,242.64853,1694115275434,,,,
Fix,GT,37.6930965000,-122.0892394000,19.300949096679688,0.0006582633,0.1,242.64845,1694115276434,,,,
Fix,GT,37.6930965000,-122.0892394000,19.300949096679688,0.0,0.1,242.64838,1694115277434,,,,
Fix,GT,37.6930965000,-122.0892394000,19.30094852146658,0.0,0.1,242.64839,1694115278434,,,,
Fix,GT,37.6930965000,-122.0892394000,19.300949096679688,0.0,0.1,242.64807,1694115279434,,,,
Fix,GT,37.6930965000,-122.0892394000,19.300949096679688,0.0,0.1,242.64818,1694115280434,,,,
Fix,GT,37.6930965000,-122.0892394000,19.300949096679688,0.0,0.1,242.64822,1694115281434,,,,
Fix,GT,37.6930965000,-122.0892394000,19.300949096679688,0.0,0.1,242.64784,1694115282434,,,,
Fix,GT,37.6930965000,-122.0892394000,19.300949096679688,0.00048328863,0.1,242.64775,1694115283434,,,,
Fix,GT,37.6930965000,-122.0892394000,19.30094852146658,0.0006582632,0.1,242.6477,1694115284434,,,,
Fix,GT,37.6930965000,-122.0892394000,19.300949096679688,0.0027663927,0.1,242.64755,1694115285434,,,,
Fix,GT,37.6930961000,-122.0892404000,19.297948837280273,0.360918,0.1,242.65868,1694115286434,,,,
Fix,GT,37.6930933000,-122.0892473000,19.309632266562176,0.98538727,0.1,242.68857,1694115287434,,,,
Fix,GT,37.6930873000,-122.0892621000,19.32531666146474,2.0797398,0.1,242.78606,1694115288434,,,,
Fix,GT,37.6930765000,-122.0892890000,19.363316768514665,3.2656245,0.1,242.9339,1694115289434,,,,
Fix,GT,37.6930608000,-122.0893283000,19.42436738087349,4.4319553,0.1,243.13382,1694115290434,,,,
Fix,GT,37.6930417000,-122.0893764000,19.50202494691098,5.251461,0.1,243.49557,1694115291434,,,,
Fix,GT,37.6930191000,-122.0894363000,19.634809498892764,6.439947,0.1,244.56857,1694115292434,,,,
Fix,GT,37.6929940000,-122.0895088000,19.810075301897086,7.4137373,0.1,246.76312,1694115293434,,,,
Fix,GT,37.6929689000,-122.0895885000,19.943024933261654,7.898328,0.1,248.37282,1694115294434,,,,
Fix,GT,37.6929408000,-122.0896770000,20.16393491565691,8.902039,0.1,247.98256,1694115295434,,,,
Fix,GT,37.6929058000,-122.0897743000,20.423834912122402,9.984055,0.1,244.54999,1694115296434,,,,
Fix,GT,37.6928632000,-122.0898817000,20.688492752520233,11.275483,0.1,243.28596,1694115297434,,,,
Fix,GT,37.6928162000,-122.0900050000,21.064670565810786,12.842365,0.1,244.72551,1694115298434,,,,
Fix,GT,37.6927640000,-122.0901443000,21.613187039446984,14.299858,0.1,244.08063,1694115299434,,,,
Fix,GT,37.6927016000,-122.0902948000,22.27650542309823,15.628643,0.1,241.45078,1694115300434,,,,
Fix,GT,37.6926301000,-122.0904546000,22.884403753729543,16.62166,0.1,240.01895,1694115301434,,,,
Fix,GT,37.6925527000,-122.0906197000,23.455743723733406,17.16339,0.1,238.92654,1694115302434,,,,
Fix,GT,37.6924718000,-122.0907844000,23.99435192440086,16.871754,0.1,237.67245,1694115303434,,,,
Fix,GT,37.6923906000,-122.0909424000,24.526669827578985,16.28216,0.1,236.25847,1694115304434,,,,
Fix,GT,37.6923076000,-122.0910940000,25.096718560754027,16.317114,0.1,235.25731,1694115305434,,,,
Fix,GT,37.6922228000,-122.0912478000,25.575351997653343,16.72851,0.1,234.89651,1694115306434,,,,
Fix,GT,37.6921340000,-122.0914047000,25.89780856583866,17.25932,0.1,234.43799,1694115307434,,,,
Fix,GT,37.6920420000,-122.0915663000,26.09044273301413,17.78508,0.1,233.9983,1694115308434,,,,
Fix,GT,37.6919461000,-122.0917309000,26.2373160618165,18.211113,0.1,233.53708,1694115309434,,,,
Fix,GT,37.6918473000,-122.0918985000,26.38702438814863,18.584736,0.1,233.2746,1694115310434,,,,
Fix,GT,37.6917464000,-122.0920695000,26.396240823069206,19.028,0.1,233.51903,1694115311434,,,,
Fix,GT,37.6916443000,-122.0922462000,26.137355340459294,19.476091,0.1,234.33923,1694115312434,,,,
Fix,GT,37.6915430000,-122.0924268000,25.76076224036683,19.478355,0.1,235.07994,1694115313434,,,,
Fix,GT,37.6914431000,-122.0926083000,25.067535199028953,19.48381,0.1,235.59193,1694115314434,,,,
Fix,GT,37.6913448000,-122.0927943000,24.106760942689732,20.040367,0.1,236.59589,1694115315434,,,,
Fix,GT,37.6912462000,-122.0929889000,23.470013277864894,20.673092,0.1,238.19241,1694115316434,,,,
Fix,GT,37.6911506000,-122.0931930000,23.24436707212135,21.046915,0.1,240.88972,1694115317434,,,,
Fix,GT,37.6910673000,-122.0934054000,23.522516863444423,20.717878,0.1,246.06256,1694115318434,,,,
Fix,GT,37.6909994000,-122.0936224000,23.664075385402498,20.541351,0.1,250.37354,1694115319434,,,,
Fix,GT,37.6909443000,-122.0938453000,23.781241053142935,20.668983,0.1,254.1794,1694115320434,,,,
Fix,GT,37.6909012000,-122.0940744000,23.78324121034666,20.927921,0.1,258.12164,1694115321434,,,,
Fix,GT,37.6908693000,-122.0943105000,23.629139146310195,21.353256,0.1,261.58994,1694115322434,,,,
Fix,GT,37.6908452000,-122.0945533000,23.28488784196736,21.861897,0.1,263.39124,1694115323434,,,,
Fix,GT,37.6908244000,-122.0948028000,22.84583628949605,22.39602,0.1,264.1603,1694115324434,,,,
Fix,GT,37.6908055000,-122.0950590000,22.305495097034793,22.954876,0.1,264.86252,1694115325434,,,,
Fix,GT,37.6907889000,-122.0953208000,21.731761667301726,23.30082,0.1,265.70645,1694115326434,,,,
Fix,GT,37.6907753000,-122.0955851000,21.11036938638972,23.529129,0.1,266.4909,1694115327434,,,,
Fix,GT,37.6907638000,-122.0958556000,20.46444510829201,24.331707,0.1,267.01935,1694115328434,,,,
Fix,GT,37.6907550000,-122.0961359000,19.969255239680933,25.07459,0.1,267.9919,1694115329434,,,,
Fix,GT,37.6907516000,-122.0964202000,19.706747569873414,25.006992,0.1,270.22778,1694115330434,,,,
Fix,GT,37.6907588000,-122.0967021000,19.52892388992086,24.742666,0.1,273.10114,1694115331434,,,,
Fix,GT,37.6907776000,-122.0969797000,19.42419091279362,24.421265,0.1,276.3577,1694115332434,,,,
Fix,GT,37.6908078000,-122.0972527000,19.36860768943268,24.353645,0.1,279.0475,1694115333434,,,,
Fix,GT,37.6908477000,-122.0975261000,19.377999879330446,24.699411,0.1,281.24207,1694115334434,,,,
Fix,GT,37.6908969000,-122.0978015000,19.41931594531644,25.11681,0.1,283.74683,1694115335434,,,,
Fix,GT,37.6909562000,-122.0980787000,19.45500012162188,25.53794,0.1,286.06097,1694115336434,,,,
Fix,GT,37.6910231000,-122.0983588000,19.479632342736863,26.116472,0.1,286.95663,1694115337434,,,,
Fix,GT,37.6910962000,-122.0986445000,19.492556613742977,26.838703,0.1,288.5302,1694115338434,,,,
Fix,GT,37.6911791000,-122.0989331000,19.500607729522585,27.17788,0.1,291.05545,1694115339434,,,,
Fix,GT,37.6912745000,-122.0992171000,19.459607944634172,27.229136,0.1,294.4672,1694115340434,,,,
Fix,GT,37.6913820000,-122.0994950000,19.330240838327995,27.319572,0.1,297.28476,1694115341434,,,,
Fix,GT,37.6915010000,-122.0997666000,19.188848754323658,27.412569,0.1,300.00616,1694115342434,,,,
Fix,GT,37.6916296000,-122.1000325000,19.08387383862214,27.488106,0.1,302.42102,1694115343434,,,,
Fix,GT,37.6917673000,-122.1002918000,19.001506278305897,27.553265,0.1,304.99817,1694115344434,,,,
Fix,GT,37.6919155000,-122.1005426000,18.889139369112286,27.604816,0.1,308.21228,1694115345434,,,,
Fix,GT,37.6920743000,-122.1007840000,18.72613870353854,27.688807,0.1,310.72177,1694115346434,,,,
Fix,GT,37.6922413000,-122.1010178000,18.551722287740176,27.770798,0.1,313.0159,1694115347434,,,,
Fix,GT,37.6924153000,-122.1012447000,18.335772472197277,27.88361,0.1,314.80084,1694115348434,,,,
Fix,GT,37.6925957000,-122.1014662000,18.133799194164396,28.148464,0.1,316.6196,1694115349434,,,,
Fix,GT,37.6927859000,-122.1016819000,17.93045554856178,28.72696,0.1,319.04474,1694115350434,,,,
Fix,GT,37.6929887000,-122.1018921000,17.710406325848908,29.709883,0.1,322.0017,1694115351434,,,,
Fix,GT,37.6932066000,-122.1020981000,17.538140052209712,30.791706,0.1,323.7266,1694115352434,,,,
Fix,GT,37.6934327000,-122.1023023000,17.363506434862416,30.824142,0.1,324.61447,1694115353434,,,,
Fix,GT,37.6936585000,-122.1025032000,17.14440582320401,30.576712,0.1,324.69785,1694115354434,,,,
Fix,GT,37.6938824000,-122.1027024000,16.918722349402458,30.259905,0.1,324.58496,1694115355434,,,,
Fix,GT,37.6941041000,-122.1028986000,16.690696517426034,29.898474,0.1,324.8151,1694115356434,,,,
Fix,GT,37.6943231000,-122.1030924000,16.431697493385514,29.552217,0.1,324.73923,1694115357434,,,,
Fix,GT,37.6945395000,-122.1032842000,16.16874822146849,29.212784,0.1,324.59564,1694115358434,,,,
Fix,GT,37.6947531000,-122.1034744000,15.991457526374063,28.854904,0.1,324.5958,1694115359434,,,,
Fix,GT,37.6949637000,-122.1036629000,15.771774238580974,28.518297,0.1,324.28766,1694115360434,,,,
Fix,GT,37.6951716000,-122.1038500000,15.59514110211569,28.222975,0.1,324.40833,1694115361434,,,,
Fix,GT,37.6953778000,-122.1040350000,15.459724002194406,28.036152,0.1,324.31204,1694115362434,,,,
Fix,GT,37.6955826000,-122.1042192000,15.253533379507246,27.805706,0.1,324.3101,1694115363434,,,,
Fix,GT,37.6957857000,-122.1044015000,15.043723798717565,27.548462,0.1,324.63574,1694115364434,,,,
Fix,GT,37.6959885000,-122.1045813000,14.804774665497803,27.597416,0.1,324.6661,1694115365434,,,,
Fix,GT,37.6961924000,-122.1047623000,14.61724167984056,27.779785,0.099,324.687,1694115366434,,,,
Fix,GT,37.6963978000,-122.1049445000,14.413065143273627,28.009924,0.1,324.7269,1694115367434,,,,
Fix,GT,37.6966050000,-122.1051282000,14.208065640941129,28.258507,0.1,324.68167,1694115368434,,,,
Fix,GT,37.6968141000,-122.1053138000,13.970116140480371,28.522617,0.1,324.5775,1694115369434,,,,
Fix,GT,37.6970245000,-122.1055020000,13.755065552577236,28.778168,0.1,324.51483,1694115370434,,,,
Fix,GT,37.6972365000,-122.1056911000,13.550115643468416,28.842102,0.1,324.63107,1694115371434,,,,
Fix,GT,37.6974479000,-122.1058790000,13.352115685668423,28.601677,0.1,324.60345,1694115372434,,,,
Fix,GT,37.6976574000,-122.1060657000,13.150798817047985,28.440296,0.1,324.5728,1694115373434,,,,
Fix,GT,37.6978663000,-122.1062520000,12.934166211839965,28.345032,0.1,324.50812,1694115374434,,,,
Fix,GT,37.6980738000,-122.1064370000,12.709039735527199,28.100792,0.1,324.69162,1694115375434,,,,
Fix,GT,37.6982797000,-122.1066195000,12.527115858521483,27.803333,0.1,324.69788,1694115376434,,,,
Fix,GT,37.6984835000,-122.1068006000,12.308065925493679,27.640877,0.1,324.5292,1694115377434,,,,
Fix,GT,37.6986871000,-122.1069823000,12.152166021193068,27.768398,0.1,324.54907,1694115378434,,,,
Fix,GT,37.6988906000,-122.1071643000,12.067583465718144,27.589277,0.1,324.4992,1694115379434,,,,
Fix,GT,37.6990915000,-122.1073452000,12.088343383997938,27.24379,0.1,324.24854,1694115380434,,,,
Fix,GT,37.6992886000,-122.1075257000,12.117925894422541,26.8611,0.1,323.3531,1694115381434,,,,
Fix,GT,37.6994805000,-122.1077087000,11.979457373368746,26.668056,0.1,322.34732,1694115382434,,,,
Fix,GT,37.6996702000,-122.1078968000,11.779116030836263,27.00757,0.1,321.0,1694115383434,,,,
Fix,GT,37.6998591000,-122.1080935000,11.58709037495646,27.390045,0.1,319.7206,1694115384434,,,,
Fix,GT,37.7000467000,-122.1082983000,11.350356421686797,27.735565,0.1,318.35022,1694115385434,,,,
Fix,GT,37.7002319000,-122.1085117000,11.059939206560557,27.954962,0.1,316.5414,1694115386434,,,,
Fix,GT,37.7004128000,-122.1087335000,10.715963925249696,28.123848,0.1,314.9171,1694115387434,,,,
Fix,GT,37.7005899000,-122.1089628000,10.216837549333007,28.248962,0.1,313.4617,1694115388434,,,,
Fix,GT,37.7007634000,-122.1091981000,9.572571939891162,28.372568,0.1,312.08423,1694115389434,,,,
Fix,GT,37.7009325000,-122.1094391000,8.961686367145973,28.316078,0.1,310.63376,1694115390434,,,,
Fix,GT,37.7010953000,-122.1096854000,8.294294711815496,28.1565,0.1,308.85165,1694115391434,,,,
Fix,GT,37.7012524000,-122.1099355000,7.416775614788435,28.167217,0.1,307.81128,1694115392434,,,,
Fix,GT,37.7014090000,-122.1101894000,6.387041226109844,28.539387,0.1,307.68118,1694115393434,,,,
Fix,GT,37.7015677000,-122.1104472000,5.378459146837514,28.950397,0.1,307.60535,1694115394434,,,,
Fix,GT,37.7017283000,-122.1107084000,4.536686031360134,29.301258,0.1,307.66196,1694115395434,,,,
Fix,GT,37.7018909000,-122.1109721000,3.8398375015915462,29.555466,0.1,307.797,1694115396434,,,,
Fix,GT,37.7020544000,-122.1112372000,3.376963789675706,29.60579,0.1,307.583,1694115397434,,,,
Fix,GT,37.7022175000,-122.1115029000,3.127140174427794,29.612131,0.1,307.5716,1694115398434,,,,
Fix,GT,37.7023811000,-122.1117680000,2.9441907152081512,29.629248,0.1,307.84863,1694115399434,,,,
Fix,GT,37.7025458000,-122.1120335000,2.8001655828022933,29.79436,0.1,307.84894,1694115400434,,,,
Fix,GT,37.7027112000,-122.1123013000,2.6294568223508463,30.019865,0.1,307.6117,1694115401434,,,,
Fix,GT,37.7028771000,-122.1125716000,2.444456724572447,30.232014,0.1,307.5592,1694115402434,,,,
Fix,GT,37.7030442000,-122.1128443000,2.246456827924881,30.543869,0.1,307.51254,1694115403434,,,,
Fix,GT,37.7032132000,-122.1131202000,2.058115010671841,30.90022,0.1,307.5292,1694115404434,,,,
Fix,GT,37.7033839000,-122.1133993000,1.8554568036067849,31.177837,0.1,307.39447,1694115405434,,,,
Fix,GT,37.7035553000,-122.1136806000,1.665481981640454,31.340252,0.1,307.31982,1694115406434,,,,
Fix,GT,37.7037273000,-122.1139633000,1.4677985528226216,31.430902,0.1,307.4003,1694115407434,,,,
Fix,GT,37.7039001000,-122.1142462000,1.2641402309926661,31.489433,0.1,307.4522,1694115408434,,,,
Fix,GT,37.7040737000,-122.1145287000,1.1155325433420842,31.507118,0.1,307.78497,1694115409434,,,,
Fix,GT,37.7042480000,-122.1148109000,1.0428994801005729,31.538086,0.1,307.6933,1694115410434,,,,
Fix,GT,37.7044213000,-122.1150929000,0.9404820913710878,31.29282,0.1,307.52545,1694115411434,,,,
Fix,GT,37.7045920000,-122.1153740000,0.6593053096408266,31.174377,0.099,306.97302,1694115412434,,,,
Fix,GT,37.7047596000,-122.1156584000,0.22517912598165424,31.280193,0.1,306.0311,1694115413434,,,,
Fix,GT,37.7049248000,-122.1159467000,-0.31684610909281474,31.330368,0.1,305.35535,1694115414434,,,,
Fix,GT,37.7050865000,-122.1162368000,-0.9683140778198833,31.170803,0.1,304.56976,1694115415434,,,,
Fix,GT,37.7052450000,-122.1165282000,-1.7330481855632698,31.167831,0.1,304.07614,1694115416434,,,,
Fix,GT,37.7054017000,-122.1168225000,-2.5808325446339424,31.332294,0.1,303.28815,1694115417434,,,,
Fix,GT,37.7055557000,-122.1171213000,-3.531857744691166,31.421074,0.1,302.46204,1694115418434,,,,
Fix,GT,37.7057061000,-122.1174225000,-4.4571237522659715,31.315958,0.1,301.6884,1694115419434,,,,
Fix,GT,37.7058533000,-122.1177248000,-5.383098767621448,31.194962,0.1,301.01514,1694115420434,,,,
Fix,GT,37.7059966000,-122.1180281000,-6.314782128070135,31.058323,0.1,300.18832,1694115421434,,,,
Fix,GT,37.7061361000,-122.1183327000,-7.227857962458188,30.93665,0.1,299.64807,1694115422434,,,,
Fix,GT,37.7062729000,-122.1186376000,-8.200540903468095,30.829441,0.1,299.05164,1694115423434,,,,
Fix,GT,37.7064073000,-122.1189434000,-9.254933181902459,30.843443,0.1,298.6146,1694115424434,,,,
Fix,GT,37.7065413000,-122.1192512000,-10.319249627529445,31.054386,0.1,298.56482,1694115425434,,,,
Fix,GT,37.7066766000,-122.1195606000,-11.311148254261582,31.245655,0.1,298.81134,1694115426434,,,,
Fix,GT,37.7068135000,-122.1198713000,-12.297324981858935,31.359673,0.1,298.96536,1694115427434,,,,
Fix,GT,37.7069518000,-122.1201812000,-13.471692175393173,31.31581,0.1,299.4792,1694115428434,,,,
Fix,GT,37.7070952000,-122.1204862000,-14.674008861855896,31.215813,0.1,302.08423,1694115429434,,,,
Fix,GT,37.7072506000,-122.1207804000,-15.684490435078914,31.112694,0.1,304.79626,1694115430434,,,,
Fix,GT,37.7074159000,-122.1210641000,-16.628832401225623,30.9595,0.1,307.6304,1694115431434,,,,
Fix,GT,37.7075921000,-122.1213362000,-17.56049129222515,30.993763,0.1,310.47498,1694115432434,,,,
Fix,GT,37.7077794000,-122.1215974000,-18.35726435822596,31.066082,0.1,313.2507,1694115433434,,,,
Fix,GT,37.7079745000,-122.1218500000,-18.865061894163375,31.060593,0.1,314.5636,1694115434434,,,,
Fix,GT,37.7081717000,-122.1220997000,-19.267403181323516,31.018024,0.1,314.76028,1694115435434,,,,
Fix,GT,37.7083685000,-122.1223491000,-19.60525170960193,30.980288,0.1,314.53946,1694115436434,,,,
Fix,GT,37.7085644000,-122.1225986000,-19.775100379767593,30.872837,0.1,314.57544,1694115437434,,,,
Fix,GT,37.7087596000,-122.1228471000,-19.750948750218186,30.737045,0.1,314.61404,1694115438434,,,,
Fix,GT,37.7089543000,-122.1230940000,-19.666657997785478,30.653877,0.1,314.71246,1694115439434,,,,
Fix,GT,37.7091486000,-122.1233410000,-19.58087477126412,30.647955,0.1,314.52145,1694115440434,,,,
Fix,GT,37.7093426000,-122.1235890000,-19.336139255339617,30.721039,0.1,314.43387,1694115441434,,,,
Fix,GT,37.7095364000,-122.1238381000,-19.004115700583384,30.785717,0.1,314.25507,1694115442434,,,,
Fix,GT,37.7097290000,-122.1240899000,-18.615381028102092,30.818047,0.1,313.217,1694115443434,,,,
Fix,GT,37.7099164000,-122.1243471000,-18.169304359811235,30.72055,0.1,311.7692,1694115444434,,,,
Fix,GT,37.7100972000,-122.1246099000,-17.62457184582081,30.591164,0.1,309.77127,1694115445434,,,,
Fix,GT,37.7102701000,-122.1248792000,-17.092279370399638,30.448977,0.1,307.9581,1694115446434,,,,
Fix,GT,37.7104353000,-122.1251541000,-16.563621600508895,30.354984,0.1,306.2276,1694115447434,,,,
Fix,GT,37.7105943000,-122.1254340000,-16.019304973416183,30.330061,0.1,304.65906,1694115448434,,,,
Fix,GT,37.7107468000,-122.1257194000,-15.59440526574636,30.321297,0.1,303.1418,1694115449434,,,,
Fix,GT,37.7108945000,-122.1260088000,-15.232962209368452,30.287313,0.1,302.2135,1694115450434,,,,
Fix,GT,37.7110401000,-122.1262978000,-14.58865971904396,30.038643,0.1,302.2781,1694115451434,,,,
Fix,GT,37.7111840000,-122.1265823000,-13.563482580379969,29.40292,0.1,302.43036,1694115452434,,,,
Fix,GT,37.7113251000,-122.1268599000,-12.550583398041198,28.721956,0.1,302.38834,1694115453434,,,,
Fix,GT,37.7114631000,-122.1271326000,-11.642342541437756,28.337315,0.1,302.36588,1694115454434,,,,
Fix,GT,37.7115996000,-122.1274021000,-10.845444207900414,28.043371,0.1,302.49075,1694115455434,,,,
Fix,GT,37.7117364000,-122.1276681000,-10.304696541896192,27.848099,0.1,303.0052,1694115456434,,,,
Fix,GT,37.7118755000,-122.1279303000,-9.873987570176553,27.762676,0.1,304.39734,1694115457434,,,,
Fix,GT,37.7120201000,-122.1281869000,-9.392329118435185,27.759697,0.1,305.94095,1694115458434,,,,
Fix,GT,37.7121709000,-122.1284382000,-8.959696536056441,27.783478,0.1,307.9925,1694115459434,,,,
Fix,GT,37.7123290000,-122.1286826000,-8.533987964345044,27.836868,0.1,309.97443,1694115460434,,,,
Fix,GT,37.7124934000,-122.1289218000,-8.112380136175034,27.974777,0.1,311.49814,1694115461434,,,,
Fix,GT,37.7126648000,-122.1291563000,-7.743797691646293,28.247936,0.1,313.37387,1694115462434,,,,
Fix,GT,37.7128436000,-122.1293866000,-7.45416445760543,28.54619,0.1,315.13867,1694115463434,,,,
Fix,GT,37.7130302000,-122.1296114000,-7.236265640972363,28.8078,0.1,317.04404,1694115464434,,,,
Fix,GT,37.7132243000,-122.1298304000,-7.1332908782515005,29.07776,0.1,318.98486,1694115465434,,,,
Fix,GT,37.7134259000,-122.1300435000,-7.063657620874025,29.376127,0.099,320.69092,1694115466434,,,,
Fix,GT,37.7136347000,-122.1302506000,-6.986973962162736,29.647964,0.1,322.62524,1694115467434,,,,
Fix,GT,37.7138506000,-122.1304511000,-6.906341076631506,29.913109,0.1,324.32492,1694115468434,,,,
Fix,GT,37.7140727000,-122.1306443000,-6.829974213725194,29.960646,0.1,326.29913,1694115469434,,,,
Fix,GT,37.7142992000,-122.1308258000,-6.752949031997844,29.647972,0.1,328.49048,1694115470434,,,,
Fix,GT,37.7145278000,-122.1309952000,-6.682341103811169,29.24108,0.1,330.32465,1694115471434,,,,
Fix,GT,37.7147575000,-122.1311528000,-6.608366663762638,28.86819,0.1,332.2625,1694115472434,,,,
Fix,GT,37.7149896000,-122.1312998000,-6.550024656575033,28.850952,0.1,333.92682,1694115473434,,,,
Fix,GT,37.7152245000,-122.1314381000,-6.48634120159403,28.66364,0.1,335.80374,1694115474434,,,,
Fix,GT,37.7154601000,-122.1315658000,-6.374923832507534,28.28129,0.1,337.2523,1694115475434,,,,
Fix,GT,37.7156945000,-122.1316853000,-6.182682838812468,27.87416,0.1,338.47128,1694115476434,,,,
Fix,GT,37.7159273000,-122.1317992000,-6.28966939298445,27.567596,0.1,338.68607,1694115477434,,,,
Fix,GT,37.7161580000,-122.1319113000,-6.575809391126057,27.322945,0.1,338.83655,1694115478434,,,,
Fix,GT,37.7163867000,-122.1320221000,-6.861201417043802,27.100445,0.1,338.72824,1694115479434,,,,
Fix,GT,37.7166144000,-122.1321326000,-7.108201152429004,27.088362,0.1,338.7949,1694115480434,,,,
Fix,GT,37.7168419000,-122.1322435000,-7.196973973666829,27.047653,0.1,338.6269,1694115481434,,,,
Fix,GT,37.7170686000,-122.1323548000,-7.097924077245324,26.95203,0.1,338.5052,1694115482434,,,,
Fix,GT,37.7172942000,-122.1324658000,-6.910948795037925,26.842283,0.1,338.49136,1694115483434,,,,
Fix,GT,37.7175190000,-122.1325766000,-6.736582076971985,26.728357,0.1,338.4612,1694115484434,,,,
Fix,GT,37.7177422000,-122.1326866000,-6.481772538767402,26.417799,0.1,338.5668,1694115485434,,,,
Fix,GT,37.7179620000,-122.1327946000,-6.060621012299805,25.929077,0.1,338.6155,1694115486434,,,,
Fix,GT,37.7181778000,-122.1329018000,-5.527620997964874,25.655916,0.1,338.25705,1694115487434,,,,
Fix,GT,37.7183918000,-122.1330102000,-5.023696553221555,25.554237,0.1,337.6915,1694115488434,,,,
Fix,GT,37.7186042000,-122.1331210000,-4.575696598997922,25.487852,0.1,337.17572,1694115489434,,,,
Fix,GT,37.7188153000,-122.1332343000,-4.153354939366693,25.456722,0.1,336.55066,1694115490434,,,,
Fix,GT,37.7190259000,-122.1333505000,-3.681329673507989,25.644436,0.1,336.0098,1694115491434,,,,
Fix,GT,37.7192385000,-122.1334706000,-3.299405448945862,26.104473,0.1,335.57315,1694115492434,,,,
Fix,GT,37.7194539000,-122.1335950000,-3.001506258737976,26.49484,0.1,334.9403,1694115493434,,,,
Fix,GT,37.7196712000,-122.1337247000,-2.7658985859288236,26.8888,0.1,334.21042,1694115494434,,,,
Fix,GT,37.7198906000,-122.1338598000,-2.6279743322200346,27.315733,0.1,333.57483,1694115495434,,,,
Fix,GT,37.7201111000,-122.1339989000,-2.5743917569776613,27.304935,0.1,332.9953,1694115496434,,,,
Fix,GT,37.7203286000,-122.1341402000,-2.624467622358793,27.01572,0.1,332.24457,1694115497434,,,,
Fix,GT,37.7205422000,-122.1342832000,-2.784859858652567,26.699371,0.1,331.65283,1694115498434,,,,
Fix,GT,37.7207524000,-122.1344272000,-3.0239608771236774,26.405136,0.1,331.06815,1694115499434,,,,
Fix,GT,37.7209592000,-122.1345722000,-3.345011405715084,26.149754,0.1,330.5553,1694115500434,,,,
Fix,GT,37.7211628000,-122.1347190000,-3.7601123834746204,25.93226,0.1,329.66272,1694115501434,,,,
Fix,GT,37.7213631000,-122.1348684000,-4.258846342401924,25.750555,0.1,328.98602,1694115502434,,,,
Fix,GT,37.7215614000,-122.1350187000,-4.881339498041115,25.621883,0.1,328.8063,1694115503434,,,,
Fix,GT,37.7217582000,-122.1351696000,-5.624339528558693,25.537441,0.1,328.3496,1694115504434,,,,
Fix,GT,37.7219539000,-122.1353207000,-6.377681003622783,25.426186,0.1,328.4712,1694115505434,,,,
Fix,GT,37.7221497000,-122.1354717000,-7.10926352691979,25.645266,0.099,328.34933,1694115506434,,,,
Fix,GT,37.7223483000,-122.1356250000,-7.646403247184693,26.0433,0.1,328.3701,1694115507434,,,,
Fix,GT,37.7225480000,-122.1357793000,-7.940201460467392,25.900679,0.1,328.39804,1694115508434,,,,
Fix,GT,37.7227458000,-122.1359327000,-8.045074601191004,25.732231,0.1,328.11472,1694115509434,,,,
Fix,GT,37.7229436000,-122.1360867000,-7.998340727705582,25.908985,0.1,328.27078,1694115510434,,,,
Fix,GT,37.7231435000,-122.1362411000,-7.97141747216908,26.149687,0.1,328.444,1694115511434,,,,
Fix,GT,37.7233459000,-122.1363959000,-7.97873344247877,26.429697,0.1,328.71512,1694115512434,,,,
Fix,GT,37.7235510000,-122.1365516000,-8.084833746375068,26.75818,0.1,328.77173,1694115513434,,,,
Fix,GT,37.7237595000,-122.1367070000,-8.17439126523908,26.957336,0.1,330.08447,1694115514434,,,,
Fix,GT,37.7239717000,-122.1368524000,-8.006455431436322,26.628122,0.1,332.36462,1694115515434,,,,
Fix,GT,37.7241857000,-122.1369858000,-7.631696789495905,26.499756,0.1,334.53775,1694115516434,,,,
Fix,GT,37.7244034000,-122.1371093000,-7.100861937239387,26.515514,0.1,336.6962,1694115517434,,,,
Fix,GT,37.7246246000,-122.1372221000,-6.388343246593095,26.462723,0.1,338.8694,1694115518434,,,,
Fix,GT,37.7248484000,-122.1373240000,-5.569735672608758,26.38522,0.1,340.9749,1694115519434,,,,
Fix,GT,37.7250743000,-122.1374155000,-4.771051727823732,26.293228,0.1,342.9637,1694115520434,,,,
Fix,GT,37.7253018000,-122.1374971000,-4.009785748620573,26.241215,0.1,344.97177,1694115521434,,,,
Fix,GT,37.7255313000,-122.1375675000,-3.3301780416563673,26.21905,0.1,347.34363,1694115522434,,,,
Fix,GT,37.7257627000,-122.1376266000,-2.7419120231156313,26.209267,0.1,349.3743,1694115523434,,,,
Fix,GT,37.7259957000,-122.1376753000,-2.211570252141378,26.236244,0.1,351.24835,1694115524434,,,,
Fix,GT,37.7262298000,-122.1377166000,-1.612228587387193,26.23381,0.1,352.56406,1694115525434,,,,
Fix,GT,37.7264645000,-122.1377525000,-1.1374305420703479,26.274239,0.1,353.21024,1694115526434,,,,
Fix,GT,37.7267001000,-122.1377877000,-0.8310886965605473,26.370024,0.1,352.98337,1694115527434,,,,
Fix,GT,37.7269361000,-122.1378237000,-0.38762073638695504,26.37064,0.1,352.9967,1694115528434,,,,
Fix,GT,37.7271714000,-122.1378593000,0.16784723475986674,26.249966,0.1,353.1935,1694115529434,,,,
Fix,GT,37.7274056000,-122.1378941000,0.8655811885550513,26.084457,0.1,353.03455,1694115530434,,,,
Fix,GT,37.7276381000,-122.1379297000,1.5304549753021917,25.841389,0.1,352.9215,1694115531434,,,,
Fix,GT,37.7278675000,-122.1379662000,2.0753540389067453,25.563227,0.1,352.62292,1694115532434,,,,
Fix,GT,37.7280956000,-122.1380045000,2.482619946408569,25.556076,0.1,351.9937,1694115533434,,,,
Fix,GT,37.7283246000,-122.1380463000,2.75846830558951,25.831102,0.099,351.34454,1694115534434,,,,
Fix,GT,37.7285557000,-122.1380917000,2.9173674664092033,26.099535,0.1,350.7129,1694115535434,,,,
Fix,GT,37.7287890000,-122.1381413000,2.98355775129653,26.413437,0.1,349.8748,1694115536434,,,,
Fix,GT,37.7290223000,-122.1381963000,2.9515072612991275,26.213745,0.1,348.8584,1694115537434,,,,
Fix,GT,37.7292524000,-122.1382551000,2.8658491079682378,25.873852,0.1,348.192,1694115538434,,,,
Fix,GT,37.7294791000,-122.1383156000,2.641355733280399,25.55206,0.1,347.7402,1694115539434,,,,
Fix,GT,37.7297026000,-122.1383773000,2.3685324809345616,25.27084,0.1,347.4346,1694115540434,,,,
Fix,GT,37.7299235000,-122.1384396000,2.174507376990256,24.966045,0.1,347.2118,1694115541434,,,,
Fix,GT,37.7301416000,-122.1385008000,1.9965073983883244,24.65835,0.1,347.31454,1694115542434,,,,
Fix,GT,37.7303582000,-122.1385620000,1.9348995092441257,24.631824,0.1,347.16504,1694115543434,,,,
Fix,GT,37.7305748000,-122.1386233000,1.936227667586948,24.657791,0.099,347.24808,1694115544434,,,,
Fix,GT,37.7307918000,-122.1386849000,1.916949987411499,24.731728,0.1,347.0359,1694115545434,,,,
Fix,GT,37.7310094000,-122.1387479000,1.8630257033951239,24.803715,0.099,346.84448,1694115546434,,,,
Fix,GT,37.7312271000,-122.1388113000,1.872000627909138,24.750504,0.1,346.95612,1694115547434,,,,
Fix,GT,37.7314431000,-122.1388731000,1.8060005333195406,24.418316,0.1,347.19183,1694115548434,,,,
Fix,GT,37.7316561000,-122.1389333000,1.7895831296889355,24.066164,0.1,347.21805,1694115549434,,,,
Fix,GT,37.7318663000,-122.1389925000,1.7589246122377489,23.732872,0.1,347.31903,1694115550434,,,,
Fix,GT,37.7320740000,-122.1390510000,1.7305323489132576,23.6314,0.1,347.19598,1694115551434,,,,
Fix,GT,37.7322835000,-122.1391094000,1.7012411597290367,24.013166,0.1,347.4753,1694115552434,,,,
Fix,GT,37.7324965000,-122.1391673000,1.6719247216420712,24.344713,0.1,347.90314,1694115553434,,,,
Fix,GT,37.7327128000,-122.1392239000,1.64226652539584,24.658936,0.1,348.3301,1694115554434,,,,
Fix,GT,37.7329308000,-122.1392789000,1.6162665025076564,24.70393,0.1,348.78632,1694115555434,,,,
Fix,GT,37.7331495000,-122.1393317000,1.578924836081498,24.72818,0.1,349.19995,1694115556434,,,,
Fix,GT,37.7333688000,-122.1393829000,1.5528994360526056,24.796982,0.099,349.5595,1694115557434,,,,
Fix,GT,37.7335890000,-122.1394328000,1.5112412789354224,24.848545,0.1,349.67206,1694115558434,,,,
Fix,GT,37.7338095000,-122.1394831000,1.4765830741670953,24.903217,0.1,349.58804,1694115559434,,,,
Fix,GT,37.7340294000,-122.1395336000,1.473658764312205,24.699863,0.1,349.4567,1694115560434,,,,
Fix,GT,37.7342479000,-122.1395836000,1.5694181280068946,24.618912,0.1,349.63077,1694115561434,,,,
Fix,GT,37.7344662000,-122.1396329000,1.7878859226599104,24.621304,0.1,349.78275,1694115562434,,,,
Fix,GT,37.7346848000,-122.1396819000,2.1364684838044496,24.688488,0.1,349.66907,1694115563434,,,,
Fix,GT,37.7349041000,-122.1397323000,2.412519027477174,24.786705,0.1,349.52396,1694115564434,,,,
Fix,GT,37.7351245000,-122.1397825000,2.7415947830667022,24.94289,0.1,349.63522,1694115565434,,,,
Fix,GT,37.7353465000,-122.1398333000,3.184695712636014,25.137142,0.1,349.5134,1694115566434,,,,
Fix,GT,37.7355698000,-122.1398854000,3.7174046766639677,25.268158,0.1,349.46933,1694115567434,,,,
Fix,GT,37.7357941000,-122.1399379000,4.230037683820427,25.37045,0.1,349.24997,1694115568434,,,,
Fix,GT,37.7360187000,-122.1399925000,4.7527211445847115,25.40219,0.1,348.89627,1694115569434,,,,
Fix,GT,37.7362429000,-122.1400520000,5.2636960498772964,25.45184,0.1,346.91092,1694115570434,,,,
Fix,GT,37.7364654000,-122.1401235000,5.692911415703065,25.511536,0.1,344.47424,1694115571434,,,,
Fix,GT,37.7366858000,-122.1402077000,6.023544293009991,25.63084,0.1,341.74307,1694115572434,,,,
Fix,GT,37.7369036000,-122.1403063000,6.346202525673306,25.729412,0.1,338.6717,1694115573434,,,,
Fix,GT,37.7371177000,-122.1404197000,6.657860719921942,25.824432,0.1,335.78784,1694115574434,,,,
Fix,GT,37.7373286000,-122.1405452000,6.908518915928383,25.953665,0.099,333.62094,1694115575434,,,,
Fix,GT,37.7375362000,-122.1406827000,7.126848916459835,26.073505,0.1,330.86832,1694115576434,,,,
Fix,GT,37.7377387000,-122.1408338000,7.1703169923850965,26.177155,0.1,327.8618,1694115577434,,,,
Fix,GT,37.7379357000,-122.1409984000,7.1358991993326555,26.308136,0.1,325.10114,1694115578434,,,,
Fix,GT,37.7381277000,-122.1411752000,7.028823811709984,26.482533,0.1,322.72043,1694115579434,,,,
Fix,GT,37.7383145000,-122.1413639000,6.828064030128232,26.639435,0.1,319.74353,1694115580434,,,,
Fix,GT,37.7384936000,-122.1415641000,6.455520322262416,26.52433,0.1,316.99567,1694115581434,,,,
Fix,GT,37.7386650000,-122.1417729000,5.9121783823107705,26.384624,0.1,315.1089,1694115582434,,,,
Fix,GT,37.7388329000,-122.1419838000,5.262368771565377,26.279316,0.1,314.95718,1694115583434,,,,
Fix,GT,37.7389998000,-122.1421947000,4.535609675849258,26.23896,0.1,314.89154,1694115584434,,,,
Fix,GT,37.7391694000,-122.1424050000,3.699900898711519,26.698402,0.1,316.01205,1694115585434,,,,
Fix,GT,37.7393471000,-122.1426164000,2.7384073707525687,27.674316,0.1,316.88696,1694115586434,,,,
Fix,GT,37.7395310000,-122.1428313000,1.7006987080824914,27.906094,0.1,317.0334,1694115587434,,,,
Fix,GT,37.7397159000,-122.1430461000,0.6113569193186663,27.93084,0.1,317.2816,1694115588434,,,,
Fix,GT,37.7399021000,-122.1432592000,-0.49161779418310836,27.938046,0.1,317.72537,1694115589434,,,,
Fix,GT,37.7400909000,-122.1434687000,-1.5572760624458581,27.90934,0.1,319.31604,1694115590434,,,,
Fix,GT,37.7402853000,-122.1436686000,-2.318656322126479,27.802534,0.1,322.02756,1694115591434,,,,
Fix,GT,37.7404866000,-122.1438546000,-2.8904291950149883,27.621178,0.1,324.96194,1694115592434,,,,
Fix,GT,37.7406919000,-122.1440289000,-3.127733530779132,27.324482,0.099,326.765,1694115593434,,,,
Fix,GT,37.7408990000,-122.1441922000,-3.0896073318351966,26.946709,0.1,328.6138,1694115594434,,,,
Fix,GT,37.7411059000,-122.1443478000,-2.9028226807634,26.533878,0.1,329.32666,1694115595434,,,,
Fix,GT,37.7413108000,-122.1444998000,-2.5891138863099386,26.32126,0.1,329.3453,1694115596434,,,,
Fix,GT,37.7415148000,-122.1446519000,-2.2517720911350807,26.305885,0.1,329.30746,1694115597434,,,,
Fix,GT,37.7417187000,-122.1448038000,-1.9104050750728447,26.286678,0.1,329.3884,1694115598434,,,,
Fix,GT,37.7419232000,-122.1449564000,-1.56040500468157,26.598125,0.1,329.04233,1694115599434,,,,
Fix,GT,37.7421299000,-122.1451146000,-1.2221137897754986,27.048183,0.1,328.31253,1694115600434,,,,
Fix,GT,37.7423376000,-122.1452798000,-0.8951895622649033,27.483837,0.1,326.78467,1694115601434,,,,
Fix,GT,37.7425413000,-122.1454557000,-0.649873035485518,27.239742,0.1,324.38892,1694115602434,,,,
Fix,GT,37.7427371000,-122.1456385000,-0.5049236374823511,26.918415,0.1,322.30164,1694115603434,,,,
Fix,GT,37.7429256000,-122.1458308000,-0.3682906571046338,26.994507,0.1,319.57617,1694115604434,,,,
Fix,GT,37.7431077000,-122.1460358000,-0.16079721759320265,27.206718,0.1,316.88077,1694115605434,,,,
Fix,GT,37.7432834000,-122.1462526000,0.18925333995815308,27.37545,0.1,314.2454,1694115606434,,,,
Fix,GT,37.7434529000,-122.1464793000,0.5283038888822968,27.485142,0.099,312.3577,1694115607434,,,,
Fix,GT,37.7436180000,-122.1467110000,0.9754303006610598,27.2911,0.1,311.41937,1694115608434,,,,
Fix,GT,37.7437798000,-122.1469402000,1.570240241762832,26.767181,0.1,311.86768,1694115609434,,,,
Fix,GT,37.7439395000,-122.1471633000,2.2875567184155443,26.1623,0.1,311.84665,1694115610434,,,,
Fix,GT,37.7440958000,-122.1473807000,3.0468985346274167,25.551878,0.1,312.0492,1694115611434,,,,
Fix,GT,37.7442492000,-122.1475924000,3.774898473294229,24.977938,0.1,312.4339,1694115612434,,,,
Fix,GT,37.7444023000,-122.1477975000,4.5346325153090845,24.656147,0.1,313.83386,1694115613434,,,,
Fix,GT,37.7445593000,-122.1479927000,5.389999893409154,24.343319,0.1,316.3184,1694115614434,,,,
Fix,GT,37.7447206000,-122.1481783000,6.223607582520515,24.167091,0.1,318.40634,1694115615434,,,,
Fix,GT,37.7448870000,-122.1483547000,6.96921506867389,24.24342,0.1,320.90262,1694115616434,,,,
Fix,GT,37.7450613000,-122.1485239000,7.63845589583417,24.629986,0.1,323.28143,1694115617434,,,,
Fix,GT,37.7452443000,-122.1486862000,8.19584800231604,25.075129,0.1,325.94748,1694115618434,,,,
Fix,GT,37.7454358000,-122.1488414000,8.783013686017085,25.403997,0.1,328.17023,1694115619434,,,,
Fix,GT,37.7456320000,-122.1489857000,9.220620688275801,25.01989,0.1,330.7757,1694115620434,,,,
Fix,GT,37.7458296000,-122.1491163000,9.582886562463216,24.540234,0.1,333.3351,1694115621434,,,,
Fix,GT,37.7460290000,-122.1492353000,9.852152651453366,24.540741,0.1,335.49017,1694115622434,,,,
Fix,GT,37.7462326000,-122.1493463000,10.213696631809341,24.69131,0.1,337.27557,1694115623434,,,,
Fix,GT,37.7464395000,-122.1494507000,10.723696869915301,24.802202,0.1,338.61514,1694115624434,,,,
Fix,GT,37.7466490000,-122.1495516000,11.03510265631482,25.000038,0.1,338.87695,1694115625434,,,,
Fix,GT,37.7468600000,-122.1496544000,11.157051821689578,25.232178,0.1,338.56497,1694115626434,,,,
Fix,GT,37.7470728000,-122.1497586000,11.282051828275911,25.4413,0.1,338.60776,1694115627434,,,,
Fix,GT,37.7472874000,-122.1498636000,11.416443467601908,25.653076,0.1,338.7035,1694115628434,,,,
Fix,GT,37.7475024000,-122.1499681000,11.624494930099132,25.445528,0.1,338.717,1694115629434,,,,
Fix,GT,37.7477158000,-122.1500722000,11.912204062632696,25.376453,0.1,338.65067,1694115630434,,,,
Fix,GT,37.7479292000,-122.1501766000,12.273962830815151,25.502707,0.1,338.666,1694115631434,,,,
Fix,GT,37.7481441000,-122.1502816000,12.727063788236137,25.659077,0.1,338.6495,1694115632434,,,,
Fix,GT,37.7483604000,-122.1503869000,13.272746969781394,25.81398,0.1,338.7887,1694115633434,,,,
Fix,GT,37.7485776000,-122.1504924000,13.89087391426682,25.820604,0.1,338.7231,1694115634434,,,,
Fix,GT,37.7487927000,-122.1505974000,14.594557487919701,25.327522,0.1,338.7596,1694115635434,,,,
Fix,GT,37.7490030000,-122.1506999000,15.312215554071969,24.717335,0.1,338.71127,1694115636434,,,,
Fix,GT,37.7492091000,-122.1508005000,15.992532769254069,24.460135,0.1,338.5628,1694115637434,,,,
Fix,GT,37.7494141000,-122.1509016000,16.68584748115154,24.42049,0.1,338.4968,1694115638434,,,,
Fix,GT,37.7496190000,-122.1510021000,17.37919038567452,24.390247,0.1,338.52036,1694115639434,,,,
Fix,GT,37.7498233000,-122.1511028000,18.036138956570085,24.263409,0.1,338.47,1694115640434,,,,
Fix,GT,37.7500255000,-122.1512013000,18.507594429743733,23.854473,0.1,338.94562,1694115641434,,,,
Fix,GT,37.7502250000,-122.1512949000,18.843886338636537,23.398691,0.1,339.71744,1694115642434,,,,
Fix,GT,37.7504218000,-122.1513825000,19.15091161776172,22.929369,0.099,341.09552,1694115643434,,,,
Fix,GT,37.7506172000,-122.1514567000,19.59335508470781,22.405552,0.1,345.25952,1694115644434,,,,
Fix,GT,37.7508121000,-122.1515090000,20.05464523293631,21.879318,0.1,349.86752,1694115645434,,,,
Fix,GT,37.7510051000,-122.1515434000,20.44922818797511,21.41417,0.1,353.43414,1694115646434,,,,
Fix,GT,37.7511952000,-122.1515641000,20.760177776146065,20.97009,0.1,355.84924,1694115647434,,,,
Fix,GT,37.7513819000,-122.1515763000,21.040227801081073,20.537668,0.1,357.64145,1694115648434,,,,
Fix,GT,37.7515650000,-122.1515810000,21.31720293922342,20.12663,0.1,359.37726,1694115649434,,,,
Fix,GT,37.7517442000,-122.1515769000,21.538810232111757,19.6622,0.1,2.0118294,1694115650434,,,,
Fix,GT,37.7519189000,-122.1515630000,21.73334242963722,19.227224,0.1,4.7320085,1694115651434,,,,
Fix,GT,37.7520892000,-122.1515388000,21.86820355442279,18.844772,0.1,7.060261,1694115652434,,,,
Fix,GT,37.7522558000,-122.1515082000,21.885215675873667,18.542957,0.1,8.977895,1694115653434,,,,
Fix,GT,37.7524176000,-122.1514706000,21.666253609955902,17.838306,0.1,11.488574,1694115654434,,,,
Fix,GT,37.7525687000,-122.1514259000,21.302544268835845,16.638302,0.1,14.251866,1694115655434,,,,
Fix,GT,37.7527059000,-122.1513762000,20.79444293631741,15.02153,0.1,16.999216,1694115656434,,,,
Fix,GT,37.7528252000,-122.1513249000,20.200126776381694,12.715946,0.1,19.608725,1694115657434,,,,
Fix,GT,37.7529201000,-122.1512782000,19.63986101376895,9.9519,0.1,22.002981,1694115658434,,,,
Fix,GT,37.7529913000,-122.1512384000,19.12491161327125,7.496642,0.1,24.339718,1694115659434,,,,
Fix,GT,37.7530448000,-122.1512059000,18.684279159926064,5.848525,0.1,25.799835,1694115660434,,,,
Fix,GT,37.7530869000,-122.1511791000,18.32167052281534,4.742006,0.1,26.786627,1694115661434,,,,
Fix,GT,37.7531249000,-122.1511541000,17.992012179990525,4.9611416,0.1,27.445019,1694115662434,,,,
Fix,GT,37.7531669000,-122.1511260000,17.647329141610157,5.7689495,0.1,27.948761,1694115663434,,,,
Fix,GT,37.7532151000,-122.1510924000,17.330379055973935,6.3179374,0.1,29.255922,1694115664434,,,,
Fix,GT,37.7532646000,-122.1510560000,17.108821925537654,6.3900294,0.099,30.402002,1694115665434,,,,
Fix,GT,37.7533142000,-122.1510181000,16.976874232607145,6.5250387,0.1,31.324244,1694115666434,,,,
Fix,GT,37.7533659000,-122.1509794000,16.979290830729383,6.7744884,0.1,29.894331,1694115667434,,,,
Fix,GT,37.7534219000,-122.1509509000,17.066000404405486,6.5238113,0.1,18.792706,1694115668434,,,,
Fix,GT,37.7534791000,-122.1509418000,17.099924830651275,6.2581224,0.1,3.6930933,1694115669434,,,,
Fix,GT,37.7535339000,-122.1509543000,17.097631938679,6.050536,0.099,345.25522,1694115670434,,,,
Fix,GT,37.7535814000,-122.1509901000,17.05089908308969,6.3469143,0.1,325.42966,1694115671434,,,,
Fix,GT,37.7536230000,-122.1510468000,16.99082187886802,7.239005,0.1,309.74405,1694115672434,,,,
Fix,GT,37.7536624000,-122.1511189000,16.857848274612024,8.112278,0.1,303.6875,1694115673434,,,,
Fix,GT,37.7537046000,-122.1511994000,16.760164979456476,8.850924,0.1,303.44394,1694115674434,,,,
Fix,GT,37.7537508000,-122.1512856000,16.626113690656325,9.391319,0.1,303.94803,1694115675434,,,,
Fix,GT,37.7537985000,-122.1513736000,16.48842948399681,9.352516,0.1,304.1519,1694115676434,,,,
Fix,GT,37.7538440000,-122.1514627000,16.374507371852303,9.291392,0.1,301.01135,1694115677434,,,,
Fix,GT,37.7538819000,-122.1515564000,16.254848282764783,9.232592,0.1,295.60223,1694115678434,,,,
Fix,GT,37.7539178000,-122.1516480000,16.15160859745788,8.587881,0.1,297.06152,1694115679434,,,,
Fix,GT,37.7539533000,-122.1517254000,16.05058345546672,7.112978,0.1,300.89453,1694115680434,,,,
Fix,GT,37.7539836000,-122.1517835000,15.972874805668567,5.013999,0.1,303.5293,1694115681434,,,,
Fix,GT,37.7540030000,-122.1518191000,15.933216280268653,2.6387336,0.1,304.11517,1694115682434,,,,
Fix,GT,37.7540123000,-122.1518364000,15.888925339674756,1.1903694,0.1,304.12186,1694115683434,,,,
Fix,GT,37.7540150000,-122.1518415000,15.878266619157557,0.049394317,0.1,304.0392,1694115684434,,,,
Fix,GT,37.7540150000,-122.1518414000,15.874950408935547,0.001,0.1,304.04404,1694115685434,,,,
Fix,GT,37.7540150000,-122.1518414000,15.874950882045937,0.001422457,0.1,304.04114,1694115686434,,,,
Fix,GT,37.7540150000,-122.1518414000,15.866950507967175,0.00034177487,0.1,304.04016,1694115687434,,,,
Fix,GT,37.7540150000,-122.1518414000,15.864950180053711,0.00034177484,0.1,304.04034,1694115688434,,,,
Fix,GT,37.7540150000,-122.1518414000,15.863951202152691,0.0,0.1,304.04047,1694115689434,,,,
Fix,GT,37.7540150000,-122.1518414000,15.863950729370117,0.0,0.1,304.0404,1694115690434,,,,
Fix,GT,37.7540150000,-122.1518414000,15.86460859309409,0.0006582253,0.1,304.0403,1694115691434,,,,
Fix,GT,37.7540150000,-122.1518414000,15.863950729370117,0.0,0.1,304.04022,1694115692434,,,,
Fix,GT,37.7540150000,-122.1518414000,15.863950729370117,0.001,0.1,304.04013,1694115693434,,,,
Fix,GT,37.7540150000,-122.1518413000,15.863950729370117,0.001,0.1,304.04016,1694115694434,,,,
Fix,GT,37.7540152000,-122.1518418000,15.855266855668788,0.24642342,0.1,304.0358,1694115695434,,,,
Fix,GT,37.7540199000,-122.1518505000,15.826925536457992,1.8626708,0.1,303.9263,1694115696434,,,,
Fix,GT,37.7540339000,-122.1518769000,15.782583479761854,3.7032232,0.1,303.83286,1694115697434,,,,
Fix,GT,37.7540560000,-122.1519205000,15.703874274264876,5.3842354,0.1,301.8359,1694115698434,,,,
Fix,GT,37.7540788000,-122.1519854000,15.575482083366865,7.0004215,0.1,290.93906,1694115699434,,,,
Fix,GT,37.7540866000,-122.1520706000,15.481216748855275,7.94416,0.1,270.45654,1694115700434,,,,
Fix,GT,37.7540678000,-122.1521626000,15.5708112057589,8.802772,0.1,251.15823,1694115701434,,,,
Fix,GT,37.7540304000,-122.1522595000,15.820494932689598,10.1580715,0.1,240.94003,1694115702434,,,,
Fix,GT,37.7539785000,-122.1523622000,16.285873697406714,11.278908,0.1,236.26428,1694115703434,,,,
Fix,GT,37.7539150000,-122.1524691000,17.061025792480677,12.217852,0.1,230.03006,1694115704434,,,,
Fix,GT,37.7538329000,-122.1525659000,18.00049332266849,12.438601,0.1,220.0196,1694115705434,,,,
Fix,GT,37.7537470000,-122.1526507000,18.877557148892834,11.673515,0.1,216.98347,1694115706434,,,,
Fix,GT,37.7536677000,-122.1527212000,19.711974366053255,9.707289,0.1,213.74953,1694115707434,,,,
Fix,GT,37.7535994000,-122.1527735000,20.399190231614966,8.067725,0.1,210.38141,1694115708434,,,,
Fix,GT,37.7535418000,-122.1528137000,20.967063760976657,6.5667315,0.1,208.35675,1694115709434,,,,
Fix,GT,37.7534943000,-122.1528452000,21.533380666003552,5.3847284,0.1,207.46829,1694115710434,,,,
Fix,GT,37.7534548000,-122.1528706000,21.988645550623914,4.731828,0.1,206.54724,1694115711434,,,,
Fix,GT,37.7534166000,-122.1528931000,22.449886280396186,4.3857784,0.1,204.12257,1694115712434,,,,
Fix,GT,37.7533832000,-122.1529075000,22.833228625902393,3.411265,0.1,197.77559,1694115713434,,,,
Fix,GT,37.7533559000,-122.1529100000,23.100784614743247,2.7094963,0.1,185.24956,1694115714434,,,,
Fix,GT,37.7533267000,-122.1529001000,23.338936950113634,4.182711,0.1,167.10497,1694115715434,,,,
Fix,GT,37.7532868000,-122.1528664000,23.637051552967648,6.3235216,0.1,144.10414,1694115716434,,,,
Fix,GT,37.7532417000,-122.1528033000,23.717317726467456,8.515121,0.1,129.55995,1694115717434,,,,
Fix,GT,37.7531905000,-122.1527156000,23.721607034553017,10.656041,0.1,126.117615,1694115718434,,,,
Fix,GT,37.7531272000,-122.1526117000,23.61589834559163,12.4436035,0.1,128.07637,1694115719434,,,,
Fix,GT,37.7530470000,-122.1525004000,23.749912217350357,14.02002,0.1,134.81744,1694115720434,,,,
Fix,GT,37.7529453000,-122.1523943000,24.266431165472568,15.346583,0.1,143.82454,1694115721434,,,,
Fix,GT,37.7528217000,-122.1523031000,24.921482626471914,16.479776,0.1,152.8939,1694115722434,,,,
Fix,GT,37.7526797000,-122.1522286000,25.466353919500932,17.737549,0.099,159.79887,1694115723434,,,,
Fix,GT,37.7525217000,-122.1521676000,25.918176255934497,18.978294,0.1,165.37354,1694115724434,,,,
Fix,GT,37.7523481000,-122.1521289000,26.171784339688713,20.23214,0.1,173.83781,1694115725434,,,,
Fix,GT,37.7521609000,-122.1521163000,26.050277398724802,21.433266,0.1,178.66214,1694115726434,,,,
Fix,GT,37.7519628000,-122.1521131000,25.691013448981153,22.519724,0.1,180.04306,1694115727434,,,,
Fix,GT,37.7517551000,-122.1521110000,25.323696479363548,23.571392,0.1,178.9491,1694115728434,,,,
Fix,GT,37.7515383000,-122.1520988000,24.981442081412922,24.595572,0.1,176.19412,1694115729434,,,,
Fix,GT,37.7513131000,-122.1520713000,24.553860925123445,25.597675,0.1,172.88951,1694115730434,,,,
Fix,GT,37.7510810000,-122.1520264000,24.070125270581286,26.510422,0.1,169.78809,1694115731434,,,,
Fix,GT,37.7508427000,-122.1519638000,23.455683342029488,27.58487,0.1,166.97064,1694115732434,,,,
Fix,GT,37.7505947000,-122.1518837000,22.792367613141323,29.234991,0.1,163.9018,1694115733434,,,,
Fix,GT,37.7503367000,-122.1517793000,21.90098620239496,30.919716,0.1,160.34239,1694115734434,,,,
Fix,GT,37.7500705000,-122.1516500000,20.599366597159133,32.077564,0.1,157.47095,1694115735434,,,,
Fix,GT,37.7498033000,-122.1515086000,19.150075639986426,32.261826,0.1,156.86668,1694115736434,,,,
Fix,GT,37.7495345000,-122.1513684000,17.765543043414254,32.295998,0.1,157.87021,1694115737434,,,,
Fix,GT,37.7492647000,-122.1512328000,16.703898707795588,32.207054,0.1,158.33882,1694115738434,,,,
Fix,GT,37.7489950000,-122.1511000000,15.804139672438055,32.0467,0.1,158.7316,1694115739434,,,,
Fix,GT,37.7487265000,-122.1509690000,14.908848290734113,31.880688,0.1,158.71439,1694115740434,,,,
Fix,GT,37.7484592000,-122.1508389000,14.015874288907185,31.739021,0.1,158.73027,1694115741434,,,,
Fix,GT,37.7481928000,-122.1507088000,13.263076390760546,31.689894,0.1,158.56285,1694115742434,,,,
Fix,GT,37.7479271000,-122.1505781000,12.593468894797525,31.637785,0.1,158.55363,1694115743434,,,,
Fix,GT,37.7476617000,-122.1504480000,12.081886412067945,31.564764,0.1,158.59032,1694115744434,,,,
Fix,GT,37.7473971000,-122.1503185000,11.701646366166187,31.438923,0.1,158.72258,1694115745434,,,,
Fix,GT,37.7471333000,-122.1501902000,11.431797896290902,31.336807,0.1,158.72385,1694115746434,,,,
Fix,GT,37.7468711000,-122.1500624000,11.27611433408643,31.065895,0.1,158.8199,1694115747434,,,,
Fix,GT,37.7466112000,-122.1499359000,11.242836873486226,30.738344,0.1,158.72778,1694115748434,,,,
Fix,GT,37.7463550000,-122.1498104000,11.525204029013537,30.28921,0.1,158.58775,1694115749434,,,,
Fix,GT,37.7461035000,-122.1496836000,11.82115288605985,29.860737,0.1,157.45598,1694115750434,,,,
Fix,GT,37.7458582000,-122.1495491000,11.79403862591596,29.541603,0.1,155.15695,1694115751434,,,,
Fix,GT,37.7456204000,-122.1494018000,11.465253369051425,29.317017,0.1,152.30069,1694115752434,,,,
Fix,GT,37.7453897000,-122.1492413000,10.984936944937544,29.153955,0.1,149.62222,1694115753434,,,,
Fix,GT,37.7451670000,-122.1490678000,10.554316991191627,28.980576,0.1,146.91138,1694115754434,,,,
Fix,GT,37.7449514000,-122.1488833000,9.900835978945906,28.881516,0.1,144.42021,1694115755434,,,,
Fix,GT,37.7447439000,-122.1486863000,9.19092421699807,28.789566,0.1,141.44524,1694115756434,,,,
Fix,GT,37.7445445000,-122.1484776000,8.3958734129572,28.75155,0.1,138.97565,1694115757434,,,,
Fix,GT,37.7443524000,-122.1482590000,7.436607499794476,28.74163,0.1,136.67082,1694115758434,,,,
Fix,GT,37.7441687000,-122.1480289000,6.4385437644559715,28.773195,0.1,133.82452,1694115759434,,,,
Fix,GT,37.7439916000,-122.1477896000,5.069948834703723,28.894129,0.1,132.23741,1694115760434,,,,
Fix,GT,37.7438172000,-122.1475450000,3.6120501360295307,29.052736,0.1,131.52715,1694115761434,,,,
Fix,GT,37.7436430000,-122.1472980000,2.16539223220164,29.18008,0.1,131.53944,1694115762434,,,,
Fix,GT,37.7434674000,-122.1470506000,0.7658352778993365,29.307636,0.1,131.84694,1694115763434,,,,
Fix,GT,37.7432896000,-122.1468041000,-0.4256455952077296,29.35661,0.1,132.31873,1694115764434,,,,
Fix,GT,37.7431096000,-122.1465605000,-1.4290250593316784,29.299269,0.1,133.44456,1694115765434,,,,
Fix,GT,37.7429234000,-122.1463266000,-1.9827212129078546,29.096184,0.099,136.52654,1694115766434,,,,
Fix,GT,37.7427294000,-122.1461069000,-2.2565437967603117,28.815483,0.1,139.20227,1694115767434,,,,
Fix,GT,37.7425296000,-122.1459013000,-2.3882020093089125,28.498932,0.1,142.20879,1694115768434,,,,
Fix,GT,37.7423232000,-122.1457121000,-2.5384679278919435,28.186493,0.1,145.13483,1694115769434,,,,
Fix,GT,37.7421129000,-122.1455364000,-2.556948738351572,27.8759,0.1,147.57903,1694115770434,,,,
Fix,GT,37.7418992000,-122.1453718000,-2.4579993517615435,27.756756,0.1,149.05539,1694115771434,,,,
Fix,GT,37.7416842000,-122.1452119000,-2.3793158516044457,27.66521,0.1,149.38206,1694115772434,,,,
Fix,GT,37.7414700000,-122.1450522000,-2.2950247318562447,27.574976,0.1,149.16934,1694115773434,,,,
Fix,GT,37.7412570000,-122.1448923000,-2.2223158552119884,27.48608,0.1,149.00978,1694115774434,,,,
Fix,GT,37.7410451000,-122.1447321000,-2.1292905069178616,27.38467,0.1,149.08105,1694115775434,,,,
Fix,GT,37.7408336000,-122.1445734000,-1.9745562316040832,27.27032,0.1,149.17073,1694115776434,,,,
Fix,GT,37.7406230000,-122.1444129000,-1.6704044000482696,27.412106,0.1,148.30093,1694115777434,,,,
Fix,GT,37.7404141000,-122.1442452000,-1.209961204820658,27.580868,0.099,146.57054,1694115778434,,,,
Fix,GT,37.7402085000,-122.1440678000,-0.7139864890961913,27.719841,0.1,144.35236,1694115779434,,,,
Fix,GT,37.7400090000,-122.1438781000,-0.08880919726883008,27.750881,0.1,141.43486,1694115780434,,,,
Fix,GT,37.7398178000,-122.1436753000,0.6332414062898408,27.736965,0.1,138.39052,1694115781434,,,,
Fix,GT,37.7396338000,-122.1434621000,1.2677982850908904,27.757582,0.1,135.99026,1694115782434,,,,
Fix,GT,37.7394565000,-122.1432405000,1.875064202181072,27.593239,0.1,134.5511,1694115783434,,,,
Fix,GT,37.7392837000,-122.1430194000,2.454431288754378,27.12099,0.1,134.6445,1694115784434,,,,
Fix,GT,37.7391121000,-122.1428024000,3.0324311088079696,26.884298,0.1,134.82089,1694115785434,,,,
Fix,GT,37.7389415000,-122.1425873000,3.556064107947634,26.715057,0.1,134.85745,1694115786434,,,,
Fix,GT,37.7387718000,-122.1423734000,3.9942792282603534,26.586422,0.1,134.73517,1694115787434,,,,
Fix,GT,37.7386030000,-122.1421602000,4.332886769524265,26.485085,0.1,134.78825,1694115788434,,,,
Fix,GT,37.7384340000,-122.1419486000,4.5837600704568615,26.416561,0.1,135.20856,1694115789434,,,,
Fix,GT,37.7382617000,-122.1417423000,4.717443625165799,26.390781,0.1,137.53734,1694115790434,,,,
Fix,GT,37.7380818000,-122.1415470000,4.920861247398932,26.356113,0.1,140.51389,1694115791434,,,,
Fix,GT,37.7378940000,-122.1413638000,5.1027094732412195,26.397774,0.1,143.4058,1694115792434,,,,
Fix,GT,37.7376990000,-122.1411919000,5.2110260162841655,26.49477,0.1,146.42067,1694115793434,,,,
Fix,GT,37.7374956000,-122.1410333000,5.152266466776567,26.640198,0.1,149.51704,1694115794434,,,,
Fix,GT,37.7372851000,-122.1408866000,5.046456051754745,26.800148,0.1,152.39577,1694115795434,,,,
Fix,GT,37.7370675000,-122.1407523000,4.839646270534558,26.984657,0.1,155.10391,1694115796434,,,,
Fix,GT,37.7368432000,-122.1406314000,4.532620803781697,27.227262,0.1,158.08629,1694115797434,,,,
Fix,GT,37.7366120000,-122.1405238000,4.162988152202161,27.522444,0.1,161.2768,1694115798434,,,,
Fix,GT,37.7363735000,-122.1404327000,3.7936715326754324,27.819012,0.1,164.59108,1694115799434,,,,
Fix,GT,37.7361292000,-122.1403569000,3.5565321633031033,28.055904,0.1,167.24013,1694115800434,,,,
Fix,GT,37.7358809000,-122.1402926000,3.497532047582176,28.216682,0.1,169.16806,1694115801434,,,,
Fix,GT,37.7356301000,-122.1402351000,3.4265067990663667,28.385399,0.1,169.85252,1694115802434,,,,
Fix,GT,37.7353766000,-122.1401788000,3.2170384745289056,28.762753,0.1,169.845,1694115803434,,,,
Fix,GT,37.7351198000,-122.1401211000,2.8539880538228957,29.139593,0.1,169.73674,1694115804434,,,,
Fix,GT,37.7348596000,-122.1400622000,2.4815956349872152,29.542881,0.1,169.53401,1694115805434,,,,
Fix,GT,37.7345961000,-122.1400014000,2.1641526834498848,29.902176,0.1,169.5751,1694115806434,,,,
Fix,GT,37.7343298000,-122.1399409000,1.783646248069033,30.14162,0.1,169.64899,1694115807434,,,,
Fix,GT,37.7340630000,-122.1398809000,1.4925577313280414,29.938873,0.1,169.83632,1694115808434,,,,
Fix,GT,37.7337991000,-122.1398219000,1.5437347458901627,29.575962,0.1,169.76913,1694115809434,,,,
Fix,GT,37.7335378000,-122.1397624000,1.7538105906523214,29.411201,0.1,169.37138,1694115810434,,,,
Fix,GT,37.7332776000,-122.1397000000,1.9760511499741185,29.381077,0.1,168.9524,1694115811434,,,,
Fix,GT,37.7330178000,-122.1396359000,2.0703169877954366,29.403076,0.1,168.7387,1694115812434,,,,
Fix,GT,37.7327577000,-122.1395709000,2.110608251427891,29.459282,0.1,168.73277,1694115813434,,,,
Fix,GT,37.7324972000,-122.1395049000,2.152658824097557,29.527306,0.1,168.23045,1694115814434,,,,
Fix,GT,37.7322365000,-122.1394354000,2.1879498958587646,29.613182,0.1,167.73254,1694115815434,,,,
Fix,GT,37.7319756000,-122.1393629000,2.1621905240853394,29.72765,0.1,167.28358,1694115816434,,,,
Fix,GT,37.7317137000,-122.1392890000,2.043190696190841,29.823605,0.1,167.28633,1694115817434,,,,
Fix,GT,37.7314516000,-122.1392145000,1.9125324754510729,29.809973,0.1,167.07169,1694115818434,,,,
Fix,GT,37.7311899000,-122.1391395000,1.8816839843400288,29.752934,0.1,167.06836,1694115819434,,,,
Fix,GT,37.7309289000,-122.1390653000,1.915165335295569,29.665676,0.1,167.17007,1694115820434,,,,
