$GPGGA,204921.00,3726.6463480,N,12213.9659660,W,1,0,0.0,11.1790,M,0.0000,M,0.0000,0000*58
$GPRMC,204921.00,A,3726.6463480,N,12213.9659660,W,0.0043,30.3124,190721,,,,A*5b
$GPGGA,204922.00,3726.6463480,N,12213.9659660,W,1,0,0.0,11.1790,M,0.0000,M,0.0000,0000*5b
$GPRMC,204922.00,A,3726.6463480,N,12213.9659660,W,0.0043,30.3124,190721,,,,A*58
$GPGGA,204923.00,3726.6463480,N,12213.9659660,W,1,0,0.0,11.1780,M,0.0000,M,0.0000,0000*5b
$GPRMC,204923.00,A,3726.6463480,N,12213.9659660,W,0.0043,30.3126,190721,,,,A*5b
$GPGGA,204924.00,3726.6463480,N,12213.9659660,W,1,0,0.0,11.1800,M,0.0000,M,0.0000,0000*5b
$GPRMC,204924.00,A,3726.6463480,N,12213.9659660,W,0.0097,30.3122,190721,,,,A*51
$GPGGA,204925.00,3726.6463480,N,12213.9659660,W,1,0,0.0,11.1839,M,0.0000,M,0.0000,0000*50
$GPRMC,204925.00,A,3726.6463480,N,12213.9659660,W,0.0136,30.4016,190721,,,,A*5b
$GPGGA,204926.00,3726.6462760,N,12213.9660440,W,1,0,0.0,11.1890,M,0.0000,M,0.0000,0000*56
$GPRMC,204926.00,A,3726.6462760,N,12213.9660440,W,0.7450,29.3463,190721,,,,A*55
$GPGGA,204927.00,3726.6460600,N,12213.9663860,W,1,0,0.0,11.1810,M,0.0000,M,0.0000,0000*57
$GPRMC,204927.00,A,3726.6460600,N,12213.9663860,W,1.5259,21.8685,190721,,,,A*59
$GPGGA,204928.00,3726.6456580,N,12213.9668420,W,1,0,0.0,11.1650,M,0.0000,M,0.0000,0000*5f
$GPRMC,204928.00,A,3726.6456580,N,12213.9668420,W,2.0349,9.9480,190721,,,,A*61
$GPGGA,204929.00,3726.6451420,N,12213.9672080,W,1,0,0.0,11.1430,M,0.0000,M,0.0000,0000*53
$GPRMC,204929.00,A,3726.6451420,N,12213.9672080,W,1.6933,356.9944,190721,,,,A*67
$GPGGA,204930.00,3726.6448360,N,12213.9673400,W,1,0,0.0,11.1350,M,0.0000,M,0.0000,0000*5c
$GPRMC,204930.00,A,3726.6448360,N,12213.9673400,W,0.4263,350.2222,190721,,,,A*62
$GPGGA,204931.00,3726.6448180,N,12213.9673460,W,1,0,0.0,11.1370,M,0.0000,M,0.0000,0000*55
$GPRMC,204931.00,A,3726.6448180,N,12213.9673460,W,0.0325,349.6268,190721,,,,A*6c
$GPGGA,204932.00,3726.6450340,N,12213.9674780,W,1,0,0.0,11.1390,M,0.0000,M,0.0000,0000*55
$GPRMC,204932.00,A,3726.6450340,N,12213.9674780,W,1.8551,346.4956,190721,,,,A*65
$GPGGA,204933.00,3726.6456520,N,12213.9682940,W,1,0,0.0,11.1749,M,0.0000,M,0.0000,0000*59
$GPRMC,204933.00,A,3726.6456520,N,12213.9682940,W,3.7720,327.6559,190721,,,,A*66
$GPGGA,204934.00,3726.6460960,N,12213.9699740,W,1,0,0.0,11.1610,M,0.0000,M,0.0000,0000*5a
$GPRMC,204934.00,A,3726.6460960,N,12213.9699740,W,5.3682,297.5178,190721,,,,A*6d
$GPGGA,204935.00,3726.6458620,N,12213.9723260,W,1,0,0.0,11.1110,M,0.0000,M,0.0000,0000*5b
$GPRMC,204935.00,A,3726.6458620,N,12213.9723260,W,7.1465,266.2832,190721,,,,A*6e
$GPGGA,204936.00,3726.6446680,N,12213.9746120,W,1,0,0.0,11.0180,M,0.0000,M,0.0000,0000*51
$GPRMC,204936.00,A,3726.6446680,N,12213.9746120,W,7.7651,237.1348,190721,,,,A*6e
$GPGGA,204937.00,3726.6429580,N,12213.9760940,W,1,0,0.0,10.9110,M,0.0000,M,0.0000,0000*51
$GPRMC,204937.00,A,3726.6429580,N,12213.9760940,W,6.1418,215.7701,190721,,,,A*68
$GPGGA,204938.00,3726.6418240,N,12213.9767840,W,1,0,0.0,10.8339,M,0.0000,M,0.0000,0000*59
$GPRMC,204938.00,A,3726.6418240,N,12213.9767840,W,3.9049,209.0810,190721,,,,A*60
$GPGGA,204939.00,3726.6407440,N,12213.9774800,W,1,0,0.0,10.7910,M,0.0000,M,0.0000,0000*58
$GPRMC,204939.00,A,3726.6407440,N,12213.9774800,W,4.7842,207.9542,190721,,,,A*68
$GPGGA,204940.00,3726.6393760,N,12213.9783620,W,1,0,0.0,10.7090,M,0.0000,M,0.0000,0000*58
$GPRMC,204940.00,A,3726.6393760,N,12213.9783620,W,6.6104,207.2380,190721,,,,A*62
$GPGGA,204941.00,3726.6374200,N,12213.9796100,W,1,0,0.0,10.6370,M,0.0000,M,0.0000,0000*5e
$GPRMC,204941.00,A,3726.6374200,N,12213.9796100,W,8.8260,207.0068,190721,,,,A*6e
$GPGGA,204942.00,3726.6352600,N,12213.9810380,W,1,0,0.0,10.5630,M,0.0000,M,0.0000,0000*54
$GPRMC,204942.00,A,3726.6352600,N,12213.9810380,W,8.4910,207.9882,190721,,,,A*63
$GPGGA,204943.00,3726.6333940,N,12213.9825320,W,1,0,0.0,10.5000,M,0.0000,M,0.0000,0000*50
$GPRMC,204943.00,A,3726.6333940,N,12213.9825320,W,7.2677,213.0830,190721,,,,A*60
$GPGGA,204944.00,3726.6321100,N,12213.9838700,W,1,0,0.0,10.4320,M,0.0000,M,0.0000,0000*52
$GPRMC,204944.00,A,3726.6321100,N,12213.9838700,W,4.6646,218.7940,190721,,,,A*6d
$GPGGA,204945.00,3726.6313960,N,12213.9849320,W,1,0,0.0,10.3080,M,0.0000,M,0.0000,0000*52
$GPRMC,204945.00,A,3726.6313960,N,12213.9849320,W,4.0409,226.4054,190721,,,,A*6e
$GPGGA,204946.00,3726.6309820,N,12213.9863840,W,1,0,0.0,10.1591,M,0.0000,M,0.0000,0000*5d
$GPRMC,204946.00,A,3726.6309820,N,12213.9863840,W,5.0033,244.4020,190721,,,,A*6d
$GPGGA,204947.00,3726.6311140,N,12213.9885020,W,1,0,0.0,10.1179,M,0.0000,M,0.0000,0000*5e
$GPRMC,204947.00,A,3726.6311140,N,12213.9885020,W,7.2745,269.3637,190721,,,,A*62
$GPGGA,204948.00,3726.6319660,N,12213.9914240,W,1,0,0.0,10.0330,M,0.0000,M,0.0000,0000*5f
$GPRMC,204948.00,A,3726.6319660,N,12213.9914240,W,10.8340,290.6727,190721,,,,A*53
$GPGGA,204949.00,3726.6335860,N,12213.9954020,W,1,0,0.0,9.8430,M,0.0000,M,0.0000,0000*69
$GPRMC,204949.00,A,3726.6335860,N,12213.9954020,W,14.7923,297.3125,190721,,,,A*50
$GPGGA,204950.00,3726.6358420,N,12214.0003460,W,1,0,0.0,9.6041,M,0.0000,M,0.0000,0000*6b
$GPRMC,204950.00,A,3726.6358420,N,12214.0003460,W,17.4617,300.7372,190721,,,,A*5d
$GPGGA,204951.00,3726.6385360,N,12214.0058360,W,1,0,0.0,9.3830,M,0.0000,M,0.0000,0000*6b
$GPRMC,204951.00,A,3726.6385360,N,12214.0058360,W,19.5129,301.6157,190721,,,,A*56
$GPGGA,204952.00,3726.6414760,N,12214.0117940,W,1,0,0.0,9.1001,M,0.0000,M,0.0000,0000*69
$GPRMC,204952.00,A,3726.6414760,N,12214.0117940,W,20.3814,301.8965,190721,,,,A*50
$GPGGA,204953.00,3726.6445600,N,12214.0179140,W,1,0,0.0,8.7950,M,0.0000,M,0.0000,0000*61
$GPRMC,204953.00,A,3726.6445600,N,12214.0179140,W,21.1583,302.4335,190721,,,,A*52
$GPGGA,204954.00,3726.6477520,N,12214.0241600,W,1,0,0.0,8.5821,M,0.0000,M,0.0000,0000*68
$GPRMC,204954.00,A,3726.6477520,N,12214.0241600,W,21.3830,302.8283,190721,,,,A*59
$GPGGA,204955.00,3726.6510280,N,12214.0303940,W,1,0,0.0,8.3561,M,0.0000,M,0.0000,0000*67
$GPRMC,204955.00,A,3726.6510280,N,12214.0303940,W,21.3812,303.6017,190721,,,,A*59
$GPGGA,204956.00,3726.6542560,N,12214.0365020,W,1,0,0.0,8.1301,M,0.0000,M,0.0000,0000*67
$GPRMC,204956.00,A,3726.6542560,N,12214.0365020,W,20.3449,303.3951,190721,,,,A*56
$GPGGA,204957.00,3726.6571900,N,12214.0420820,W,1,0,0.0,7.9400,M,0.0000,M,0.0000,0000*63
$GPRMC,204957.00,A,3726.6571900,N,12214.0420820,W,17.9074,303.3416,190721,,,,A*59
$GPGGA,204958.00,3726.6597400,N,12214.0469180,W,1,0,0.0,7.7560,M,0.0000,M,0.0000,0000*6e
$GPRMC,204958.00,A,3726.6597400,N,12214.0469180,W,15.3178,303.4716,190721,,,,A*5c
$GPGGA,204959.00,3726.6616420,N,12214.0508780,W,1,0,0.0,7.6170,M,0.0000,M,0.0000,0000*63
$GPRMC,204959.00,A,3726.6616420,N,12214.0508780,W,10.8979,299.7831,190721,,,,A*59
$GPGGA,205000.00,3726.6627640,N,12214.0534820,W,1,0,0.0,7.5170,M,0.0000,M,0.0000,0000*68
$GPRMC,205000.00,A,3726.6627640,N,12214.0534820,W,6.4899,298.5440,190721,,,,A*6c
$GPGGA,205001.00,3726.6634360,N,12214.0550420,W,1,0,0.0,7.4660,M,0.0000,M,0.0000,0000*65
$GPRMC,205001.00,A,3726.6634360,N,12214.0550420,W,3.7674,298.4673,190721,,,,A*6e
$GPGGA,205002.00,3726.6637420,N,12214.0557620,W,1,0,0.0,7.4500,M,0.0000,M,0.0000,0000*66
$GPRMC,205002.00,A,3726.6637420,N,12214.0557620,W,0.8774,298.4747,190721,,,,A*63
$GPGGA,205003.00,3726.6637600,N,12214.0558040,W,1,0,0.0,7.4399,M,0.0000,M,0.0000,0000*6e
$GPRMC,205003.00,A,3726.6637600,N,12214.0558040,W,0.0028,298.4759,190721,,,,A*64
$GPGGA,205004.00,3726.6637600,N,12214.0558040,W,1,0,0.0,7.4380,M,0.0000,M,0.0000,0000*61
$GPRMC,205004.00,A,3726.6637600,N,12214.0558040,W,0.0043,298.4766,190721,,,,A*62
$GPGGA,205005.00,3726.6637600,N,12214.0558040,W,1,0,0.0,7.4370,M,0.0000,M,0.0000,0000*6f
$GPRMC,205005.00,A,3726.6637600,N,12214.0558040,W,0.0043,298.4763,190721,,,,A*66
$GPGGA,205006.00,3726.6637600,N,12214.0558040,W,1,0,0.0,7.4369,M,0.0000,M,0.0000,0000*64
$GPRMC,205006.00,A,3726.6637600,N,12214.0558040,W,0.0019,298.4736,190721,,,,A*6a
$GPGGA,205007.00,3726.6637600,N,12214.0558040,W,1,0,0.0,7.4369,M,0.0000,M,0.0000,0000*65
$GPRMC,205007.00,A,3726.6637600,N,12214.0558040,W,0.0019,298.4736,190721,,,,A*6b
$GPGGA,205008.00,3726.6637600,N,12214.0558040,W,1,0,0.0,7.4380,M,0.0000,M,0.0000,0000*6d
$GPRMC,205008.00,A,3726.6637600,N,12214.0558040,W,0.0019,298.4737,190721,,,,A*65
$GPGGA,205009.00,3726.6637600,N,12214.0558100,W,1,0,0.0,7.4380,M,0.0000,M,0.0000,0000*69
$GPRMC,205009.00,A,3726.6637600,N,12214.0558100,W,0.0000,298.4732,190721,,,,A*6c
$GPGGA,205010.00,3726.6637600,N,12214.0558100,W,1,0,0.0,7.4380,M,0.0000,M,0.0000,0000*61
$GPRMC,205010.00,A,3726.6637600,N,12214.0558100,W,0.0000,298.4735,190721,,,,A*63
$GPGGA,205011.00,3726.6637600,N,12214.0558100,W,1,0,0.0,7.4380,M,0.0000,M,0.0000,0000*60
$GPRMC,205011.00,A,3726.6637600,N,12214.0558100,W,0.0020,298.4737,190721,,,,A*62
$GPGGA,205012.00,3726.6637600,N,12214.0558100,W,1,0,0.0,7.4380,M,0.0000,M,0.0000,0000*63
$GPRMC,205012.00,A,3726.6637600,N,12214.0558100,W,0.0019,298.4735,190721,,,,A*69
$GPGGA,205013.00,3726.6637600,N,12214.0558100,W,1,0,0.0,7.4380,M,0.0000,M,0.0000,0000*62
$GPRMC,205013.00,A,3726.6637600,N,12214.0558100,W,0.0028,298.4738,190721,,,,A*67
$GPGGA,205014.00,3726.6637600,N,12214.0558100,W,1,0,0.0,7.4360,M,0.0000,M,0.0000,0000*6b
$GPRMC,205014.00,A,3726.6637600,N,12214.0558100,W,0.1508,298.4748,190721,,,,A*61
$GPGGA,205015.00,3726.6640480,N,12214.0565000,W,1,0,0.0,7.3980,M,0.0000,M,0.0000,0000*6c
$GPRMC,205015.00,A,3726.6640480,N,12214.0565000,W,5.0635,297.9850,190721,,,,A*68
$GPGGA,205016.00,3726.6649120,N,12214.0590020,W,1,0,0.0,7.2990,M,0.0000,M,0.0000,0000*61
$GPRMC,205016.00,A,3726.6649120,N,12214.0590020,W,10.1275,293.1076,190721,,,,A*50
$GPGGA,205017.00,3726.6656380,N,12214.0628840,W,1,0,0.0,7.3769,M,0.0000,M,0.0000,0000*61
$GPRMC,205017.00,A,3726.6656380,N,12214.0628840,W,12.6630,280.8418,190721,,,,A*5e
$GPGGA,205018.00,3726.6654880,N,12214.0677200,W,1,0,0.0,7.4929,M,0.0000,M,0.0000,0000*6e
$GPRMC,205018.00,A,3726.6654880,N,12214.0677200,W,14.6635,262.9908,190721,,,,A*5e
$GPGGA,205019.00,3726.6638800,N,12214.0727840,W,1,0,0.0,7.6170,M,0.0000,M,0.0000,0000*61
$GPRMC,205019.00,A,3726.6638800,N,12214.0727840,W,16.8684,242.6291,190721,,,,A*57
$GPGGA,205020.00,3726.6605860,N,12214.0775600,W,1,0,0.0,7.6889,M,0.0000,M,0.0000,0000*61
$GPRMC,205020.00,A,3726.6605860,N,12214.0775600,W,19.0709,223.8186,190721,,,,A*57
$GPGGA,205021.00,3726.6560140,N,12214.0817060,W,1,0,0.0,7.8628,M,0.0000,M,0.0000,0000*6b
$GPRMC,205021.00,A,3726.6560140,N,12214.0817060,W,21.7382,213.4834,190721,,,,A*52
$GPGGA,205022.00,3726.6504820,N,12214.0860140,W,1,0,0.0,8.1438,M,0.0000,M,0.0000,0000*63
$GPRMC,205022.00,A,3726.6504820,N,12214.0860140,W,25.0119,211.1822,190721,,,,A*5c
$GPGGA,205023.00,3726.6441820,N,12214.0904960,W,1,0,0.0,8.5168,M,0.0000,M,0.0000,0000*6f
$GPRMC,205023.00,A,3726.6441820,N,12214.0904960,W,26.9801,208.5065,190721,,,,A*59
$GPGGA,205024.00,3726.6373120,N,12214.0950080,W,1,0,0.0,8.9846,M,0.0000,M,0.0000,0000*68
$GPRMC,205024.00,A,3726.6373120,N,12214.0950080,W,28.9070,207.0852,190721,,,,A*51
$GPGGA,205025.00,3726.6298300,N,12214.0998140,W,1,0,0.0,9.4148,M,0.0000,M,0.0000,0000*6f
$GPRMC,205025.00,A,3726.6298300,N,12214.0998140,W,31.5000,207.0800,190721,,,,A*59
$GPGGA,205026.00,3726.6218380,N,12214.1049680,W,1,0,0.0,9.7128,M,0.0000,M,0.0000,0000*66
$GPRMC,205026.00,A,3726.6218380,N,12214.1049680,W,33.2535,207.2341,190721,,,,A*5f
$GPGGA,205027.00,3726.6133720,N,12214.1105000,W,1,0,0.0,9.8689,M,0.0000,M,0.0000,0000*67
$GPRMC,205027.00,A,3726.6133720,N,12214.1105000,W,35.3296,207.6826,190721,,,,A*5a
$GPGGA,205028.00,3726.6044860,N,12214.1163920,W,1,0,0.0,9.9779,M,0.0000,M,0.0000,0000*66
$GPRMC,205028.00,A,3726.6044860,N,12214.1163920,W,36.8039,207.9257,190721,,,,A*58
$GPGGA,205029.00,3726.5955040,N,12214.1224340,W,1,0,0.0,10.1668,M,0.0000,M,0.0000,0000*5a
$GPRMC,205029.00,A,3726.5955040,N,12214.1224340,W,36.3374,208.2741,190721,,,,A*52
$GPGGA,205030.00,3726.5867080,N,12214.1283800,W,1,0,0.0,10.3519,M,0.0000,M,0.0000,0000*5b
$GPRMC,205030.00,A,3726.5867080,N,12214.1283800,W,35.5107,208.1823,190721,,,,A*5f
$GPGGA,205031.00,3726.5780920,N,12214.1341760,W,1,0,0.0,10.6238,M,0.0000,M,0.0000,0000*58
$GPRMC,205031.00,A,3726.5780920,N,12214.1341760,W,34.9930,208.0668,190721,,,,A*5c
$GPGGA,205032.00,3726.5694880,N,12214.1399180,W,1,0,0.0,10.9767,M,0.0000,M,0.0000,0000*59
$GPRMC,205032.00,A,3726.5694880,N,12214.1399180,W,35.0527,207.9039,190721,,,,A*5b
$GPGGA,205033.00,3726.5608660,N,12214.1456120,W,1,0,0.0,11.5976,M,0.0000,M,0.0000,0000*50
$GPRMC,205033.00,A,3726.5608660,N,12214.1456120,W,35.0560,207.5483,190721,,,,A*5b
$GPGGA,205034.00,3726.5521960,N,12214.1512580,W,1,0,0.0,12.3256,M,0.0000,M,0.0000,0000*53
$GPRMC,205034.00,A,3726.5521960,N,12214.1512580,W,35.0183,207.3497,190721,,,,A*5e
$GPGGA,205035.00,3726.5436820,N,12214.1568080,W,1,0,0.0,13.3265,M,0.0000,M,0.0000,0000*59
$GPRMC,205035.00,A,3726.5436820,N,12214.1568080,W,33.9106,207.5463,190721,,,,A*5a
$GPGGA,205036.00,3726.5354920,N,12214.1621900,W,1,0,0.0,14.3805,M,0.0000,M,0.0000,0000*5c
$GPRMC,205036.00,A,3726.5354920,N,12214.1621900,W,32.5134,207.7403,190721,,,,A*5c
$GPGGA,205037.00,3726.5276920,N,12214.1674400,W,1,0,0.0,15.2985,M,0.0000,M,0.0000,0000*58
$GPRMC,205037.00,A,3726.5276920,N,12214.1674400,W,31.3565,208.3832,190721,,,,A*51
$GPGGA,205038.00,3726.5201020,N,12214.1726540,W,1,0,0.0,16.0876,M,0.0000,M,0.0000,0000*51
$GPRMC,205038.00,A,3726.5201020,N,12214.1726540,W,31.0929,208.8087,190721,,,,A*5e
$GPGGA,205039.00,3726.5125360,N,12214.1779220,W,1,0,0.0,16.8436,M,0.0000,M,0.0000,0000*59
$GPRMC,205039.00,A,3726.5125360,N,12214.1779220,W,31.0797,209.1240,190721,,,,A*5c
$GPGGA,205040.00,3726.5050060,N,12214.1832620,W,1,0,0.0,17.5556,M,0.0000,M,0.0000,0000*58
$GPRMC,205040.00,A,3726.5050060,N,12214.1832620,W,31.3624,209.5355,190721,,,,A*5d
$GPGGA,205041.00,3726.4972420,N,12214.1887340,W,1,0,0.0,18.2086,M,0.0000,M,0.0000,0000*5c
$GPRMC,205041.00,A,3726.4972420,N,12214.1887340,W,32.7732,209.1508,190721,,,,A*52
$GPGGA,205042.00,3726.4891420,N,12214.1946380,W,1,0,0.0,18.9786,M,0.0000,M,0.0000,0000*5f
$GPRMC,205042.00,A,3726.4891420,N,12214.1946380,W,34.2957,211.2694,190721,,,,A*5f
$GPGGA,205043.00,3726.4811200,N,12214.2014420,W,1,0,0.0,19.8715,M,0.0000,M,0.0000,0000*58
$GPRMC,205043.00,A,3726.4811200,N,12214.2014420,W,35.6714,216.0629,190721,,,,A*5d
$GPGGA,205044.00,3726.4731760,N,12214.2093320,W,1,0,0.0,20.8485,M,0.0000,M,0.0000,0000*59
$GPRMC,205044.00,A,3726.4731760,N,12214.2093320,W,37.3159,219.5771,190721,,,,A*52
$GPGGA,205045.00,3726.4652860,N,12214.2182300,W,1,0,0.0,21.8494,M,0.0000,M,0.0000,0000*51
$GPRMC,205045.00,A,3726.4652860,N,12214.2182300,W,39.0063,223.4723,190721,,,,A*51
$GPGGA,205046.00,3726.4575640,N,12214.2281540,W,1,0,0.0,23.0394,M,0.0000,M,0.0000,0000*57
$GPRMC,205046.00,A,3726.4575640,N,12214.2281540,W,40.4466,227.5293,190721,,,,A*5a
$GPGGA,205047.00,3726.4503700,N,12214.2390200,W,1,0,0.0,24.2504,M,0.0000,M,0.0000,0000*5a
$GPRMC,205047.00,A,3726.4503700,N,12214.2390200,W,40.6052,232.6080,190721,,,,A*5b
$GPGGA,205048.00,3726.4438180,N,12214.2506060,W,1,0,0.0,25.4434,M,0.0000,M,0.0000,0000*5a
$GPRMC,205048.00,A,3726.4438180,N,12214.2506060,W,40.8818,235.5930,190721,,,,A*50
$GPGGA,205049.00,3726.4375180,N,12214.2625100,W,1,0,0.0,26.7154,M,0.0000,M,0.0000,0000*53
$GPRMC,205049.00,A,3726.4375180,N,12214.2625100,W,40.9924,236.8224,190721,,,,A*55
$GPGGA,205050.00,3726.4312480,N,12214.2744080,W,1,0,0.0,27.9374,M,0.0000,M,0.0000,0000*5f
$GPRMC,205050.00,A,3726.4312480,N,12214.2744080,W,40.7577,235.6446,190721,,,,A*5d
$GPGGA,205051.00,3726.4246120,N,12214.2858980,W,1,0,0.0,29.2804,M,0.0000,M,0.0000,0000*53
$GPRMC,205051.00,A,3726.4246120,N,12214.2858980,W,40.6376,232.7350,190721,,,,A*58
$GPGGA,205052.00,3726.4176100,N,12214.2970100,W,1,0,0.0,30.4405,M,0.0000,M,0.0000,0000*5a
$GPRMC,205052.00,A,3726.4176100,N,12214.2970100,W,40.6491,231.1009,190721,,,,A*56
$GPGGA,205053.00,3726.4104040,N,12214.3079660,W,1,0,0.0,31.5235,M,0.0000,M,0.0000,0000*5e
$GPRMC,205053.00,A,3726.4104040,N,12214.3079660,W,40.8230,229.9314,190721,,,,A*5a
$GPGGA,205054.00,3726.4029340,N,12214.3187840,W,1,0,0.0,32.5585,M,0.0000,M,0.0000,0000*57
$GPRMC,205054.00,A,3726.4029340,N,12214.3187840,W,41.2823,228.4198,190721,,,,A*55
$GPGGA,205055.00,3726.3951040,N,12214.3294160,W,1,0,0.0,33.6765,M,0.0000,M,0.0000,0000*50
$GPRMC,205055.00,A,3726.3951040,N,12214.3294160,W,41.5517,226.1801,190721,,,,A*53
$GPGGA,205056.00,3726.3869560,N,12214.3396640,W,1,0,0.0,34.6914,M,0.0000,M,0.0000,0000*57
$GPRMC,205056.00,A,3726.3869560,N,12214.3396640,W,41.3787,224.2134,190721,,,,A*58
$GPGGA,205057.00,3726.3786100,N,12214.3495520,W,1,0,0.0,35.5956,M,0.0000,M,0.0000,0000*5f
$GPRMC,205057.00,A,3726.3786100,N,12214.3495520,W,41.1041,222.4309,190721,,,,A*57
$GPGGA,205058.00,3726.3701080,N,12214.3587980,W,1,0,0.0,36.8004,M,0.0000,M,0.0000,0000*52
$GPRMC,205058.00,A,3726.3701080,N,12214.3587980,W,39.7357,219.4731,190721,,,,A*50
$GPGGA,205059.00,3726.3615940,N,12214.3673540,W,1,0,0.0,37.9894,M,0.0000,M,0.0000,0000*5b
$GPRMC,205059.00,A,3726.3615940,N,12214.3673540,W,38.9549,218.5535,190721,,,,A*58
$GPGGA,205100.00,3726.3530920,N,12214.3755860,W,1,0,0.0,39.0005,M,0.0000,M,0.0000,0000*59
$GPRMC,205100.00,A,3726.3530920,N,12214.3755860,W,38.2802,216.7803,190721,,,,A*50
$GPGGA,205101.00,3726.3444820,N,12214.3833380,W,1,0,0.0,39.9586,M,0.0000,M,0.0000,0000*56
$GPRMC,205101.00,A,3726.3444820,N,12214.3833380,W,37.9818,214.8703,190721,,,,A*55
$GPGGA,205102.00,3726.3357460,N,12214.3906760,W,1,0,0.0,40.8345,M,0.0000,M,0.0000,0000*53
$GPRMC,205102.00,A,3726.3357460,N,12214.3906760,W,37.6294,213.0385,190721,,,,A*52
$GPGGA,205103.00,3726.3269200,N,12214.3976420,W,1,0,0.0,41.6706,M,0.0000,M,0.0000,0000*52
$GPRMC,205103.00,A,3726.3269200,N,12214.3976420,W,37.4581,211.5097,190721,,,,A*59
$GPGGA,205104.00,3726.3179020,N,12214.4043200,W,1,0,0.0,42.2358,M,0.0000,M,0.0000,0000*53
$GPRMC,205104.00,A,3726.3179020,N,12214.4043200,W,37.9223,209.8844,190721,,,,A*50
$GPGGA,205105.00,3726.3085780,N,12214.4107100,W,1,0,0.0,42.7237,M,0.0000,M,0.0000,0000*52
$GPRMC,205105.00,A,3726.3085780,N,12214.4107100,W,38.4263,207.6826,190721,,,,A*5e
$GPGGA,205106.00,3726.2989540,N,12214.4166980,W,1,0,0.0,43.1178,M,0.0000,M,0.0000,0000*53
$GPRMC,205106.00,A,3726.2989540,N,12214.4166980,W,38.8536,205.4266,190721,,,,A*55
$GPGGA,205107.00,3726.2890480,N,12214.4223200,W,1,0,0.0,43.4308,M,0.0000,M,0.0000,0000*57
$GPRMC,205107.00,A,3726.2890480,N,12214.4223200,W,39.3506,203.6045,190721,,,,A*5f
$GPGGA,205108.00,3726.2788840,N,12214.4276600,W,1,0,0.0,43.6138,M,0.0000,M,0.0000,0000*59
$GPRMC,205108.00,A,3726.2788840,N,12214.4276600,W,39.8397,201.9532,190721,,,,A*5f
$GPGGA,205109.00,3726.2685580,N,12214.4327120,W,1,0,0.0,43.7449,M,0.0000,M,0.0000,0000*57
$GPRMC,205109.00,A,3726.2685580,N,12214.4327120,W,39.7978,200.6993,190721,,,,A*5e
$GPGGA,205110.00,3726.2581780,N,12214.4375480,W,1,0,0.0,43.8700,M,0.0000,M,0.0000,0000*53
$GPRMC,205110.00,A,3726.2581780,N,12214.4375480,W,39.8671,200.2296,190721,,,,A*58
$GPGGA,205111.00,3726.2477860,N,12214.4424680,W,1,0,0.0,44.0149,M,0.0000,M,0.0000,0000*5e
$GPRMC,205111.00,A,3726.2477860,N,12214.4424680,W,40.0356,201.1153,190721,,,,A*5f
$GPGGA,205112.00,3726.2374420,N,12214.4476880,W,1,0,0.0,44.2958,M,0.0000,M,0.0000,0000*52
$GPRMC,205112.00,A,3726.2374420,N,12214.4476880,W,40.1410,202.6013,190721,,,,A*5c
$GPGGA,205113.00,3726.2272240,N,12214.4532320,W,1,0,0.0,44.7317,M,0.0000,M,0.0000,0000*50
$GPRMC,205113.00,A,3726.2272240,N,12214.4532320,W,39.7094,204.1622,190721,,,,A*5f
$GPGGA,205114.00,3726.2173960,N,12214.4591840,W,1,0,0.0,45.2567,M,0.0000,M,0.0000,0000*5d
$GPRMC,205114.00,A,3726.2173960,N,12214.4591840,W,38.8514,207.0960,190721,,,,A*5f
$GPGGA,205115.00,3726.2080780,N,12214.4657600,W,1,0,0.0,45.8466,M,0.0000,M,0.0000,0000*58
$GPRMC,205115.00,A,3726.2080780,N,12214.4657600,W,38.1331,211.4825,190721,,,,A*5b
$GPGGA,205116.00,3726.1995400,N,12214.4732840,W,1,0,0.0,46.5976,M,0.0000,M,0.0000,0000*54
$GPRMC,205116.00,A,3726.1995400,N,12214.4732840,W,36.9399,218.0358,190721,,,,A*5d
$GPGGA,205117.00,3726.1920340,N,12214.4817080,W,1,0,0.0,47.3516,M,0.0000,M,0.0000,0000*59
$GPRMC,205117.00,A,3726.1920340,N,12214.4817080,W,35.6483,224.3656,190721,,,,A*5a
$GPGGA,205118.00,3726.1853500,N,12214.4906000,W,1,0,0.0,47.9256,M,0.0000,M,0.0000,0000*51
$GPRMC,205118.00,A,3726.1853500,N,12214.4906000,W,34.4298,227.9868,190721,,,,A*5e
$GPGGA,205119.00,3726.1792480,N,12214.4995460,W,1,0,0.0,48.5626,M,0.0000,M,0.0000,0000*53
$GPRMC,205119.00,A,3726.1792480,N,12214.4995460,W,33.0536,230.0800,190721,,,,A*5d
$GPGGA,205120.00,3726.1736800,N,12214.5083120,W,1,0,0.0,49.2757,M,0.0000,M,0.0000,0000*5c
$GPRMC,205120.00,A,3726.1736800,N,12214.5083120,W,31.1418,232.5801,190721,,,,A*5b
$GPGGA,205121.00,3726.1687360,N,12214.5167660,W,1,0,0.0,49.9017,M,0.0000,M,0.0000,0000*5b
$GPRMC,205121.00,A,3726.1687360,N,12214.5167660,W,28.8832,234.3905,190721,,,,A*54
$GPGGA,205122.00,3726.1646020,N,12214.5246320,W,1,0,0.0,50.5177,M,0.0000,M,0.0000,0000*50
$GPRMC,205122.00,A,3726.1646020,N,12214.5246320,W,24.9834,238.2043,190721,,,,A*51
$GPGGA,205123.00,3726.1616200,N,12214.5314900,W,1,0,0.0,50.9978,M,0.0000,M,0.0000,0000*51
$GPRMC,205123.00,A,3726.1616200,N,12214.5314900,W,19.5819,243.5468,190721,,,,A*50
$GPGGA,205124.00,3726.1598980,N,12214.5369200,W,1,0,0.0,51.3268,M,0.0000,M,0.0000,0000*50
$GPRMC,205124.00,A,3726.1598980,N,12214.5369200,W,14.0276,250.4379,190721,,,,A*5f
$GPGGA,205125.00,3726.1590940,N,12214.5407960,W,1,0,0.0,51.5479,M,0.0000,M,0.0000,0000*57
$GPRMC,205125.00,A,3726.1590940,N,12214.5407960,W,8.9709,256.6323,190721,,,,A*6a
$GPGGA,205126.00,3726.1588000,N,12214.5431060,W,1,0,0.0,51.6819,M,0.0000,M,0.0000,0000*55
$GPRMC,205126.00,A,3726.1588000,N,12214.5431060,W,4.6677,260.3812,190721,,,,A*63
$GPGGA,205127.00,3726.1586740,N,12214.5444560,W,1,0,0.0,51.7299,M,0.0000,M,0.0000,0000*5d
$GPRMC,205127.00,A,3726.1586740,N,12214.5444560,W,3.8570,262.4336,190721,,,,A*6d
$GPGGA,205128.00,3726.1585660,N,12214.5461780,W,1,0,0.0,51.7799,M,0.0000,M,0.0000,0000*5c
$GPRMC,205128.00,A,3726.1585660,N,12214.5461780,W,7.0191,264.9099,190721,,,,A*63
$GPGGA,205129.00,3726.1585240,N,12214.5494900,W,1,0,0.0,51.9089,M,0.0000,M,0.0000,0000*5f
$GPRMC,205129.00,A,3726.1585240,N,12214.5494900,W,11.8476,269.4145,190721,,,,A*5b
$GPGGA,205130.00,3726.1588240,N,12214.5541880,W,1,0,0.0,52.1498,M,0.0000,M,0.0000,0000*55
$GPRMC,205130.00,A,3726.1588240,N,12214.5541880,W,14.8526,275.9911,190721,,,,A*56
$GPGGA,205131.00,3726.1596940,N,12214.5595460,W,1,0,0.0,52.5587,M,0.0000,M,0.0000,0000*50
$GPRMC,205131.00,A,3726.1596940,N,12214.5595460,W,16.5749,283.4365,190721,,,,A*51
$GPGGA,205132.00,3726.1611400,N,12214.5654380,W,1,0,0.0,52.9288,M,0.0000,M,0.0000,0000*55
$GPRMC,205132.00,A,3726.1611400,N,12214.5654380,W,18.8252,288.1445,190721,,,,A*57
$GPGGA,205133.00,3726.1629940,N,12214.5719240,W,1,0,0.0,53.3957,M,0.0000,M,0.0000,0000*51
$GPRMC,205133.00,A,3726.1629940,N,12214.5719240,W,20.7108,290.3731,190721,,,,A*52
$GPGGA,205134.00,3726.1652320,N,12214.5788720,W,1,0,0.0,53.9447,M,0.0000,M,0.0000,0000*5b
$GPRMC,205134.00,A,3726.1652320,N,12214.5788720,W,22.1386,292.6538,190721,,,,A*52
$GPGGA,205135.00,3726.1677820,N,12214.5860840,W,1,0,0.0,54.5567,M,0.0000,M,0.0000,0000*5e
$GPRMC,205135.00,A,3726.1677820,N,12214.5860840,W,23.0363,294.5181,190721,,,,A*57
$GPGGA,205136.00,3726.1705480,N,12214.5933620,W,1,0,0.0,55.2426,M,0.0000,M,0.0000,0000*52
$GPRMC,205136.00,A,3726.1705480,N,12214.5933620,W,22.9185,295.7596,190721,,,,A*5a
$GPGGA,205137.00,3726.1732960,N,12214.6003520,W,1,0,0.0,55.9136,M,0.0000,M,0.0000,0000*51
$GPRMC,205137.00,A,3726.1732960,N,12214.6003520,W,21.6874,296.3419,190721,,,,A*5c
$GPGGA,205138.00,3726.1759360,N,12214.6070120,W,1,0,0.0,56.5517,M,0.0000,M,0.0000,0000*51
$GPRMC,205138.00,A,3726.1759360,N,12214.6070120,W,21.1982,296.4323,190721,,,,A*52
$GPGGA,205139.00,3726.1786060,N,12214.6136540,W,1,0,0.0,57.1527,M,0.0000,M,0.0000,0000*56
$GPRMC,205139.00,A,3726.1786060,N,12214.6136540,W,21.5592,296.8708,190721,,,,A*5b
$GPGGA,205140.00,3726.1814440,N,12214.6204700,W,1,0,0.0,57.8017,M,0.0000,M,0.0000,0000*51
$GPRMC,205140.00,A,3726.1814440,N,12214.6204700,W,22.6896,297.9537,190721,,,,A*54
$GPGGA,205141.00,3726.1845580,N,12214.6275500,W,1,0,0.0,58.5106,M,0.0000,M,0.0000,0000*5e
$GPRMC,205141.00,A,3726.1845580,N,12214.6275500,W,23.4881,299.3664,190721,,,,A*5c
$GPGGA,205142.00,3726.1879180,N,12214.6346420,W,1,0,0.0,59.2426,M,0.0000,M,0.0000,0000*55
$GPRMC,205142.00,A,3726.1879180,N,12214.6346420,W,23.8740,301.2660,190721,,,,A*5d
$GPGGA,205143.00,3726.1915900,N,12214.6416920,W,1,0,0.0,59.9726,M,0.0000,M,0.0000,0000*58
$GPRMC,205143.00,A,3726.1915900,N,12214.6416920,W,24.4404,304.2570,190721,,,,A*57
$GPGGA,205144.00,3726.1956220,N,12214.6486700,W,1,0,0.0,60.6926,M,0.0000,M,0.0000,0000*5f
$GPRMC,205144.00,A,3726.1956220,N,12214.6486700,W,25.0233,306.7410,190721,,,,A*5c
$GPGGA,205145.00,3726.1999540,N,12214.6556180,W,1,0,0.0,61.4856,M,0.0000,M,0.0000,0000*5b
$GPRMC,205145.00,A,3726.1999540,N,12214.6556180,W,25.5856,308.7994,190721,,,,A*5e
$GPGGA,205146.00,3726.2045980,N,12214.6624940,W,1,0,0.0,62.2916,M,0.0000,M,0.0000,0000*51
$GPRMC,205146.00,A,3726.2045980,N,12214.6624940,W,26.0973,311.0496,190721,,,,A*54
$GPGGA,205147.00,3726.2095060,N,12214.6693280,W,1,0,0.0,63.1456,M,0.0000,M,0.0000,0000*5a
$GPRMC,205147.00,A,3726.2095060,N,12214.6693280,W,26.6317,312.2590,190721,,,,A*5c
$GPGGA,205148.00,3726.2145700,N,12214.6762280,W,1,0,0.0,63.9996,M,0.0000,M,0.0000,0000*5e
$GPRMC,205148.00,A,3726.2145700,N,12214.6762280,W,27.1014,312.7331,190721,,,,A*5f
$GPGGA,205149.00,3726.2197120,N,12214.6832240,W,1,0,0.0,64.8076,M,0.0000,M,0.0000,0000*53
$GPRMC,205149.00,A,3726.2197120,N,12214.6832240,W,27.5551,312.4355,190721,,,,A*52
$GPGGA,205150.00,3726.2249380,N,12214.6904240,W,1,0,0.0,65.5826,M,0.0000,M,0.0000,0000*56
$GPRMC,205150.00,A,3726.2249380,N,12214.6904240,W,28.3044,312.1402,190721,,,,A*5e
$GPGGA,205151.00,3726.2303200,N,12214.6978520,W,1,0,0.0,66.2646,M,0.0000,M,0.0000,0000*57
$GPRMC,205151.00,A,3726.2303200,N,12214.6978520,W,29.2247,312.3697,190721,,,,A*5e
$GPGGA,205152.00,3726.2359000,N,12214.7054840,W,1,0,0.0,66.9596,M,0.0000,M,0.0000,0000*51
$GPRMC,205152.00,A,3726.2359000,N,12214.7054840,W,30.2149,312.6748,190721,,,,A*5e
$GPGGA,205153.00,3726.2417320,N,12214.7133740,W,1,0,0.0,67.6206,M,0.0000,M,0.0000,0000*53
$GPRMC,205153.00,A,3726.2417320,N,12214.7133740,W,31.4805,312.8492,190721,,,,A*50
$GPGGA,205154.00,3726.2478040,N,12214.7215820,W,1,0,0.0,68.3036,M,0.0000,M,0.0000,0000*5d
$GPRMC,205154.00,A,3726.2478040,N,12214.7215820,W,32.7651,312.8917,190721,,,,A*5a
$GPGGA,205155.00,3726.2541760,N,12214.7300540,W,1,0,0.0,69.0126,M,0.0000,M,0.0000,0000*5e
$GPRMC,205155.00,A,3726.2541760,N,12214.7300540,W,33.9452,313.4884,190721,,,,A*53
$GPGGA,205156.00,3726.2607400,N,12214.7386220,W,1,0,0.0,69.7336,M,0.0000,M,0.0000,0000*52
$GPRMC,205156.00,A,3726.2607400,N,12214.7386220,W,34.1088,314.0447,190721,,,,A*57
$GPGGA,205157.00,3726.2673700,N,12214.7471240,W,1,0,0.0,70.4756,M,0.0000,M,0.0000,0000*53
$GPRMC,205157.00,A,3726.2673700,N,12214.7471240,W,34.0681,314.5295,190721,,,,A*5d
$GPGGA,205158.00,3726.2739520,N,12214.7556320,W,1,0,0.0,71.2416,M,0.0000,M,0.0000,0000*50
$GPRMC,205158.00,A,3726.2739520,N,12214.7556320,W,33.9355,313.5234,190721,,,,A*50
$GPGGA,205159.00,3726.2804020,N,12214.7644100,W,1,0,0.0,71.9896,M,0.0000,M,0.0000,0000*5a
$GPRMC,205159.00,A,3726.2804020,N,12214.7644100,W,34.6288,312.1296,190721,,,,A*51
$GPGGA,205200.00,3726.2869600,N,12214.7734820,W,1,0,0.0,72.7426,M,0.0000,M,0.0000,0000*5d
$GPRMC,205200.00,A,3726.2869600,N,12214.7734820,W,35.7878,312.3314,190721,,,,A*50
$GPGGA,205201.00,3726.2938720,N,12214.7827880,W,1,0,0.0,73.5386,M,0.0000,M,0.0000,0000*53
$GPRMC,205201.00,A,3726.2938720,N,12214.7827880,W,36.9065,313.4797,190721,,,,A*50
$GPGGA,205202.00,3726.3011140,N,12214.7921600,W,1,0,0.0,74.3435,M,0.0000,M,0.0000,0000*5c
$GPRMC,205202.00,A,3726.3011140,N,12214.7921600,W,38.0370,314.5609,190721,,,,A*51
$GPGGA,205203.00,3726.3086080,N,12214.8015260,W,1,0,0.0,75.1766,M,0.0000,M,0.0000,0000*5b
$GPRMC,205203.00,A,3726.3086080,N,12214.8015260,W,37.8842,315.4917,190721,,,,A*5d
$GPGGA,205204.00,3726.3161380,N,12214.8107120,W,1,0,0.0,75.9346,M,0.0000,M,0.0000,0000*5c
$GPRMC,205204.00,A,3726.3161380,N,12214.8107120,W,37.7184,315.8857,190721,,,,A*51
$GPGGA,205205.00,3726.3236620,N,12214.8198380,W,1,0,0.0,76.6966,M,0.0000,M,0.0000,0000*59
$GPRMC,205205.00,A,3726.3236620,N,12214.8198380,W,37.4344,315.8804,190721,,,,A*5b
$GPGGA,205206.00,3726.3310480,N,12214.8288740,W,1,0,0.0,77.4566,M,0.0000,M,0.0000,0000*52
$GPRMC,205206.00,A,3726.3310480,N,12214.8288740,W,36.9499,315.4551,190721,,,,A*55
$GPGGA,205207.00,3726.3383500,N,12214.8379760,W,1,0,0.0,78.2136,M,0.0000,M,0.0000,0000*55
$GPRMC,205207.00,A,3726.3383500,N,12214.8379760,W,37.1376,314.9533,190721,,,,A*5d
$GPGGA,205208.00,3726.3456880,N,12214.8472040,W,1,0,0.0,78.9796,M,0.0000,M,0.0000,0000*5e
$GPRMC,205208.00,A,3726.3456880,N,12214.8472040,W,37.6805,314.7958,190721,,,,A*56
$GPGGA,205209.00,3726.3531520,N,12214.8566600,W,1,0,0.0,79.7676,M,0.0000,M,0.0000,0000*5e
$GPRMC,205209.00,A,3726.3531520,N,12214.8566600,W,38.6376,314.6102,190721,,,,A*50
$GPGGA,205210.00,3726.3607780,N,12214.8663380,W,1,0,0.0,80.5766,M,0.0000,M,0.0000,0000*57
$GPRMC,205210.00,A,3726.3607780,N,12214.8663380,W,39.2922,314.5779,190721,,,,A*5a
$GPGGA,205211.00,3726.3685120,N,12214.8761780,W,1,0,0.0,81.3866,M,0.0000,M,0.0000,0000*5f
$GPRMC,205211.00,A,3726.3685120,N,12214.8761780,W,39.8837,314.5381,190721,,,,A*56
$GPGGA,205212.00,3726.3763120,N,12214.8861080,W,1,0,0.0,82.2046,M,0.0000,M,0.0000,0000*55
$GPRMC,205212.00,A,3726.3763120,N,12214.8861080,W,40.0112,314.6305,190721,,,,A*53
$GPGGA,205213.00,3726.3841420,N,12214.8960380,W,1,0,0.0,83.0296,M,0.0000,M,0.0000,0000*51
$GPRMC,205213.00,A,3726.3841420,N,12214.8960380,W,40.0907,314.6341,190721,,,,A*57
$GPGGA,205214.00,3726.3919900,N,12214.9060400,W,1,0,0.0,83.8496,M,0.0000,M,0.0000,0000*5c
$GPRMC,205214.00,A,3726.3919900,N,12214.9060400,W,40.3800,314.2940,190721,,,,A*5e
$GPGGA,205215.00,3726.3998380,N,12214.9161800,W,1,0,0.0,84.6875,M,0.0000,M,0.0000,0000*52
$GPRMC,205215.00,A,3726.3998380,N,12214.9161800,W,40.6027,314.0411,190721,,,,A*5b
$GPGGA,205216.00,3726.4076920,N,12214.9263680,W,1,0,0.0,85.5565,M,0.0000,M,0.0000,0000*56
$GPRMC,205216.00,A,3726.4076920,N,12214.9263680,W,40.6769,313.9343,190721,,,,A*52
$GPGGA,205217.00,3726.4155640,N,12214.9366520,W,1,0,0.0,86.4265,M,0.0000,M,0.0000,0000*56
$GPRMC,205217.00,A,3726.4155640,N,12214.9366520,W,41.0553,313.6636,190721,,,,A*53
$GPGGA,205218.00,3726.4234480,N,12214.9470320,W,1,0,0.0,87.2806,M,0.0000,M,0.0000,0000*5d
$GPRMC,205218.00,A,3726.4234480,N,12214.9470320,W,41.1598,313.5595,190721,,,,A*5f
$GPGGA,205219.00,3726.4313500,N,12214.9574120,W,1,0,0.0,88.1305,M,0.0000,M,0.0000,0000*52
$GPRMC,205219.00,A,3726.4313500,N,12214.9574120,W,41.0907,313.7109,190721,,,,A*5c
$GPGGA,205220.00,3726.4392520,N,12214.9677560,W,1,0,0.0,88.9776,M,0.0000,M,0.0000,0000*5b
$GPRMC,205220.00,A,3726.4392520,N,12214.9677560,W,41.0593,313.8349,190721,,,,A*55
$GPGGA,205221.00,3726.4471720,N,12214.9780820,W,1,0,0.0,89.8106,M,0.0000,M,0.0000,0000*53
$GPRMC,205221.00,A,3726.4471720,N,12214.9780820,W,41.1161,313.8474,190721,,,,A*5d
$GPGGA,205222.00,3726.4551580,N,12214.9884500,W,1,0,0.0,90.6415,M,0.0000,M,0.0000,0000*5e
$GPRMC,205222.00,A,3726.4551580,N,12214.9884500,W,41.5626,314.0359,190721,,,,A*56
$GPGGA,205223.00,3726.4632400,N,12214.9989020,W,1,0,0.0,91.4936,M,0.0000,M,0.0000,0000*54
$GPRMC,205223.00,A,3726.4632400,N,12214.9989020,W,41.9479,314.0664,190721,,,,A*5c
$GPGGA,205224.00,3726.4713940,N,12215.0094860,W,1,0,0.0,92.3476,M,0.0000,M,0.0000,0000*54
$GPRMC,205224.00,A,3726.4713940,N,12215.0094860,W,42.4553,313.9436,190721,,,,A*5d
$GPGGA,205225.00,3726.4796500,N,12215.0201900,W,1,0,0.0,93.2175,M,0.0000,M,0.0000,0000*5f
$GPRMC,205225.00,A,3726.4796500,N,12215.0201900,W,42.9093,314.0190,190721,,,,A*53
$GPGGA,205226.00,3726.4879720,N,12215.0310200,W,1,0,0.0,94.1635,M,0.0000,M,0.0000,0000*5f
$GPRMC,205226.00,A,3726.4879720,N,12215.0310200,W,43.3158,313.8585,190721,,,,A*56
$GPGGA,205227.00,3726.4963540,N,12215.0419580,W,1,0,0.0,95.1705,M,0.0000,M,0.0000,0000*52
$GPRMC,205227.00,A,3726.4963540,N,12215.0419580,W,43.6811,313.8326,190721,,,,A*56
$GPGGA,205228.00,3726.5047900,N,12215.0530040,W,1,0,0.0,96.2045,M,0.0000,M,0.0000,0000*5b
$GPRMC,205228.00,A,3726.5047900,N,12215.0530040,W,44.0415,313.7710,190721,,,,A*5b
$GPGGA,205229.00,3726.5132980,N,12215.0641340,W,1,0,0.0,97.2455,M,0.0000,M,0.0000,0000*53
$GPRMC,205229.00,A,3726.5132980,N,12215.0641340,W,44.3440,313.8899,190721,,,,A*55
$GPGGA,205230.00,3726.5218180,N,12215.0753120,W,1,0,0.0,98.2995,M,0.0000,M,0.0000,0000*50
$GPRMC,205230.00,A,3726.5218180,N,12215.0753120,W,44.2671,313.6034,190721,,,,A*58
$GPGGA,205231.00,3726.5302180,N,12215.0865620,W,1,0,0.0,99.2785,M,0.0000,M,0.0000,0000*58
$GPRMC,205231.00,A,3726.5302180,N,12215.0865620,W,44.0878,312.5779,190721,,,,A*57
$GPGGA,205232.00,3726.5383720,N,12215.0980160,W,1,0,0.0,100.2195,M,0.0000,M,0.0000,0000*61
$GPRMC,205232.00,A,3726.5383720,N,12215.0980160,W,43.9736,311.1001,190721,,,,A*5c
$GPGGA,205233.00,3726.5462620,N,12215.1097220,W,1,0,0.0,101.1145,M,0.0000,M,0.0000,0000*6f
$GPRMC,205233.00,A,3726.5462620,N,12215.1097220,W,43.9168,309.6125,190721,,,,A*59
$GPGGA,205234.00,3726.5539240,N,12215.1216380,W,1,0,0.0,102.0265,M,0.0000,M,0.0000,0000*66
$GPRMC,205234.00,A,3726.5539240,N,12215.1216380,W,43.8119,308.2957,190721,,,,A*5c
$GPGGA,205235.00,3726.5612920,N,12215.1337760,W,1,0,0.0,102.9105,M,0.0000,M,0.0000,0000*64
$GPRMC,205235.00,A,3726.5612920,N,12215.1337760,W,43.6750,306.5855,190721,,,,A*5d
$GPGGA,205236.00,3726.5683780,N,12215.1461300,W,1,0,0.0,103.7965,M,0.0000,M,0.0000,0000*6c
$GPRMC,205236.00,A,3726.5683780,N,12215.1461300,W,43.5723,305.0030,190721,,,,A*5e
$GPGGA,205237.00,3726.5751880,N,12215.1586820,W,1,0,0.0,104.6535,M,0.0000,M,0.0000,0000*62
$GPRMC,205237.00,A,3726.5751880,N,12215.1586820,W,43.4800,303.5858,190721,,,,A*55
$GPGGA,205238.00,3726.5817220,N,12215.1714260,W,1,0,0.0,105.5425,M,0.0000,M,0.0000,0000*65
$GPRMC,205238.00,A,3726.5817220,N,12215.1714260,W,43.3883,302.1665,190721,,,,A*59
$GPGGA,205239.00,3726.5880040,N,12215.1843380,W,1,0,0.0,106.4125,M,0.0000,M,0.0000,0000*6b
$GPRMC,205239.00,A,3726.5880040,N,12215.1843380,W,43.2958,300.7538,190721,,,,A*59
$GPGGA,205240.00,3726.5940340,N,12215.1973940,W,1,0,0.0,107.2845,M,0.0000,M,0.0000,0000*67
$GPRMC,205240.00,A,3726.5940340,N,12215.1973940,W,43.2715,299.6091,190721,,,,A*5c
$GPGGA,205241.00,3726.5998600,N,12215.2106120,W,1,0,0.0,108.1465,M,0.0000,M,0.0000,0000*67
$GPRMC,205241.00,A,3726.5998600,N,12215.2106120,W,43.2744,298.4226,190721,,,,A*57
$GPGGA,205242.00,3726.6054460,N,12215.2239800,W,1,0,0.0,109.0265,M,0.0000,M,0.0000,0000*68
$GPRMC,205242.00,A,3726.6054460,N,12215.2239800,W,43.2834,297.0445,190721,,,,A*5e
$GPGGA,205243.00,3726.6107740,N,12215.2375280,W,1,0,0.0,109.9145,M,0.0000,M,0.0000,0000*6c
$GPRMC,205243.00,A,3726.6107740,N,12215.2375280,W,43.2769,295.6076,190721,,,,A*55
$GPGGA,205244.00,3726.6158140,N,12215.2512020,W,1,0,0.0,110.7975,M,0.0000,M,0.0000,0000*65
$GPRMC,205244.00,A,3726.6158140,N,12215.2512020,W,43.0920,294.2480,190721,,,,A*58
$GPGGA,205245.00,3726.6205720,N,12215.2649660,W,1,0,0.0,111.6725,M,0.0000,M,0.0000,0000*6b
$GPRMC,205245.00,A,3726.6205720,N,12215.2649660,W,42.8875,292.7784,190721,,,,A*51
$GPGGA,205246.00,3726.6250240,N,12215.2788140,W,1,0,0.0,112.5325,M,0.0000,M,0.0000,0000*66
$GPRMC,205246.00,A,3726.6250240,N,12215.2788140,W,42.7394,291.3056,190721,,,,A*5c
$GPGGA,205247.00,3726.6291940,N,12215.2928000,W,1,0,0.0,113.3945,M,0.0000,M,0.0000,0000*6b
$GPRMC,205247.00,A,3726.6291940,N,12215.2928000,W,42.7231,289.8956,190721,,,,A*5f
$GPGGA,205248.00,3726.6330580,N,12215.3067260,W,1,0,0.0,114.2396,M,0.0000,M,0.0000,0000*6b
$GPRMC,205248.00,A,3726.6330580,N,12215.3067260,W,41.8938,288.7549,190721,,,,A*5f
$GPGGA,205249.00,3726.6366820,N,12215.3206100,W,1,0,0.0,115.1065,M,0.0000,M,0.0000,0000*63
$GPRMC,205249.00,A,3726.6366820,N,12215.3206100,W,41.9103,287.6295,190721,,,,A*53
$GPGGA,205250.00,3726.6400720,N,12215.3345900,W,1,0,0.0,115.9456,M,0.0000,M,0.0000,0000*61
$GPRMC,205250.00,A,3726.6400720,N,12215.3345900,W,41.8140,286.3716,190721,,,,A*51
$GPGGA,205251.00,3726.6431920,N,12215.3486060,W,1,0,0.0,116.7996,M,0.0000,M,0.0000,0000*67
$GPRMC,205251.00,A,3726.6431920,N,12215.3486060,W,41.6353,284.9731,190721,,,,A*58
$GPGGA,205252.00,3726.6460180,N,12215.3626520,W,1,0,0.0,117.6435,M,0.0000,M,0.0000,0000*6f
$GPRMC,205252.00,A,3726.6460180,N,12215.3626520,W,41.4453,283.5669,190721,,,,A*56
$GPGGA,205253.00,3726.6485680,N,12215.3767280,W,1,0,0.0,118.4506,M,0.0000,M,0.0000,0000*67
$GPRMC,205253.00,A,3726.6485680,N,12215.3767280,W,41.2818,282.1743,190721,,,,A*5b
$GPGGA,205254.00,3726.6508300,N,12215.3908220,W,1,0,0.0,119.2426,M,0.0000,M,0.0000,0000*60
$GPRMC,205254.00,A,3726.6508300,N,12215.3908220,W,41.1382,280.8901,190721,,,,A*50
$GPGGA,205255.00,3726.6528460,N,12215.4049220,W,1,0,0.0,119.9686,M,0.0000,M,0.0000,0000*6a
$GPRMC,205255.00,A,3726.6528460,N,12215.4049220,W,41.0073,279.6978,190721,,,,A*53
$GPGGA,205256.00,3726.6546340,N,12215.4190340,W,1,0,0.0,120.6526,M,0.0000,M,0.0000,0000*6a
$GPRMC,205256.00,A,3726.6546340,N,12215.4190340,W,40.9514,278.6003,190721,,,,A*57
$GPGGA,205257.00,3726.6562000,N,12215.4332000,W,1,0,0.0,121.3166,M,0.0000,M,0.0000,0000*63
$GPRMC,205257.00,A,3726.6562000,N,12215.4332000,W,40.9916,277.3217,190721,,,,A*59
$GPGGA,205258.00,3726.6574780,N,12215.4474020,W,1,0,0.0,121.9526,M,0.0000,M,0.0000,0000*69
$GPRMC,205258.00,A,3726.6574780,N,12215.4474020,W,40.9586,275.8718,190721,,,,A*5f
$GPGGA,205259.00,3726.6584800,N,12215.4616340,W,1,0,0.0,122.5697,M,0.0000,M,0.0000,0000*65
$GPRMC,205259.00,A,3726.6584800,N,12215.4616340,W,40.9666,274.4139,190721,,,,A*50
$GPGGA,205300.00,3726.6592060,N,12215.4759140,W,1,0,0.0,123.1257,M,0.0000,M,0.0000,0000*64
$GPRMC,205300.00,A,3726.6592060,N,12215.4759140,W,41.0698,273.0426,190721,,,,A*5d
$GPGGA,205301.00,3726.6596560,N,12215.4902540,W,1,0,0.0,123.6447,M,0.0000,M,0.0000,0000*60
$GPRMC,205301.00,A,3726.6596560,N,12215.4902540,W,41.1863,271.7175,190721,,,,A*54
$GPGGA,205302.00,3726.6598600,N,12215.5046360,W,1,0,0.0,124.1417,M,0.0000,M,0.0000,0000*61
$GPRMC,205302.00,A,3726.6598600,N,12215.5046360,W,41.3259,270.4625,190721,,,,A*51
$GPGGA,205303.00,3726.6597880,N,12215.5190960,W,1,0,0.0,124.6097,M,0.0000,M,0.0000,0000*62
$GPRMC,205303.00,A,3726.6597880,N,12215.5190960,W,41.5659,269.0415,190721,,,,A*56
$GPGGA,205304.00,3726.6594340,N,12215.5336460,W,1,0,0.0,125.0128,M,0.0000,M,0.0000,0000*60
$GPRMC,205304.00,A,3726.6594340,N,12215.5336460,W,41.8938,267.6498,190721,,,,A*5e
$GPGGA,205305.00,3726.6588220,N,12215.5483040,W,1,0,0.0,125.3618,M,0.0000,M,0.0000,0000*63
$GPRMC,205305.00,A,3726.6588220,N,12215.5483040,W,42.2986,266.5025,190721,,,,A*56
$GPGGA,205306.00,3726.6579820,N,12215.5631120,W,1,0,0.0,125.6338,M,0.0000,M,0.0000,0000*6a
$GPRMC,205306.00,A,3726.6579820,N,12215.5631120,W,42.7912,265.4716,190721,,,,A*50
$GPGGA,205307.00,3726.6569260,N,12215.5780820,W,1,0,0.0,125.8688,M,0.0000,M,0.0000,0000*66
$GPRMC,205307.00,A,3726.6569260,N,12215.5780820,W,43.4725,264.5435,190721,,,,A*56
$GPGGA,205308.00,3726.6557200,N,12215.5933220,W,1,0,0.0,126.0679,M,0.0000,M,0.0000,0000*6b
$GPRMC,205308.00,A,3726.6557200,N,12215.5933220,W,44.2298,264.3083,190721,,,,A*53
$GPGGA,205309.00,3726.6545020,N,12215.6087540,W,1,0,0.0,126.2209,M,0.0000,M,0.0000,0000*6c
$GPRMC,205309.00,A,3726.6545020,N,12215.6087540,W,44.6729,264.4182,190721,,,,A*59
$GPGGA,205310.00,3726.6532900,N,12215.6243480,W,1,0,0.0,126.3389,M,0.0000,M,0.0000,0000*60
$GPRMC,205310.00,A,3726.6532900,N,12215.6243480,W,45.1534,264.3586,190721,,,,A*52
$GPGGA,205311.00,3726.6520420,N,12215.6401580,W,1,0,0.0,126.4209,M,0.0000,M,0.0000,0000*62
$GPRMC,205311.00,A,3726.6520420,N,12215.6401580,W,46.0493,264.2014,190721,,,,A*5f
$GPGGA,205312.00,3726.6507400,N,12215.6561780,W,1,0,0.0,126.5379,M,0.0000,M,0.0000,0000*64
$GPRMC,205312.00,A,3726.6507400,N,12215.6561780,W,45.9938,264.1670,190721,,,,A*5f
$GPGGA,205313.00,3726.6494500,N,12215.6720300,W,1,0,0.0,126.6929,M,0.0000,M,0.0000,0000*68
$GPRMC,205313.00,A,3726.6494500,N,12215.6720300,W,45.3505,264.0444,190721,,,,A*53
$GPGGA,205314.00,3726.6481420,N,12215.6876360,W,1,0,0.0,126.8699,M,0.0000,M,0.0000,0000*68
$GPRMC,205314.00,A,3726.6481420,N,12215.6876360,W,44.6217,263.9527,190721,,,,A*53
$GPGGA,205315.00,3726.6468460,N,12215.7029840,W,1,0,0.0,127.0429,M,0.0000,M,0.0000,0000*60
$GPRMC,205315.00,A,3726.6468460,N,12215.7029840,W,43.8936,263.9452,190721,,,,A*59
$GPGGA,205316.00,3726.6456160,N,12215.7181040,W,1,0,0.0,127.1469,M,0.0000,M,0.0000,0000*65
$GPRMC,205316.00,A,3726.6456160,N,12215.7181040,W,43.2055,264.2777,190721,,,,A*57
$GPGGA,205317.00,3726.6444460,N,12215.7329780,W,1,0,0.0,127.2939,M,0.0000,M,0.0000,0000*62
$GPRMC,205317.00,A,3726.6444460,N,12215.7329780,W,42.5069,264.3291,190721,,,,A*5e
$GPGGA,205318.00,3726.6432940,N,12215.7476120,W,1,0,0.0,127.4149,M,0.0000,M,0.0000,0000*6b
$GPRMC,205318.00,A,3726.6432940,N,12215.7476120,W,41.8256,264.3418,190721,,,,A*59
$GPGGA,205319.00,3726.6421900,N,12215.7620180,W,1,0,0.0,127.5079,M,0.0000,M,0.0000,0000*64
$GPRMC,205319.00,A,3726.6421900,N,12215.7620180,W,41.1723,264.5862,190721,,,,A*5c
$GPGGA,205320.00,3726.6411460,N,12215.7762140,W,1,0,0.0,127.5579,M,0.0000,M,0.0000,0000*68
$GPRMC,205320.00,A,3726.6411460,N,12215.7762140,W,40.5513,264.7587,190721,,,,A*55
$GPGGA,205321.00,3726.6401320,N,12215.7901880,W,1,0,0.0,127.6539,M,0.0000,M,0.0000,0000*62
$GPRMC,205321.00,A,3726.6401320,N,12215.7901880,W,39.9157,264.7643,190721,,,,A*55
$GPGGA,205322.00,3726.6391180,N,12215.8039400,W,1,0,0.0,127.7479,M,0.0000,M,0.0000,0000*6a
$GPRMC,205322.00,A,3726.6391180,N,12215.8039400,W,39.2983,264.5901,190721,,,,A*58
$GPGGA,205323.00,3726.6380740,N,12215.8175000,W,1,0,0.0,127.8059,M,0.0000,M,0.0000,0000*65
$GPRMC,205323.00,A,3726.6380740,N,12215.8175000,W,38.8093,264.3611,190721,,,,A*55
$GPGGA,205324.00,3726.6370480,N,12215.8308680,W,1,0,0.0,127.8729,M,0.0000,M,0.0000,0000*64
$GPRMC,205324.00,A,3726.6370480,N,12215.8308680,W,38.3662,264.6106,190721,,,,A*53
$GPGGA,205325.00,3726.6361180,N,12215.8442900,W,1,0,0.0,127.9099,M,0.0000,M,0.0000,0000*63
$GPRMC,205325.00,A,3726.6361180,N,12215.8442900,W,39.0548,265.3260,190721,,,,A*57
$GPGGA,205326.00,3726.6353740,N,12215.8580180,W,1,0,0.0,127.9100,M,0.0000,M,0.0000,0000*65
$GPRMC,205326.00,A,3726.6353740,N,12215.8580180,W,39.8802,266.7524,190721,,,,A*5b
$GPGGA,205327.00,3726.6349480,N,12215.8720640,W,1,0,0.0,127.8800,M,0.0000,M,0.0000,0000*6b
$GPRMC,205327.00,A,3726.6349480,N,12215.8720640,W,40.7018,268.5901,190721,,,,A*58
$GPGGA,205328.00,3726.6347860,N,12215.8863440,W,1,0,0.0,127.8620,M,0.0000,M,0.0000,0000*6e
$GPRMC,205328.00,A,3726.6347860,N,12215.8863440,W,41.0262,269.5874,190721,,,,A*5a
$GPGGA,205329.00,3726.6348520,N,12215.9007140,W,1,0,0.0,127.7910,M,0.0000,M,0.0000,0000*64
$GPRMC,205329.00,A,3726.6348520,N,12215.9007140,W,41.5276,270.7841,190721,,,,A*5f
$GPGGA,205330.00,3726.6351400,N,12215.9153420,W,1,0,0.0,127.7130,M,0.0000,M,0.0000,0000*6e
$GPRMC,205330.00,A,3726.6351400,N,12215.9153420,W,42.3613,271.8768,190721,,,,A*57
$GPGGA,205331.00,3726.6356740,N,12215.9302460,W,1,0,0.0,127.5920,M,0.0000,M,0.0000,0000*66
$GPRMC,205331.00,A,3726.6356740,N,12215.9302460,W,43.2123,273.0266,190721,,,,A*51
$GPGGA,205332.00,3726.6364840,N,12215.9454200,W,1,0,0.0,127.4490,M,0.0000,M,0.0000,0000*68
$GPRMC,205332.00,A,3726.6364840,N,12215.9454200,W,44.0132,274.4590,190721,,,,A*50
$GPGGA,205333.00,3726.6376180,N,12215.9608460,W,1,0,0.0,127.2510,M,0.0000,M,0.0000,0000*6b
$GPRMC,205333.00,A,3726.6376180,N,12215.9608460,W,44.8335,275.8753,190721,,,,A*51
$GPGGA,205334.00,3726.6390820,N,12215.9765300,W,1,0,0.0,127.0281,M,0.0000,M,0.0000,0000*61
$GPRMC,205334.00,A,3726.6390820,N,12215.9765300,W,45.7231,277.2359,190721,,,,A*5b
$GPGGA,205335.00,3726.6408700,N,12215.9924840,W,1,0,0.0,126.7321,M,0.0000,M,0.0000,0000*62
$GPRMC,205335.00,A,3726.6408700,N,12215.9924840,W,46.7640,278.5047,190721,,,,A*50
$GPGGA,205336.00,3726.6429580,N,12216.0087980,W,1,0,0.0,126.4271,M,0.0000,M,0.0000,0000*68
$GPRMC,205336.00,A,3726.6429580,N,12216.0087980,W,47.9427,279.5662,190721,,,,A*51
$GPGGA,205337.00,3726.6453580,N,12216.0254240,W,1,0,0.0,126.0811,M,0.0000,M,0.0000,0000*67
$GPRMC,205337.00,A,3726.6453580,N,12216.0254240,W,48.9051,280.8358,190721,,,,A*5b
$GPGGA,205338.00,3726.6481360,N,12216.0422660,W,1,0,0.0,125.7341,M,0.0000,M,0.0000,0000*64
$GPRMC,205338.00,A,3726.6481360,N,12216.0422660,W,49.7076,282.3891,190721,,,,A*5f
$GPGGA,205339.00,3726.6513400,N,12216.0592400,W,1,0,0.0,125.3711,M,0.0000,M,0.0000,0000*65
$GPRMC,205339.00,A,3726.6513400,N,12216.0592400,W,50.1987,284.1984,190721,,,,A*53
$GPGGA,205340.00,3726.6549700,N,12216.0761000,W,1,0,0.0,125.0161,M,0.0000,M,0.0000,0000*6f
$GPRMC,205340.00,A,3726.6549700,N,12216.0761000,W,49.9495,285.8404,190721,,,,A*58
$GPGGA,205341.00,3726.6589420,N,12216.0927320,W,1,0,0.0,124.6322,M,0.0000,M,0.0000,0000*6c
$GPRMC,205341.00,A,3726.6589420,N,12216.0927320,W,49.5803,287.3591,190721,,,,A*52
$GPGGA,205342.00,3726.6632380,N,12216.1090940,W,1,0,0.0,124.2681,M,0.0000,M,0.0000,0000*61
$GPRMC,205342.00,A,3726.6632380,N,12216.1090940,W,49.2182,288.8870,190721,,,,A*56
$GPGGA,205343.00,3726.6678400,N,12216.1251920,W,1,0,0.0,123.8971,M,0.0000,M,0.0000,0000*65
$GPRMC,205343.00,A,3726.6678400,N,12216.1251920,W,48.8477,290.3533,190721,,,,A*53
$GPGGA,205344.00,3726.6727240,N,12216.1410260,W,1,0,0.0,123.5321,M,0.0000,M,0.0000,0000*65
$GPRMC,205344.00,A,3726.6727240,N,12216.1410260,W,48.5611,291.8242,190721,,,,A*55
$GPGGA,205345.00,3726.6779260,N,12216.1567040,W,1,0,0.0,123.1042,M,0.0000,M,0.0000,0000*6e
$GPRMC,205345.00,A,3726.6779260,N,12216.1567040,W,48.9297,293.2511,190721,,,,A*53
$GPGGA,205346.00,3726.6834700,N,12216.1724060,W,1,0,0.0,122.7051,M,0.0000,M,0.0000,0000*6a
$GPRMC,205346.00,A,3726.6834700,N,12216.1724060,W,49.5077,294.2815,190721,,,,A*5d
$GPGGA,205347.00,3726.6892960,N,12216.1881080,W,1,0,0.0,122.3801,M,0.0000,M,0.0000,0000*68
$GPRMC,205347.00,A,3726.6892960,N,12216.1881080,W,49.7825,295.5304,190721,,,,A*56
$GPGGA,205348.00,3726.6954340,N,12216.2037320,W,1,0,0.0,122.0251,M,0.0000,M,0.0000,0000*67
$GPRMC,205348.00,A,3726.6954340,N,12216.2037320,W,50.1351,296.8310,190721,,,,A*58
$GPGGA,205349.00,3726.7019140,N,12216.2192840,W,1,0,0.0,121.7122,M,0.0000,M,0.0000,0000*65
$GPRMC,205349.00,A,3726.7019140,N,12216.2192840,W,50.5257,298.1609,190721,,,,A*50
$GPGGA,205350.00,3726.7087540,N,12216.2347580,W,1,0,0.0,121.3941,M,0.0000,M,0.0000,0000*6c
$GPRMC,205350.00,A,3726.7087540,N,12216.2347580,W,50.9095,299.7886,190721,,,,A*5e
$GPGGA,205351.00,3726.7160260,N,12216.2500400,W,1,0,0.0,121.1491,M,0.0000,M,0.0000,0000*6e
$GPRMC,205351.00,A,3726.7160260,N,12216.2500400,W,51.1553,301.5318,190721,,,,A*56
$GPGGA,205352.00,3726.7236520,N,12216.2651600,W,1,0,0.0,120.9810,M,0.0000,M,0.0000,0000*67
$GPRMC,205352.00,A,3726.7236520,N,12216.2651600,W,51.4494,303.0585,190721,,,,A*59
$GPGGA,205353.00,3726.7316680,N,12216.2800760,W,1,0,0.0,120.8640,M,0.0000,M,0.0000,0000*6b
$GPRMC,205353.00,A,3726.7316680,N,12216.2800760,W,51.7268,304.7377,190721,,,,A*52
$GPGGA,205354.00,3726.7400740,N,12216.2947700,W,1,0,0.0,120.7889,M,0.0000,M,0.0000,0000*61
$GPRMC,205354.00,A,3726.7400740,N,12216.2947700,W,51.9578,306.4128,190721,,,,A*5d
$GPGGA,205355.00,3726.7488220,N,12216.3092180,W,1,0,0.0,120.8079,M,0.0000,M,0.0000,0000*65
$GPRMC,205355.00,A,3726.7488220,N,12216.3092180,W,52.1149,307.8498,190721,,,,A*5f
$GPGGA,205356.00,3726.7578520,N,12216.3234560,W,1,0,0.0,120.9448,M,0.0000,M,0.0000,0000*6c
$GPRMC,205356.00,A,3726.7578520,N,12216.3234560,W,52.1935,309.0923,190721,,,,A*59
$GPGGA,205357.00,3726.7671400,N,12216.3374540,W,1,0,0.0,121.1688,M,0.0000,M,0.0000,0000*64
$GPRMC,205357.00,A,3726.7671400,N,12216.3374540,W,52.1633,310.2842,190721,,,,A*53
$GPGGA,205358.00,3726.7765960,N,12216.3512060,W,1,0,0.0,121.4378,M,0.0000,M,0.0000,0000*6a
$GPRMC,205358.00,A,3726.7765960,N,12216.3512060,W,52.0183,311.1859,190721,,,,A*57
$GPGGA,205359.00,3726.7861180,N,12216.3648440,W,1,0,0.0,121.7928,M,0.0000,M,0.0000,0000*60
$GPRMC,205359.00,A,3726.7861180,N,12216.3648440,W,51.8979,311.0558,190721,,,,A*5a
$GPGGA,205400.00,3726.7955980,N,12216.3784580,W,1,0,0.0,122.1668,M,0.0000,M,0.0000,0000*67
$GPRMC,205400.00,A,3726.7955980,N,12216.3784580,W,51.7570,311.1349,190721,,,,A*5e
$GPGGA,205401.00,3726.8050780,N,12216.3920240,W,1,0,0.0,122.5457,M,0.0000,M,0.0000,0000*6a
$GPRMC,205401.00,A,3726.8050780,N,12216.3920240,W,51.6057,311.2134,190721,,,,A*53
$GPGGA,205402.00,3726.8145280,N,12216.4055180,W,1,0,0.0,123.0107,M,0.0000,M,0.0000,0000*6e
$GPRMC,205402.00,A,3726.8145280,N,12216.4055180,W,51.4237,311.2973,190721,,,,A*5e
$GPGGA,205403.00,3726.8239480,N,12216.4189640,W,1,0,0.0,123.5297,M,0.0000,M,0.0000,0000*65
$GPRMC,205403.00,A,3726.8239480,N,12216.4189640,W,51.1763,311.1652,190721,,,,A*54
$GPGGA,205404.00,3726.8332840,N,12216.4323860,W,1,0,0.0,124.0897,M,0.0000,M,0.0000,0000*6e
$GPRMC,205404.00,A,3726.8332840,N,12216.4323860,W,50.9126,310.9722,190721,,,,A*56
$GPGGA,205405.00,3726.8425600,N,12216.4457360,W,1,0,0.0,124.7196,M,0.0000,M,0.0000,0000*64
$GPRMC,205405.00,A,3726.8425600,N,12216.4457360,W,50.6347,311.0969,190721,,,,A*50
$GPGGA,205406.00,3726.8518060,N,12216.4589960,W,1,0,0.0,125.4126,M,0.0000,M,0.0000,0000*69
$GPRMC,205406.00,A,3726.8518060,N,12216.4589960,W,50.3728,311.1767,190721,,,,A*5d
$GPGGA,205407.00,3726.8610220,N,12216.4721720,W,1,0,0.0,126.1396,M,0.0000,M,0.0000,0000*60
$GPRMC,205407.00,A,3726.8610220,N,12216.4721720,W,50.1050,311.2178,190721,,,,A*5a
$GPGGA,205408.00,3726.8701900,N,12216.4852760,W,1,0,0.0,126.8536,M,0.0000,M,0.0000,0000*6d
$GPRMC,205408.00,A,3726.8701900,N,12216.4852760,W,49.8623,311.2349,190721,,,,A*51
$GPGGA,205409.00,3726.8793160,N,12216.4983140,W,1,0,0.0,127.5866,M,0.0000,M,0.0000,0000*64
$GPRMC,205409.00,A,3726.8793160,N,12216.4983140,W,49.5768,311.2352,190721,,,,A*55
$GPGGA,205410.00,3726.8883940,N,12216.5112620,W,1,0,0.0,128.3246,M,0.0000,M,0.0000,0000*69
$GPRMC,205410.00,A,3726.8883940,N,12216.5112620,W,49.4438,311.3562,190721,,,,A*5a
$GPGGA,205411.00,3726.8974960,N,12216.5242040,W,1,0,0.0,129.0816,M,0.0000,M,0.0000,0000*68
$GPRMC,205411.00,A,3726.8974960,N,12216.5242040,W,49.5194,311.3693,190721,,,,A*59
$GPGGA,205412.00,3726.9066580,N,12216.5371580,W,1,0,0.0,129.8076,M,0.0000,M,0.0000,0000*6c
$GPRMC,205412.00,A,3726.9066580,N,12216.5371580,W,49.8250,311.7266,190721,,,,A*57
$GPGGA,205413.00,3726.9159460,N,12216.5501540,W,1,0,0.0,130.5196,M,0.0000,M,0.0000,0000*68
$GPRMC,205413.00,A,3726.9159460,N,12216.5501540,W,50.2517,311.8296,190721,,,,A*5f
$GPGGA,205414.00,3726.9253000,N,12216.5632520,W,1,0,0.0,131.2536,M,0.0000,M,0.0000,0000*69
$GPRMC,205414.00,A,3726.9253000,N,12216.5632520,W,50.5010,311.7636,190721,,,,A*52
$GPGGA,205415.00,3726.9346120,N,12216.5764100,W,1,0,0.0,131.9986,M,0.0000,M,0.0000,0000*66
$GPRMC,205415.00,A,3726.9346120,N,12216.5764100,W,50.3373,311.0654,190721,,,,A*52
$GPGGA,205416.00,3726.9437500,N,12216.5896760,W,1,0,0.0,132.7376,M,0.0000,M,0.0000,0000*68
$GPRMC,205416.00,A,3726.9437500,N,12216.5896760,W,50.2071,310.4444,190721,,,,A*52
$GPGGA,205417.00,3726.9527680,N,12216.6030560,W,1,0,0.0,133.4376,M,0.0000,M,0.0000,0000*65
$GPRMC,205417.00,A,3726.9527680,N,12216.6030560,W,50.3074,309.8888,190721,,,,A*51
$GPGGA,205418.00,3726.9617800,N,12216.6165380,W,1,0,0.0,134.1236,M,0.0000,M,0.0000,0000*62
$GPRMC,205418.00,A,3726.9617800,N,12216.6165380,W,50.5395,309.9483,190721,,,,A*5d
$GPGGA,205419.00,3726.9708040,N,12216.6300200,W,1,0,0.0,134.7716,M,0.0000,M,0.0000,0000*69
$GPRMC,205419.00,A,3726.9708040,N,12216.6300200,W,50.1770,310.0004,190721,,,,A*56
$GPGGA,205420.00,3726.9796720,N,12216.6433400,W,1,0,0.0,135.3427,M,0.0000,M,0.0000,0000*60
$GPRMC,205420.00,A,3726.9796720,N,12216.6433400,W,49.3390,309.5710,190721,,,,A*54
$GPGGA,205421.00,3726.9883300,N,12216.6565160,W,1,0,0.0,135.7718,M,0.0000,M,0.0000,0000*66
$GPRMC,205421.00,A,3726.9883300,N,12216.6565160,W,48.5705,309.4243,190721,,,,A*54
$GPGGA,205422.00,3726.9968500,N,12216.6695180,W,1,0,0.0,136.2447,M,0.0000,M,0.0000,0000*6a
$GPRMC,205422.00,A,3726.9968500,N,12216.6695180,W,47.9747,309.4273,190721,,,,A*51
$GPGGA,205423.00,3727.0053160,N,12216.6824240,W,1,0,0.0,136.6498,M,0.0000,M,0.0000,0000*6d
$GPRMC,205423.00,A,3727.0053160,N,12216.6824240,W,47.9190,309.4037,190721,,,,A*5e
$GPGGA,205424.00,3727.0137940,N,12216.6953660,W,1,0,0.0,137.0188,M,0.0000,M,0.0000,0000*67
$GPRMC,205424.00,A,3727.0137940,N,12216.6953660,W,48.0995,309.4323,190721,,,,A*5a
$GPGGA,205425.00,3727.0223020,N,12216.7082780,W,1,0,0.0,137.4655,M,0.0000,M,0.0000,0000*67
$GPRMC,205425.00,A,3727.0223020,N,12216.7082780,W,47.8922,309.5867,190721,,,,A*58
$GPGGA,205426.00,3727.0308160,N,12216.7210880,W,1,0,0.0,137.7678,M,0.0000,M,0.0000,0000*63
$GPRMC,205426.00,A,3727.0308160,N,12216.7210880,W,47.7064,309.7835,190721,,,,A*51
$GPGGA,205427.00,3727.0393060,N,12216.7338740,W,1,0,0.0,138.0218,M,0.0000,M,0.0000,0000*63
$GPRMC,205427.00,A,3727.0393060,N,12216.7338740,W,47.7905,309.7870,190721,,,,A*54
$GPGGA,205428.00,3727.0478440,N,12216.7467380,W,1,0,0.0,138.1929,M,0.0000,M,0.0000,0000*65
$GPRMC,205428.00,A,3727.0478440,N,12216.7467380,W,48.1319,309.5384,190721,,,,A*56
$GPGGA,205429.00,3727.0563880,N,12216.7597280,W,1,0,0.0,138.3349,M,0.0000,M,0.0000,0000*6e
$GPRMC,205429.00,A,3727.0563880,N,12216.7597280,W,48.4660,309.4982,190721,,,,A*50
$GPGGA,205430.00,3727.0650220,N,12216.7727900,W,1,0,0.0,138.3879,M,0.0000,M,0.0000,0000*67
$GPRMC,205430.00,A,3727.0650220,N,12216.7727900,W,48.8020,309.7413,190721,,,,A*59
$GPGGA,205431.00,3727.0737400,N,12216.7858940,W,1,0,0.0,138.4069,M,0.0000,M,0.0000,0000*6f
$GPRMC,205431.00,A,3727.0737400,N,12216.7858940,W,49.0338,309.7792,190721,,,,A*56
$GPGGA,205432.00,3727.0824580,N,12216.7990820,W,1,0,0.0,138.4229,M,0.0000,M,0.0000,0000*6c
$GPRMC,205432.00,A,3727.0824580,N,12216.7990820,W,49.1932,309.4439,190721,,,,A*53
$GPGGA,205433.00,3727.0911880,N,12216.8123420,W,1,0,0.0,138.4180,M,0.0000,M,0.0000,0000*64
$GPRMC,205433.00,A,3727.0911880,N,12216.8123420,W,49.3764,309.4184,190721,,,,A*57
$GPGGA,205434.00,3727.0999000,N,12216.8257040,W,1,0,0.0,138.3830,M,0.0000,M,0.0000,0000*64
$GPRMC,205434.00,A,3727.0999000,N,12216.8257040,W,49.5776,308.9876,190721,,,,A*5f
$GPGGA,205435.00,3727.1085400,N,12216.8391440,W,1,0,0.0,138.2700,M,0.0000,M,0.0000,0000*66
$GPRMC,205435.00,A,3727.1085400,N,12216.8391440,W,49.4180,308.7478,190721,,,,A*52
$GPGGA,205436.00,3727.1171800,N,12216.8525780,W,1,0,0.0,138.1570,M,0.0000,M,0.0000,0000*63
$GPRMC,205436.00,A,3727.1171800,N,12216.8525780,W,49.4957,308.9893,190721,,,,A*54
$GPGGA,205437.00,3727.1259040,N,12216.8659400,W,1,0,0.0,137.9760,M,0.0000,M,0.0000,0000*60
$GPRMC,205437.00,A,3727.1259040,N,12216.8659400,W,49.5666,309.4118,190721,,,,A*59
$GPGGA,205438.00,3727.1347180,N,12216.8792840,W,1,0,0.0,137.7161,M,0.0000,M,0.0000,0000*6b
$GPRMC,205438.00,A,3727.1347180,N,12216.8792840,W,49.8284,309.7580,190721,,,,A*58
$GPGGA,205439.00,3727.1436220,N,12216.8926880,W,1,0,0.0,137.4421,M,0.0000,M,0.0000,0000*6d
$GPRMC,205439.00,A,3727.1436220,N,12216.8926880,W,50.2061,309.6646,190721,,,,A*5f
$GPGGA,205440.00,3727.1525620,N,12216.9062660,W,1,0,0.0,137.0881,M,0.0000,M,0.0000,0000*6e
$GPRMC,205440.00,A,3727.1525620,N,12216.9062660,W,50.7400,309.3507,190721,,,,A*5b
$GPGGA,205441.00,3727.1615560,N,12216.9200420,W,1,0,0.0,136.7191,M,0.0000,M,0.0000,0000*66
$GPRMC,205441.00,A,3727.1615560,N,12216.9200420,W,51.3290,309.1950,190721,,,,A*5b
$GPGGA,205442.00,3727.1706580,N,12216.9339920,W,1,0,0.0,136.3112,M,0.0000,M,0.0000,0000*61
$GPRMC,205442.00,A,3727.1706580,N,12216.9339920,W,52.0445,309.3267,190721,,,,A*50
$GPGGA,205443.00,3727.1799220,N,12216.9481280,W,1,0,0.0,135.8242,M,0.0000,M,0.0000,0000*60
$GPRMC,205443.00,A,3727.1799220,N,12216.9481280,W,52.8633,309.4819,190721,,,,A*50
$GPGGA,205444.00,3727.1893720,N,12216.9624440,W,1,0,0.0,135.2742,M,0.0000,M,0.0000,0000*6f
$GPRMC,205444.00,A,3727.1893720,N,12216.9624440,W,53.7495,309.5860,190721,,,,A*5f
$GPGGA,205445.00,3727.1990080,N,12216.9770000,W,1,0,0.0,134.6763,M,0.0000,M,0.0000,0000*67
$GPRMC,205445.00,A,3727.1990080,N,12216.9770000,W,54.7200,309.6874,190721,,,,A*5a
$GPGGA,205446.00,3727.2088180,N,12216.9917960,W,1,0,0.0,134.0572,M,0.0000,M,0.0000,0000*62
$GPRMC,205446.00,A,3727.2088180,N,12216.9917960,W,55.5786,309.6753,190721,,,,A*59
$GPGGA,205447.00,3727.2187480,N,12217.0068560,W,1,0,0.0,133.4282,M,0.0000,M,0.0000,0000*66
$GPRMC,205447.00,A,3727.2187480,N,12217.0068560,W,56.4465,309.2809,190721,,,,A*5e
$GPGGA,205448.00,3727.2287560,N,12217.0222040,W,1,0,0.0,132.7823,M,0.0000,M,0.0000,0000*6d
$GPRMC,205448.00,A,3727.2287560,N,12217.0222040,W,57.2399,309.2305,190721,,,,A*52
$GPGGA,205449.00,3727.2388720,N,12217.0376780,W,1,0,0.0,132.1543,M,0.0000,M,0.0000,0000*62
$GPRMC,205449.00,A,3727.2388720,N,12217.0376780,W,57.2962,309.3394,190721,,,,A*57
$GPGGA,205450.00,3727.2489460,N,12217.0530980,W,1,0,0.0,131.5053,M,0.0000,M,0.0000,0000*62
$GPRMC,205450.00,A,3727.2489460,N,12217.0530980,W,57.0171,309.4236,190721,,,,A*52
$GPGGA,205451.00,3727.2590500,N,12217.0683980,W,1,0,0.0,130.8502,M,0.0000,M,0.0000,0000*6b
$GPRMC,205451.00,A,3727.2590500,N,12217.0683980,W,56.9119,309.7132,190721,,,,A*54
$GPGGA,205452.00,3727.2691780,N,12217.0836560,W,1,0,0.0,130.2063,M,0.0000,M,0.0000,0000*6a
$GPRMC,205452.00,A,3727.2691780,N,12217.0836560,W,56.9252,309.6980,190721,,,,A*51
$GPGGA,205453.00,3727.2793120,N,12217.0989200,W,1,0,0.0,129.5483,M,0.0000,M,0.0000,0000*65
$GPRMC,205453.00,A,3727.2793120,N,12217.0989200,W,56.9650,309.6999,190721,,,,A*55
$GPGGA,205454.00,3727.2894160,N,12217.1142260,W,1,0,0.0,128.9183,M,0.0000,M,0.0000,0000*6e
$GPRMC,205454.00,A,3727.2894160,N,12217.1142260,W,56.9843,309.4153,190721,,,,A*56
$GPGGA,205455.00,3727.2994780,N,12217.1296100,W,1,0,0.0,128.2563,M,0.0000,M,0.0000,0000*68
$GPRMC,205455.00,A,3727.2994780,N,12217.1296100,W,57.0591,309.2649,190721,,,,A*51
$GPGGA,205456.00,3727.3095400,N,12217.1450300,W,1,0,0.0,127.6063,M,0.0000,M,0.0000,0000*69
$GPRMC,205456.00,A,3727.3095400,N,12217.1450300,W,57.1698,309.2520,190721,,,,A*59
$GPGGA,205457.00,3727.3196560,N,12217.1604440,W,1,0,0.0,126.9353,M,0.0000,M,0.0000,0000*63
$GPRMC,205457.00,A,3727.3196560,N,12217.1604440,W,57.2712,309.5343,190721,,,,A*59
$GPGGA,205458.00,3727.3297960,N,12217.1758580,W,1,0,0.0,126.2523,M,0.0000,M,0.0000,0000*6d
$GPRMC,205458.00,A,3727.3297960,N,12217.1758580,W,57.3352,309.3139,190721,,,,A*55
$GPGGA,205459.00,3727.3399120,N,12217.1913500,W,1,0,0.0,125.5203,M,0.0000,M,0.0000,0000*67
$GPRMC,205459.00,A,3727.3399120,N,12217.1913500,W,57.4845,309.2971,190721,,,,A*51
$GPGGA,205500.00,3727.3501240,N,12217.2068420,W,1,0,0.0,124.7353,M,0.0000,M,0.0000,0000*6a
$GPRMC,205500.00,A,3727.3501240,N,12217.2068420,W,57.7492,309.8649,190721,,,,A*50
$GPGGA,205501.00,3727.3605340,N,12217.2222320,W,1,0,0.0,124.0073,M,0.0000,M,0.0000,0000*60
$GPRMC,205501.00,A,3727.3605340,N,12217.2222320,W,57.9901,310.6555,190721,,,,A*5d
$GPGGA,205502.00,3727.3712080,N,12217.2374180,W,1,0,0.0,123.4642,M,0.0000,M,0.0000,0000*66
$GPRMC,205502.00,A,3727.3712080,N,12217.2374180,W,58.0786,312.1731,190721,,,,A*5e
$GPGGA,205503.00,3727.3822660,N,12217.2521960,W,1,0,0.0,123.0541,M,0.0000,M,0.0000,0000*67
$GPRMC,205503.00,A,3727.3822660,N,12217.2521960,W,58.1680,314.1096,190721,,,,A*51
$GPGGA,205504.00,3727.3937920,N,12217.2664760,W,1,0,0.0,122.7770,M,0.0000,M,0.0000,0000*64
$GPRMC,205504.00,A,3727.3937920,N,12217.2664760,W,58.4045,316.4418,190721,,,,A*5b
$GPGGA,205505.00,3727.4057980,N,12217.2802580,W,1,0,0.0,122.6180,M,0.0000,M,0.0000,0000*6d
$GPRMC,205505.00,A,3727.4057980,N,12217.2802580,W,58.6426,318.5692,190721,,,,A*56
$GPGGA,205506.00,3727.4182060,N,12217.2935780,W,1,0,0.0,122.5739,M,0.0000,M,0.0000,0000*60
$GPRMC,205506.00,A,3727.4182060,N,12217.2935780,W,58.8479,320.2405,190721,,,,A*58
$GPGGA,205507.00,3727.4309680,N,12217.3064720,W,1,0,0.0,122.6798,M,0.0000,M,0.0000,0000*66
$GPRMC,205507.00,A,3727.4309680,N,12217.3064720,W,58.8670,322.0329,190721,,,,A*54
$GPGGA,205508.00,3727.4439940,N,12217.3187360,W,1,0,0.0,122.9048,M,0.0000,M,0.0000,0000*67
$GPRMC,205508.00,A,3727.4439940,N,12217.3187360,W,58.3948,324.1860,190721,,,,A*5e
