% program   : RTKLIB ver.demo5 gdsc_2022
% inp file  : supplemental\gnss_log.obs
% inp file  : ..\slac1770.20o
% inp file  : ..\BRDM00DLR_S_20201770000_01D_MN.rnx
% obs start : 2020/06/25 00:34:29.4 GPST (week2111 347669.4s)
% obs end   : 2020/06/25 00:56:11.4 GPST (week2111 348971.4s)
% pos mode  : Kinematic
% freqs     : L1+L2/E5b+L5
% solution  : Combined-No Phase Reset
% elev mask : 5.0 deg
% dynamics  : on
% tidecorr  : off
% ionos opt : Broadcast
% tropo opt : Saastamoinen
% ephemeris : Broadcast
% navi sys  : GPS GLONASS Galileo
% amb res   : OFF
% amb glo   : OFF
% val thres : 3.0
% antenna1  :                       ( 0.0000  0.0000  0.0000)
% antenna2  :                       ( 0.0000  0.0000  0.0000)
% ref pos   : 37.416519040-122.204268280   63.7780
%
% (lat/lon/height=WGS84/ellipsoidal,Q=1:fix,2:float,3:sbas,4:dgps,5:single,6:ppp,ns=# of satellites)
%  GPST          latitude(deg) longitude(deg)  height(m)   Q  ns   sdn(m)   sde(m)   sdu(m)  sdne(m)  sdeu(m)  sdun(m) age(s)  ratio
2111 347669.448   37.428299167 -122.072516468   -26.6498   2  11   0.4025   0.4669   0.9268   0.0998  -0.4301  -0.1796  -0.55    0.0
2111 347670.448   37.428297133 -122.072523850   -25.7566   2  14   0.2792   0.3243   0.6443   0.0733  -0.3081  -0.1341   0.45    0.0
2111 347671.448   37.428297418 -122.072530138   -25.7905   2  15   0.2309   0.2721   0.5402   0.0700  -0.2474  -0.1047   1.45    0.0
2111 347672.448   37.428297863 -122.072532624   -26.0367   2  17   0.2038   0.2412   0.4785   0.0659  -0.2107  -0.0947   2.45    0.0
2111 347673.448   37.428294330 -122.072531263   -26.2400   2  15   0.1784   0.2175   0.4223   0.0577  -0.1932  -0.0717   3.45    0.0
2111 347674.448   37.428287015 -122.072540011   -26.0028   2  12   0.1607   0.1972   0.3809   0.0447  -0.1760  -0.0484   4.45    0.0
2111 347675.448   37.428276715 -122.072555807   -26.1164   2  14   0.1437   0.1801   0.3443   0.0304  -0.1593  -0.0082   5.45    0.0
2111 347676.448   37.428271553 -122.072587039   -26.0046   2  16   0.1317   0.1663   0.3173   0.0146  -0.1550  -0.0232   6.45    0.0
2111 347677.448   37.428279640 -122.072627573   -26.3377   2  17   0.1240   0.1580   0.3025  -0.0290  -0.1512  -0.0251   7.45    0.0
2111 347678.448   37.428306303 -122.072675388   -26.5034   2  19   0.1166   0.1528   0.2900  -0.0380  -0.1465  -0.0242   8.45    0.0
2111 347679.448   37.428340485 -122.072741603   -26.8991   2  19   0.1103   0.1477   0.2772  -0.0420  -0.1406  -0.0255   9.45    0.0
2111 347680.448   37.428368016 -122.072831574   -27.1984   2  20   0.1045   0.1412   0.2654  -0.0439  -0.1368  -0.0183  10.45    0.0
2111 347681.448   37.428381344 -122.072940392   -27.4875   2  18   0.0999   0.1363   0.2542  -0.0440  -0.1306  -0.0264  11.45    0.0
2111 347682.448   37.428384096 -122.073065710   -27.3054   2  17   0.0969   0.1319   0.2459  -0.0431  -0.1263  -0.0272  12.45    0.0
2111 347683.448   37.428381692 -122.073203059   -27.0822   2  18   0.0944   0.1273   0.2383  -0.0408  -0.1225  -0.0287  13.45    0.0
2111 347684.448   37.428378810 -122.073349414   -26.8631   2  16   0.0925   0.1241   0.2322  -0.0396  -0.1197  -0.0303  14.45    0.0
2111 347685.448   37.428377735 -122.073505896   -26.6419   2  16   0.0905   0.1212   0.2264  -0.0395  -0.1174  -0.0277 -14.55    0.0
2111 347686.448   37.428376751 -122.073672493   -26.3995   2  16   0.0887   0.1189   0.2212  -0.0396  -0.1153  -0.0281 -13.55    0.0
2111 347687.448   37.428376340 -122.073842120   -26.2614   2  15   0.0864   0.1168   0.2158  -0.0390  -0.1129  -0.0299 -12.55    0.0
2111 347688.448   37.428375947 -122.074010909   -26.2453   2  17   0.0843   0.1146   0.2106  -0.0387  -0.1104  -0.0297 -11.55    0.0
2111 347689.448   37.428374852 -122.074185636   -26.2810   2  17   0.0826   0.1122   0.2063  -0.0379  -0.1080  -0.0293 -10.55    0.0
2111 347690.448   37.428373490 -122.074365266   -26.2177   2  17   0.0810   0.1101   0.2023  -0.0372  -0.1058  -0.0288  -9.55    0.0
2111 347691.448   37.428372531 -122.074548526   -26.3216   2  17   0.0796   0.1081   0.1984  -0.0366  -0.1036  -0.0292  -8.55    0.0
2111 347692.448   37.428373269 -122.074738504   -26.4833   2  16   0.0781   0.1062   0.1951  -0.0359  -0.1014  -0.0290  -7.55    0.0
2111 347693.448   37.428374832 -122.074936087   -26.7645   2  17   0.0765   0.1045   0.1911  -0.0354  -0.0995  -0.0293  -6.55    0.0
2111 347694.448   37.428376757 -122.075139202   -27.1095   2  16   0.0753   0.1030   0.1879  -0.0351  -0.0978  -0.0295  -5.55    0.0
2111 347695.448   37.428377561 -122.075343575   -27.3886   2  16   0.0743   0.1015   0.1849  -0.0347  -0.0963  -0.0295  -4.55    0.0
2111 347696.448   37.428378516 -122.075546517   -27.4914   2  16   0.0730   0.0998   0.1817  -0.0342  -0.0950  -0.0290  -3.55    0.0
2111 347697.448   37.428379134 -122.075748275   -27.5627   2  17   0.0720   0.0989   0.1790  -0.0343  -0.0939  -0.0278  -2.55    0.0
2111 347698.448   37.428379513 -122.075947864   -27.6422   2  17   0.0710   0.0977   0.1762  -0.0339  -0.0925  -0.0277  -1.55    0.0
2111 347699.448   37.428378919 -122.076145302   -27.6913   2  18   0.0703   0.0964   0.1737  -0.0336  -0.0913  -0.0276  -0.55    0.0
2111 347700.448   37.428371529 -122.076340675   -27.7691   2  19   0.0692   0.0946   0.1709  -0.0332  -0.0900  -0.0264   0.45    0.0
2111 347701.448   37.428351643 -122.076533559   -27.7109   2  18   0.0678   0.0923   0.1679  -0.0320  -0.0875  -0.0276   1.45    0.0
2111 347702.448   37.428318746 -122.076725268   -27.6533   2  17   0.0664   0.0902   0.1646  -0.0310  -0.0851  -0.0278   2.45    0.0
2111 347703.448   37.428275916 -122.076911936   -27.6330   2  14   0.0652   0.0883   0.1613  -0.0298  -0.0828  -0.0286   3.45    0.0
2111 347704.448   37.428230295 -122.077092212   -27.5300   2  15   0.0638   0.0867   0.1580  -0.0288  -0.0806  -0.0281   4.45    0.0
2111 347705.448   37.428187583 -122.077263434   -27.6323   2  17   0.0626   0.0853   0.1553  -0.0281  -0.0789  -0.0275   5.45    0.0
2111 347706.448   37.428154252 -122.077426694   -27.6976   2  17   0.0613   0.0836   0.1525  -0.0271  -0.0775  -0.0278   6.45    0.0
2111 347707.448   37.428134954 -122.077579606   -27.8787   2  19   0.0607   0.0820   0.1504  -0.0266  -0.0765  -0.0283   7.45    0.0
2111 347708.448   37.428126937 -122.077716021   -28.0006   2  17   0.0608   0.0814   0.1488  -0.0268  -0.0764  -0.0281   8.45    0.0
2111 347709.448   37.428123740 -122.077827658   -28.0787   2  14   0.0603   0.0808   0.1473  -0.0262  -0.0760  -0.0276   9.45    0.0
2111 347710.448   37.428122747 -122.077911510   -27.9356   2  14   0.0600   0.0805   0.1467  -0.0254  -0.0758  -0.0288  10.45    0.0
2111 347711.448   37.428122065 -122.077975749   -28.1116   2  16   0.0596   0.0797   0.1455  -0.0250  -0.0748  -0.0285  11.45    0.0
2111 347712.448   37.428115081 -122.078038445   -28.4197   2  20   0.0584   0.0782   0.1439  -0.0243  -0.0730  -0.0295  12.45    0.0
2111 347713.448   37.428089912 -122.078099125   -28.4189   2  16   0.0580   0.0773   0.1417  -0.0230  -0.0722  -0.0301  13.45    0.0
2111 347714.448   37.428043665 -122.078151029   -28.3324   2  10   0.0572   0.0757   0.1396  -0.0232  -0.0705  -0.0295  14.45    0.0
2111 347715.448   37.427977402 -122.078188531   -28.3219   2  16   0.0568   0.0755   0.1388  -0.0241  -0.0710  -0.0273 -14.55    0.0
2111 347716.448   37.427892184 -122.078207109   -28.5338   2  17   0.0565   0.0748   0.1384  -0.0249  -0.0714  -0.0228 -13.55    0.0
2111 347717.448   37.427791348 -122.078210445   -28.5598   2  16   0.0560   0.0740   0.1366  -0.0245  -0.0705  -0.0227 -12.55    0.0
2111 347718.448   37.427676505 -122.078206981   -28.5633   2  20   0.0556   0.0735   0.1357  -0.0246  -0.0704  -0.0216 -11.55    0.0
2111 347719.448   37.427550420 -122.078196980   -28.4468   2  18   0.0552   0.0734   0.1366  -0.0248  -0.0693  -0.0228 -10.55    0.0
2111 347720.448   37.427417818 -122.078181300   -28.3852   2  12   0.0557   0.0734   0.1350  -0.0264  -0.0694  -0.0224  -9.55    0.0
2111 347721.448   37.427280425 -122.078158979   -28.4578   2  13   0.0563   0.0730   0.1342  -0.0270  -0.0696  -0.0225  -8.55    0.0
2111 347722.448   37.427139550 -122.078137859   -28.6275   2  17   0.0581   0.0723   0.1363  -0.0272  -0.0686  -0.0288  -7.55    0.0
2111 347723.448   37.426990903 -122.078118851   -28.5680   2  16   0.0567   0.0716   0.1338  -0.0261  -0.0690  -0.0244  -6.55    0.0
2111 347724.448   37.426836090 -122.078104133   -29.0135   2  16   0.0563   0.0716   0.1325  -0.0261  -0.0690  -0.0229  -5.55    0.0
2111 347725.448   37.426674332 -122.078093479   -28.8090   2  19   0.0559   0.0710   0.1330  -0.0261  -0.0683  -0.0245  -4.55    0.0
2111 347726.448   37.426509269 -122.078088476   -28.7688   2  18   0.0549   0.0704   0.1308  -0.0257  -0.0681  -0.0221  -3.55    0.0
2111 347727.448   37.426340960 -122.078087172   -28.7740   2  21   0.0540   0.0695   0.1291  -0.0252  -0.0677  -0.0208  -2.55    0.0
2111 347728.448   37.426170113 -122.078089808   -28.6734   2  17   0.0534   0.0690   0.1281  -0.0250  -0.0673  -0.0200  -1.55    0.0
2111 347729.448   37.425996109 -122.078097107   -28.6704   2  16   0.0527   0.0685   0.1267  -0.0249  -0.0668  -0.0195  -0.55    0.0
2111 347730.448   37.425821104 -122.078109169   -28.5016   2  15   0.0521   0.0679   0.1253  -0.0246  -0.0662  -0.0194   0.45    0.0
2111 347731.448   37.425649270 -122.078123695   -28.4463   2  20   0.0514   0.0673   0.1238  -0.0243  -0.0655  -0.0189   1.45    0.0
2111 347732.448   37.425489072 -122.078136196   -28.4544   2  18   0.0508   0.0667   0.1224  -0.0239  -0.0648  -0.0190   2.45    0.0
2111 347733.448   37.425348857 -122.078144375   -28.4070   2  17   0.0502   0.0662   0.1211  -0.0237  -0.0642  -0.0184   3.45    0.0
2111 347734.448   37.425231557 -122.078149842   -28.3562   2  18   0.0496   0.0657   0.1201  -0.0234  -0.0635  -0.0177   4.45    0.0
2111 347735.448   37.425137854 -122.078153892   -28.3669   2  17   0.0493   0.0652   0.1192  -0.0232  -0.0630  -0.0172   5.45    0.0
2111 347736.448   37.425066994 -122.078155506   -28.3380   2  19   0.0490   0.0648   0.1191  -0.0230  -0.0625  -0.0155   6.45    0.0
2111 347737.448   37.425013472 -122.078156115   -28.2204   2  19   0.0487   0.0642   0.1185  -0.0228  -0.0622  -0.0147   7.45    0.0
2111 347738.448   37.424978657 -122.078156008   -28.1526   2  18   0.0483   0.0637   0.1176  -0.0226  -0.0619  -0.0150   8.45    0.0
2111 347739.448   37.424960048 -122.078155913   -28.1273   2  20   0.0483   0.0636   0.1172  -0.0231  -0.0621  -0.0130   9.45    0.0
2111 347740.448   37.424950962 -122.078155629   -28.0894   2  17   0.0480   0.0634   0.1169  -0.0231  -0.0617  -0.0121  10.45    0.0
2111 347741.448   37.424949746 -122.078155404   -28.0995   2  13   0.0479   0.0634   0.1168  -0.0232  -0.0617  -0.0104  11.45    0.0
2111 347742.448   37.424949299 -122.078155704   -28.1701   2  16   0.0480   0.0631   0.1176  -0.0235  -0.0617   0.0020  12.45    0.0
2111 347743.448   37.424949354 -122.078155761   -28.1607   2  17   0.0476   0.0627   0.1164  -0.0232  -0.0612  -0.0050  13.45    0.0
2111 347744.448   37.424949275 -122.078155530   -28.1840   2  15   0.0475   0.0625   0.1160  -0.0234  -0.0611   0.0039  14.45    0.0
2111 347745.448   37.424949105 -122.078155229   -28.2087   2  13   0.0474   0.0625   0.1159  -0.0239  -0.0613   0.0085 -14.55    0.0
2111 347746.448   37.424948978 -122.078155309   -28.1663   2  16   0.0472   0.0621   0.1154  -0.0238  -0.0609   0.0104 -13.55    0.0
2111 347747.448   37.424946525 -122.078155354   -28.1549   2  15   0.0469   0.0618   0.1149  -0.0238  -0.0608   0.0116 -12.55    0.0
2111 347748.448   37.424945240 -122.078155205   -28.1519   2  14   0.0467   0.0615   0.1143  -0.0237  -0.0604   0.0118 -11.55    0.0
2111 347749.448   37.424944665 -122.078155268   -28.0989   2  16   0.0464   0.0610   0.1138  -0.0233  -0.0598   0.0123 -10.55    0.0
2111 347750.448   37.424943742 -122.078155130   -28.1209   2  12   0.0462   0.0609   0.1132  -0.0235  -0.0598   0.0131  -9.55    0.0
2111 347751.448   37.424942795 -122.078155040   -28.0678   2  16   0.0460   0.0606   0.1126  -0.0235  -0.0594   0.0133  -8.55    0.0
2111 347752.448   37.424937100 -122.078154944   -28.0635   2  16   0.0459   0.0603   0.1120  -0.0235  -0.0589   0.0123  -7.55    0.0
2111 347753.448   37.424921667 -122.078153874   -27.4972   2  18   0.0457   0.0604   0.1114  -0.0238  -0.0587   0.0130  -6.55    0.0
2111 347754.448   37.424887837 -122.078151305   -27.7318   2  19   0.0455   0.0602   0.1114  -0.0237  -0.0584   0.0138  -5.55    0.0
2111 347755.448   37.424836486 -122.078148606   -27.6879   2  14   0.0456   0.0600   0.1106  -0.0241  -0.0580   0.0116  -4.55    0.0
2111 347756.448   37.424761671 -122.078146579   -27.7431   2  15   0.0455   0.0597   0.1096  -0.0241  -0.0577   0.0121  -3.55    0.0
2111 347757.448   37.424668504 -122.078145596   -27.8703   2  18   0.0451   0.0592   0.1090  -0.0236  -0.0573   0.0121  -2.55    0.0
2111 347758.448   37.424562172 -122.078142909   -27.9090   2  18   0.0450   0.0591   0.1099  -0.0239  -0.0571   0.0132  -1.55    0.0
2111 347759.448   37.424446050 -122.078138752   -28.3075   2  16   0.0449   0.0589   0.1095  -0.0239  -0.0566   0.0123  -0.55    0.0
2111 347760.448   37.424322096 -122.078130047   -28.4436   2  18   0.0446   0.0584   0.1086  -0.0237  -0.0569   0.0133   0.45    0.0
2111 347761.448   37.424194824 -122.078119264   -28.5125   2  18   0.0444   0.0581   0.1078  -0.0237  -0.0570   0.0139   1.45    0.0
2111 347762.448   37.424068713 -122.078106286   -28.6240   2  18   0.0443   0.0579   0.1069  -0.0238  -0.0566   0.0129   2.45    0.0
2111 347763.448   37.423945974 -122.078092795   -28.6603   2  15   0.0441   0.0577   0.1072  -0.0236  -0.0566   0.0141   3.45    0.0
2111 347764.448   37.423829380 -122.078081741   -28.7269   2  18   0.0439   0.0574   0.1067  -0.0235  -0.0566   0.0145   4.45    0.0
2111 347765.448   37.423721473 -122.078071152   -28.6642   2  16   0.0443   0.0581   0.1095  -0.0249  -0.0546   0.0118   5.45    0.0
2111 347766.448   37.423628606 -122.078065619   -28.5603   2  18   0.0436   0.0570   0.1074  -0.0237  -0.0556   0.0137   6.45    0.0
2111 347767.448   37.423550045 -122.078073344   -28.5114   2  19   0.0434   0.0566   0.1063  -0.0236  -0.0557   0.0137   7.45    0.0
2111 347768.448   37.423483118 -122.078102837   -28.4729   2  17   0.0431   0.0562   0.1054  -0.0232  -0.0553   0.0129   8.45    0.0
2111 347769.448   37.423435657 -122.078162434   -28.6637   2  17   0.0429   0.0568   0.1047  -0.0237  -0.0554   0.0138   9.45    0.0
2111 347770.448   37.423413399 -122.078249087   -28.4847   2  18   0.0431   0.0558   0.1036  -0.0238  -0.0547   0.0133  10.45    0.0
2111 347771.448   37.423408854 -122.078351271   -28.4872   2  17   0.0428   0.0555   0.1031  -0.0233  -0.0546   0.0128  11.45    0.0
2111 347772.448   37.423406404 -122.078473832   -28.3349   2  18   0.0425   0.0554   0.1027  -0.0232  -0.0544   0.0130  12.45    0.0
2111 347773.448   37.423402540 -122.078615338   -28.2605   2  18   0.0423   0.0551   0.1022  -0.0230  -0.0542   0.0127  13.45    0.0
2111 347774.448   37.423397138 -122.078775636   -28.1570   2  17   0.0421   0.0547   0.1016  -0.0228  -0.0540   0.0124  14.45    0.0
2111 347775.448   37.423390335 -122.078952695   -27.9951   2  20   0.0418   0.0544   0.1011  -0.0226  -0.0538   0.0124 -14.55    0.0
2111 347776.448   37.423382816 -122.079141673   -27.8261   2  18   0.0416   0.0541   0.1006  -0.0224  -0.0536   0.0120 -13.55    0.0
2111 347777.448   37.423374564 -122.079338886   -27.7053   2  20   0.0415   0.0539   0.1002  -0.0222  -0.0534   0.0121 -12.55    0.0
2111 347778.448   37.423364067 -122.079541235   -27.5282   2  19   0.0412   0.0535   0.0996  -0.0220  -0.0532   0.0119 -11.55    0.0
2111 347779.448   37.423350478 -122.079745385   -27.3841   2  21   0.0409   0.0530   0.0988  -0.0217  -0.0529   0.0115 -10.55    0.0
2111 347780.448   37.423333844 -122.079953005   -27.2167   2  21   0.0406   0.0525   0.0981  -0.0214  -0.0525   0.0109  -9.55    0.0
2111 347781.448   37.423315438 -122.080160861   -27.1241   2  20   0.0403   0.0520   0.0974  -0.0211  -0.0521   0.0098  -8.55    0.0
2111 347782.448   37.423295896 -122.080365187   -26.9491   2  19   0.0400   0.0515   0.0967  -0.0208  -0.0517   0.0090  -7.55    0.0
2111 347783.448   37.423274779 -122.080565363   -26.9861   2  20   0.0397   0.0510   0.0959  -0.0204  -0.0513   0.0080  -6.55    0.0
2111 347784.448   37.423256306 -122.080762262   -27.0412   2  19   0.0394   0.0506   0.0954  -0.0202  -0.0510   0.0074  -5.55    0.0
2111 347785.448   37.423241862 -122.080955917   -27.1411   2  19   0.0392   0.0502   0.0948  -0.0199  -0.0507   0.0068  -4.55    0.0
2111 347786.448   37.423227767 -122.081146353   -27.2499   2  20   0.0390   0.0498   0.0943  -0.0197  -0.0505   0.0060  -3.55    0.0
2111 347787.448   37.423212596 -122.081333752   -27.3584   2  19   0.0387   0.0494   0.0937  -0.0194  -0.0502   0.0048  -2.55    0.0
2111 347788.448   37.423196550 -122.081518253   -27.5000   2  19   0.0384   0.0490   0.0931  -0.0191  -0.0499   0.0029  -1.55    0.0
2111 347789.448   37.423180946 -122.081700352   -27.6114   2  20   0.0382   0.0486   0.0925  -0.0188  -0.0496  -0.0012  -0.55    0.0
2111 347790.448   37.423166216 -122.081879743   -27.7382   2  19   0.0379   0.0482   0.0918  -0.0185  -0.0492  -0.0039   0.45    0.0
2111 347791.448   37.423149792 -122.082056138   -27.8682   2  20   0.0377   0.0478   0.0913  -0.0182  -0.0489  -0.0054   1.45    0.0
2111 347792.448   37.423132955 -122.082230785   -27.9785   2  20   0.0375   0.0475   0.0908  -0.0180  -0.0486  -0.0063   2.45    0.0
2111 347793.448   37.423116891 -122.082405350   -28.1373   2  19   0.0372   0.0471   0.0902  -0.0177  -0.0483  -0.0071   3.45    0.0
2111 347794.448   37.423103717 -122.082578729   -28.2267   2  19   0.0371   0.0468   0.0898  -0.0176  -0.0481  -0.0070   4.45    0.0
2111 347795.448   37.423094736 -122.082749692   -28.3473   2  17   0.0370   0.0465   0.0894  -0.0174  -0.0479  -0.0069   5.45    0.0
2111 347796.448   37.423088451 -122.082917876   -28.4069   2  18   0.0368   0.0463   0.0889  -0.0173  -0.0476  -0.0069   6.45    0.0
2111 347797.448   37.423084553 -122.083082724   -28.4802   2  20   0.0366   0.0461   0.0885  -0.0172  -0.0474  -0.0069   7.45    0.0
2111 347798.448   37.423083873 -122.083244909   -28.5215   2  17   0.0365   0.0458   0.0880  -0.0171  -0.0471  -0.0069   8.45    0.0
2111 347799.448   37.423084078 -122.083409541   -28.5704   2  17   0.0363   0.0456   0.0875  -0.0170  -0.0468  -0.0071   9.45    0.0
2111 347800.448   37.423086219 -122.083579864   -28.6514   2  19   0.0362   0.0453   0.0870  -0.0169  -0.0464  -0.0074  10.45    0.0
2111 347801.448   37.423091985 -122.083758180   -28.6051   2  17   0.0360   0.0451   0.0865  -0.0168  -0.0461  -0.0078  11.45    0.0
2111 347802.448   37.423102251 -122.083942689   -28.5440   2  17   0.0362   0.0454   0.0863  -0.0160  -0.0462  -0.0094  12.45    0.0
2111 347803.448   37.423114784 -122.084135094   -28.5128   2  21   0.0361   0.0452   0.0859  -0.0160  -0.0460  -0.0094  13.45    0.0
2111 347804.448   37.423131519 -122.084334471   -28.4424   2  20   0.0360   0.0451   0.0856  -0.0159  -0.0457  -0.0095  14.45    0.0
2111 347805.448   37.423151400 -122.084538767   -28.3476   2  18   0.0358   0.0447   0.0852  -0.0162  -0.0454  -0.0090 -14.55    0.0
2111 347806.448   37.423174169 -122.084745121   -28.2437   2  19   0.0356   0.0445   0.0848  -0.0164  -0.0450  -0.0087 -13.55    0.0
2111 347807.448   37.423198831 -122.084953007   -28.0284   2  18   0.0354   0.0443   0.0845  -0.0164  -0.0448  -0.0085 -12.55    0.0
2111 347808.448   37.423226201 -122.085160687   -27.5816   2  17   0.0353   0.0442   0.0842  -0.0165  -0.0446  -0.0082 -11.55    0.0
2111 347809.448   37.423255631 -122.085365750   -26.8964   2  15   0.0352   0.0442   0.0838  -0.0169  -0.0446  -0.0076 -10.55    0.0
2111 347810.448   37.423285332 -122.085565934   -26.2072   2  18   0.0350   0.0442   0.0835  -0.0169  -0.0444  -0.0074  -9.55    0.0
2111 347811.448   37.423319269 -122.085762269   -25.5269   2  17   0.0349   0.0441   0.0833  -0.0170  -0.0444  -0.0074  -8.55    0.0
2111 347812.448   37.423356799 -122.085954913   -24.8905   2  15   0.0348   0.0444   0.0843  -0.0172  -0.0438  -0.0085  -7.55    0.0
2111 347813.448   37.423395441 -122.086146580   -24.7379   2  16   0.0351   0.0442   0.0847  -0.0175  -0.0439  -0.0036  -6.55    0.0
2111 347814.448   37.423435398 -122.086338565   -24.5487   2  17   0.0349   0.0442   0.0842  -0.0176  -0.0439  -0.0049  -5.55    0.0
2111 347815.448   37.423475665 -122.086530321   -24.4749   2  16   0.0346   0.0438   0.0835  -0.0173  -0.0438  -0.0055  -4.55    0.0
2111 347816.448   37.423516257 -122.086724611   -24.6488   2  17   0.0344   0.0435   0.0834  -0.0172  -0.0435  -0.0061  -3.55    0.0
2111 347817.448   37.423557906 -122.086921177   -24.5923   2  15   0.0343   0.0433   0.0829  -0.0170  -0.0434  -0.0056  -2.55    0.0
2111 347818.448   37.423600259 -122.087121254   -24.5852   2  18   0.0341   0.0431   0.0824  -0.0169  -0.0432  -0.0058  -1.55    0.0
2111 347819.448   37.423642287 -122.087325129   -25.3448   2  15   0.0340   0.0430   0.0821  -0.0166  -0.0432  -0.0062  -0.55    0.0
2111 347820.448   37.423685095 -122.087534942   -26.1614   2  13   0.0339   0.0430   0.0819  -0.0166  -0.0432  -0.0063   0.45    0.0
2111 347821.448   37.423729461 -122.087749830   -27.1982   2  12   0.0339   0.0437   0.0839  -0.0171  -0.0438  -0.0075   1.45    0.0
2111 347822.448   37.423774043 -122.087965506   -27.8002   2  12   0.0337   0.0435   0.0828  -0.0168  -0.0434  -0.0069   2.45    0.0
2111 347823.448   37.423817788 -122.088179876   -28.1414   2  16   0.0336   0.0432   0.0833  -0.0168  -0.0427  -0.0074   3.45    0.0
2111 347824.448   37.423859141 -122.088393129   -28.2994   2  14   0.0336   0.0433   0.0825  -0.0171  -0.0427  -0.0068   4.45    0.0
2111 347825.448   37.423898246 -122.088601076   -28.3749   2  10   0.0335   0.0433   0.0821  -0.0171  -0.0424  -0.0070   5.45    0.0
2111 347826.448   37.423934826 -122.088799752   -28.3912   2  12   0.0334   0.0428   0.0818  -0.0168  -0.0419  -0.0070   6.45    0.0
2111 347827.448   37.423965575 -122.088987820   -28.4696   2  17   0.0335   0.0425   0.0813  -0.0167  -0.0416  -0.0074   7.45    0.0
2111 347828.448   37.423983999 -122.089162824   -28.6601   2  15   0.0335   0.0425   0.0827  -0.0163  -0.0407  -0.0039   8.45    0.0
2111 347829.448   37.423989647 -122.089322748   -28.6974   2  14   0.0335   0.0424   0.0816  -0.0165  -0.0410  -0.0066   9.45    0.0
2111 347830.448   37.423986714 -122.089464704   -28.6832   2  18   0.0338   0.0430   0.0813  -0.0179  -0.0416  -0.0017  10.45    0.0
2111 347831.448   37.423977527 -122.089590695   -28.5978   2  17   0.0337   0.0428   0.0810  -0.0179  -0.0414  -0.0024  11.45    0.0
2111 347832.448   37.423958520 -122.089708677   -28.4788   2  17   0.0333   0.0423   0.0805  -0.0173  -0.0409  -0.0045  12.45    0.0
2111 347833.448   37.423933564 -122.089816668   -28.3854   2  17   0.0331   0.0420   0.0800  -0.0169  -0.0406  -0.0054  13.45    0.0
2111 347834.448   37.423915364 -122.089911491   -28.3603   2  18   0.0332   0.0418   0.0798  -0.0160  -0.0405  -0.0082  14.45    0.0
2111 347835.448   37.423917798 -122.089997627   -28.2560   2  17   0.0335   0.0421   0.0803  -0.0172  -0.0405  -0.0085 -14.55    0.0
2111 347836.448   37.423943614 -122.090071165   -27.9165   2  16   0.0333   0.0421   0.0798  -0.0174  -0.0405  -0.0071 -13.55    0.0
2111 347837.448   37.423990945 -122.090124848   -27.6826   2  16   0.0342   0.0420   0.0811  -0.0165  -0.0394  -0.0032 -12.55    0.0
2111 347838.448   37.424053525 -122.090172370   -27.5823   2  16   0.0340   0.0418   0.0807  -0.0163  -0.0391   0.0039 -11.55    0.0
2111 347839.448   37.424123535 -122.090227745   -27.6899   2   8   0.0350   0.0450   0.0836  -0.0136  -0.0368   0.0155 -10.55    0.0
2111 347840.448   37.424201957 -122.090296429   -27.7242   2  14   0.0357   0.0459   0.0857  -0.0144  -0.0374   0.0200  -9.55    0.0
2111 347841.448   37.424284859 -122.090379862   -27.9913   2  16   0.0353   0.0445   0.0845  -0.0141  -0.0368   0.0187  -8.55    0.0
2111 347842.448   37.424370166 -122.090477488   -27.9742   2  16   0.0348   0.0436   0.0827  -0.0146  -0.0371   0.0160  -7.55    0.0
2111 347843.448   37.424451896 -122.090590690   -27.9597   2  17   0.0353   0.0436   0.0846  -0.0138  -0.0361   0.0195  -6.55    0.0
2111 347844.448   37.424528480 -122.090716545   -27.9117   2  18   0.0347   0.0433   0.0832  -0.0150  -0.0369   0.0153  -5.55    0.0
2111 347845.448   37.424596807 -122.090852129   -27.7994   2  15   0.0343   0.0431   0.0823  -0.0153  -0.0372   0.0140  -4.55    0.0
2111 347846.448   37.424655024 -122.090996554   -27.9727   2  16   0.0342   0.0430   0.0824  -0.0151  -0.0368   0.0141  -3.55    0.0
2111 347847.448   37.424702712 -122.091148787   -27.9562   2  13   0.0341   0.0431   0.0826  -0.0151  -0.0367   0.0138  -2.55    0.0
2111 347848.448   37.424740177 -122.091303608   -27.9572   2  15   0.0346   0.0436   0.0826  -0.0168  -0.0378   0.0159  -1.55    0.0
2111 347849.448   37.424772474 -122.091457774   -27.9212   2  15   0.0348   0.0439   0.0826  -0.0175  -0.0383   0.0169  -0.55    0.0
2111 347850.448   37.424802911 -122.091608484   -27.8116   2  16   0.0344   0.0435   0.0821  -0.0168  -0.0376   0.0157   0.45    0.0
2111 347851.448   37.424834143 -122.091759909   -27.6860   2  11   0.0345   0.0438   0.0821  -0.0173  -0.0376   0.0160   1.45    0.0
2111 347852.448   37.424867331 -122.091917587   -27.6432   2  12   0.0411   0.0463   0.0888  -0.0137  -0.0433   0.0049   2.45    0.0
2111 347853.448   37.424911249 -122.092077651   -27.6728   2  13   0.0404   0.0446   0.0858  -0.0159  -0.0404   0.0056   3.45    0.0
2111 347854.448   37.424953931 -122.092241604   -27.9093   2  14   0.0399   0.0452   0.0867  -0.0147  -0.0414   0.0117   4.45    0.0
2111 347855.448   37.425003888 -122.092401914   -27.9422   2  13   0.0397   0.0459   0.0856  -0.0170  -0.0406   0.0134   5.45    0.0
2111 347856.448   37.425055503 -122.092556931   -28.3536   2  14   0.0427   0.0479   0.0864  -0.0227  -0.0417   0.0194   6.45    0.0
2111 347857.448   37.425113888 -122.092710095   -28.2697   2  15   0.0398   0.0461   0.0845  -0.0187  -0.0405   0.0166   7.45    0.0
2111 347858.448   37.425174367 -122.092857828   -28.2459   2  18   0.0385   0.0455   0.0838  -0.0172  -0.0396   0.0155   8.45    0.0
2111 347859.448   37.425239342 -122.093003620   -28.2204   2  14   0.0379   0.0452   0.0841  -0.0165  -0.0392   0.0163   9.45    0.0
2111 347860.448   37.425310229 -122.093148360   -28.1186   2  15   0.0375   0.0449   0.0833  -0.0166  -0.0392   0.0159  10.45    0.0
2111 347861.448   37.425386532 -122.093288884   -28.2282   2  14   0.0374   0.0448   0.0839  -0.0166  -0.0388   0.0163  11.45    0.0
2111 347862.448   37.425465375 -122.093424551   -28.2563   2  15   0.0373   0.0447   0.0849  -0.0162  -0.0381   0.0177  12.45    0.0
2111 347863.448   37.425545518 -122.093555134   -27.9390   2  15   0.0390   0.0450   0.0869  -0.0135  -0.0362   0.0234  13.45    0.0
2111 347864.448   37.425627302 -122.093680937   -28.1258   2  16   0.0385   0.0447   0.0851  -0.0139  -0.0372   0.0201  14.45    0.0
2111 347865.448   37.425710125 -122.093801129   -28.1207   2  16   0.0379   0.0443   0.0833  -0.0142  -0.0373   0.0191 -14.55    0.0
2111 347866.448   37.425790374 -122.093914149   -28.1385   2  16   0.0376   0.0441   0.0827  -0.0140  -0.0368   0.0192 -13.55    0.0
2111 347867.448   37.425870527 -122.094020271   -28.0987   2  15   0.0377   0.0442   0.0830  -0.0133  -0.0360   0.0204 -12.55    0.0
2111 347868.448   37.425954289 -122.094124085   -28.0115   2  16   0.0382   0.0442   0.0841  -0.0121  -0.0350   0.0228 -11.55    0.0
2111 347869.448   37.426044923 -122.094228165   -28.0519   2  16   0.0379   0.0442   0.0836  -0.0125  -0.0350   0.0225 -10.55    0.0
2111 347870.448   37.426143411 -122.094329581   -28.0643   2  15   0.0371   0.0438   0.0815  -0.0134  -0.0358   0.0199  -9.55    0.0
2111 347871.448   37.426248304 -122.094430822   -28.1642   2  15   0.0371   0.0437   0.0816  -0.0132  -0.0354   0.0204  -8.55    0.0
2111 347872.448   37.426356417 -122.094531772   -28.2080   2  17   0.0372   0.0437   0.0823  -0.0125  -0.0346   0.0219  -7.55    0.0
2111 347873.448   37.426465813 -122.094631617   -28.2157   2  16   0.0369   0.0436   0.0817  -0.0127  -0.0347   0.0214  -6.55    0.0
2111 347874.448   37.426579548 -122.094726237   -28.0829   2  17   0.0368   0.0441   0.0813  -0.0138  -0.0350   0.0181  -5.55    0.0
2111 347875.448   37.426696061 -122.094809928   -28.0442   2  16   0.0367   0.0437   0.0805  -0.0132  -0.0348   0.0196  -4.55    0.0
2111 347876.448   37.426808427 -122.094883093   -28.0368   2  16   0.0365   0.0434   0.0800  -0.0129  -0.0346   0.0196  -3.55    0.0
2111 347877.448   37.426916258 -122.094951149   -28.0875   2  15   0.0364   0.0431   0.0797  -0.0129  -0.0345   0.0197  -2.55    0.0
2111 347878.448   37.427017556 -122.095017863   -28.1115   2  15   0.0362   0.0428   0.0791  -0.0128  -0.0346   0.0194  -1.55    0.0
2111 347879.448   37.427110376 -122.095087896   -28.0718   2  16   0.0360   0.0427   0.0786  -0.0129  -0.0346   0.0191  -0.55    0.0
2111 347880.448   37.427200874 -122.095163362   -27.9838   2  14   0.0361   0.0427   0.0792  -0.0124  -0.0340   0.0204   0.45    0.0
2111 347881.448   37.427291807 -122.095250230   -28.1223   2  16   0.0367   0.0428   0.0810  -0.0115  -0.0331   0.0233   1.45    0.0
2111 347882.448   37.427383406 -122.095349236   -28.0853   2  17   0.0365   0.0426   0.0807  -0.0114  -0.0329   0.0232   2.45    0.0
2111 347883.448   37.427470710 -122.095459361   -28.1288   2  16   0.0365   0.0424   0.0805  -0.0113  -0.0325   0.0231   3.45    0.0
2111 347884.448   37.427550914 -122.095578936   -27.9960   2  15   0.0359   0.0423   0.0792  -0.0121  -0.0331   0.0211   4.45    0.0
2111 347885.448   37.427623293 -122.095703919   -27.9887   2  16   0.0360   0.0423   0.0791  -0.0127  -0.0330   0.0200   5.45    0.0
2111 347886.448   37.427687620 -122.095831249   -27.9173   2  16   0.0358   0.0421   0.0789  -0.0127  -0.0330   0.0199   6.45    0.0
2111 347887.448   37.427744995 -122.095964162   -27.6829   2  13   0.0358   0.0421   0.0795  -0.0123  -0.0330   0.0195   7.45    0.0
2111 347888.448   37.427794647 -122.096104086   -27.5409   2  11   0.0389   0.0455   0.0804  -0.0206  -0.0336   0.0198   8.45    0.0
2111 347889.448   37.427836510 -122.096254201   -27.0257   2  10   0.0431   0.0487   0.0906  -0.0097  -0.0439  -0.0194   9.45    0.0
2111 347890.448   37.427870073 -122.096404039   -27.1932   2  13   0.0489   0.0469   0.0869  -0.0154  -0.0398   0.0123  10.45    0.0
2111 347891.448   37.427894294 -122.096554857   -27.3220   2  11   0.0473   0.0464   0.0848  -0.0163  -0.0386   0.0166  11.45    0.0
2111 347892.448   37.427909241 -122.096707938   -27.3285   2  14   0.0463   0.0461   0.0845  -0.0150  -0.0380   0.0138  12.45    0.0
2111 347893.448   37.427916128 -122.096861194   -27.5140   2  12   0.0456   0.0457   0.0842  -0.0152  -0.0372   0.0132  13.45    0.0
2111 347894.448   37.427913995 -122.097012452   -27.4387   2  18   0.0482   0.0455   0.0840  -0.0172  -0.0373   0.0117  14.45    0.0
2111 347895.448   37.427901386 -122.097157372   -27.4616   2  15   0.0478   0.0471   0.0832  -0.0199  -0.0398   0.0163 -14.55    0.0
2111 347896.448   37.427882786 -122.097294397   -27.5167   2  17   0.0462   0.0460   0.0824  -0.0187  -0.0389   0.0176 -13.55    0.0
2111 347897.448   37.427864396 -122.097411182   -27.0566   2  18   0.0454   0.0452   0.0817  -0.0181  -0.0378   0.0178 -12.55    0.0
2111 347898.448   37.427845159 -122.097515714   -27.1157   2  20   0.0447   0.0446   0.0814  -0.0176  -0.0373   0.0172 -11.55    0.0
2111 347899.448   37.427829214 -122.097607778   -27.4430   2  19   0.0442   0.0442   0.0808  -0.0173  -0.0367   0.0173 -10.55    0.0
2111 347900.448   37.427813811 -122.097695977   -27.4975   2  19   0.0436   0.0438   0.0799  -0.0170  -0.0364   0.0169  -9.55    0.0
2111 347901.448   37.427798054 -122.097783081   -27.5000   2  19   0.0431   0.0435   0.0792  -0.0168  -0.0361   0.0168  -8.55    0.0
2111 347902.448   37.427781542 -122.097871779   -27.5619   2  16   0.0427   0.0432   0.0787  -0.0165  -0.0357   0.0164  -7.55    0.0
2111 347903.448   37.427764135 -122.097965481   -27.5948   2  17   0.0423   0.0429   0.0782  -0.0163  -0.0353   0.0163  -6.55    0.0
2111 347904.448   37.427746896 -122.098064745   -27.5498   2  16   0.0418   0.0427   0.0778  -0.0161  -0.0351   0.0157  -5.55    0.0
2111 347905.448   37.427732665 -122.098171169   -27.6245   2  19   0.0421   0.0436   0.0776  -0.0178  -0.0354   0.0158  -4.55    0.0
2111 347906.448   37.427716543 -122.098285968   -27.6309   2  15   0.0417   0.0433   0.0773  -0.0173  -0.0353   0.0155  -3.55    0.0
2111 347907.448   37.427697291 -122.098409028   -27.6317   2  13   0.0423   0.0438   0.0771  -0.0188  -0.0351   0.0148  -2.55    0.0
2111 347908.448   37.427676214 -122.098537896   -27.6247   2  15   0.0418   0.0434   0.0768  -0.0181  -0.0350   0.0147  -1.55    0.0
2111 347909.448   37.427654504 -122.098669598   -27.7173   2  15   0.0435   0.0460   0.0770  -0.0227  -0.0358   0.0152  -0.55    0.0
2111 347910.448   37.427633610 -122.098797901   -27.8269   2  14   0.0427   0.0449   0.0767  -0.0211  -0.0353   0.0142   0.45    0.0
2111 347911.448   37.427613116 -122.098915066   -27.8324   2  15   0.0419   0.0440   0.0763  -0.0195  -0.0350   0.0134   1.45    0.0
2111 347912.448   37.427594625 -122.099017085   -27.9069   2  14   0.0417   0.0436   0.0760  -0.0191  -0.0348   0.0131   2.45    0.0
2111 347913.448   37.427578329 -122.099104533   -27.9386   2  14   0.0419   0.0440   0.0758  -0.0199  -0.0348   0.0132   3.45    0.0
2111 347914.448   37.427565657 -122.099174244   -28.0067   2  16   0.0418   0.0439   0.0755  -0.0199  -0.0347   0.0129   4.45    0.0
2111 347915.448   37.427557830 -122.099217734   -27.9960   2  17   0.0411   0.0434   0.0753  -0.0190  -0.0346   0.0127   5.45    0.0
2111 347916.448   37.427552167 -122.099249690   -28.0226   2  18   0.0406   0.0431   0.0749  -0.0185  -0.0345   0.0123   6.45    0.0
2111 347917.448   37.427547139 -122.099281118   -28.0611   2  17   0.0403   0.0428   0.0746  -0.0181  -0.0342   0.0115   7.45    0.0
2111 347918.448   37.427544909 -122.099317857   -28.1985   2  17   0.0403   0.0425   0.0746  -0.0178  -0.0341   0.0097   8.45    0.0
2111 347919.448   37.427551687 -122.099365195   -28.1119   2  17   0.0402   0.0425   0.0745  -0.0178  -0.0341   0.0089   9.45    0.0
2111 347920.448   37.427576781 -122.099413760   -28.5212   2  20   0.0407   0.0436   0.0759  -0.0199  -0.0333   0.0100  10.45    0.0
2111 347921.448   37.427624368 -122.099454579   -28.5377   2  14   0.0401   0.0430   0.0758  -0.0190  -0.0330   0.0087  11.45    0.0
2111 347922.448   37.427692313 -122.099484561   -28.5301   2  17   0.0398   0.0428   0.0750  -0.0186  -0.0328   0.0082  12.45    0.0
2111 347923.448   37.427772976 -122.099517507   -28.5815   2  18   0.0398   0.0425   0.0749  -0.0180  -0.0323   0.0104  13.45    0.0
2111 347924.448   37.427866494 -122.099558460   -28.6455   2  18   0.0394   0.0423   0.0741  -0.0180  -0.0326   0.0088  14.45    0.0
2111 347925.448   37.427971093 -122.099608429   -28.4306   2  13   0.0393   0.0424   0.0738  -0.0180  -0.0329   0.0081 -14.55    0.0
2111 347926.448   37.428087650 -122.099660452   -28.2087   2  16   0.0393   0.0424   0.0760  -0.0175  -0.0313   0.0105 -13.55    0.0
2111 347927.448   37.428214651 -122.099716030   -27.9800   2  18   0.0391   0.0421   0.0751  -0.0177  -0.0318   0.0095 -12.55    0.0
2111 347928.448   37.428349117 -122.099776224   -27.8821   2  17   0.0389   0.0419   0.0742  -0.0176  -0.0321   0.0089 -11.55    0.0
2111 347929.448   37.428488085 -122.099838769   -28.0757   2  18   0.0387   0.0420   0.0739  -0.0174  -0.0324   0.0089 -10.55    0.0
2111 347930.448   37.428627848 -122.099898341   -28.0374   2  17   0.0385   0.0416   0.0735  -0.0174  -0.0322   0.0089  -9.55    0.0
2111 347931.448   37.428770366 -122.099955429   -27.7445   2  17   0.0383   0.0414   0.0733  -0.0174  -0.0320   0.0089  -8.55    0.0
2111 347932.448   37.428914843 -122.100014825   -27.9471   2  18   0.0382   0.0412   0.0735  -0.0172  -0.0317   0.0101  -7.55    0.0
2111 347933.448   37.429061740 -122.100075932   -27.9912   2  18   0.0379   0.0410   0.0728  -0.0172  -0.0318   0.0091  -6.55    0.0
2111 347934.448   37.429208838 -122.100136990   -28.0249   2  20   0.0378   0.0408   0.0731  -0.0170  -0.0313   0.0104  -5.55    0.0
2111 347935.448   37.429352160 -122.100198613   -28.0805   2  14   0.0375   0.0406   0.0724  -0.0170  -0.0315   0.0094  -4.55    0.0
2111 347936.448   37.429487599 -122.100256525   -28.1148   2  17   0.0376   0.0411   0.0727  -0.0161  -0.0323   0.0063  -3.55    0.0
2111 347937.448   37.429614118 -122.100308366   -28.1821   2  18   0.0373   0.0406   0.0732  -0.0166  -0.0315   0.0090  -2.55    0.0
2111 347938.448   37.429734564 -122.100351443   -28.1722   2  17   0.0371   0.0403   0.0725  -0.0167  -0.0315   0.0085  -1.55    0.0
2111 347939.448   37.429853287 -122.100380154   -28.4486   2  19   0.0373   0.0409   0.0731  -0.0171  -0.0316   0.0112  -0.55    0.0
2111 347940.448   37.429968613 -122.100383909   -28.4249   2  14   0.0373   0.0412   0.0734  -0.0174  -0.0322   0.0120   0.45    0.0
2111 347941.448   37.430077587 -122.100364270   -28.3604   2  12   0.0406   0.0421   0.0736  -0.0205  -0.0313  -0.0068   1.45    0.0
2111 347942.448   37.430180464 -122.100325681   -28.1695   2  13   0.0398   0.0417   0.0729  -0.0202  -0.0309  -0.0033   2.45    0.0
2111 347943.448   37.430284898 -122.100278539   -28.2179   2  15   0.0394   0.0408   0.0722  -0.0199  -0.0303  -0.0032   3.45    0.0
2111 347944.448   37.430390712 -122.100228099   -28.2534   2  19   0.0390   0.0405   0.0717  -0.0196  -0.0303  -0.0035   4.45    0.0
2111 347945.448   37.430490663 -122.100176503   -28.3159   2  18   0.0391   0.0408   0.0729  -0.0191  -0.0296   0.0080   5.45    0.0
2111 347946.448   37.430582451 -122.100144446   -28.5170   2  17   0.0388   0.0405   0.0721  -0.0194  -0.0300   0.0060   6.45    0.0
2111 347947.448   37.430669436 -122.100147657   -28.6905   2  12   0.0384   0.0400   0.0716  -0.0193  -0.0300   0.0047   7.45    0.0
2111 347948.448   37.430746788 -122.100183430   -28.8186   2  13   0.0471   0.0439   0.0724  -0.0266  -0.0314  -0.0132   8.45    0.0
2111 347949.448   37.430798810 -122.100233775   -29.1505   2  14   0.0448   0.0497   0.0862  -0.0276  -0.0400   0.0154   9.45    0.0
2111 347950.448   37.430843538 -122.100293147   -29.2627   2  11   0.0447   0.0539   0.0879  -0.0304  -0.0479   0.0211  10.45    0.0
2111 347951.448   37.430890964 -122.100348845   -29.5303   2  16   0.0432   0.0519   0.0824  -0.0283  -0.0432   0.0146  11.45    0.0
2111 347952.448   37.430949922 -122.100388779   -29.6593   2  17   0.0420   0.0445   0.0776  -0.0248  -0.0353   0.0049  12.45    0.0
2111 347953.448   37.431016784 -122.100403174   -29.5670   2  15   0.0414   0.0424   0.0760  -0.0236  -0.0328  -0.0066  13.45    0.0
2111 347954.448   37.431088043 -122.100403296   -29.4846   2  15   0.0416   0.0414   0.0772  -0.0231  -0.0310  -0.0097  14.45    0.0
2111 347955.448   37.431169148 -122.100397016   -28.9157   2  17   0.0414   0.0411   0.0782  -0.0229  -0.0290  -0.0117 -14.55    0.0
2111 347956.448   37.431259969 -122.100389982   -28.8591   2  14   0.0409   0.0407   0.0759  -0.0227  -0.0294  -0.0129 -13.55    0.0
2111 347957.448   37.431360457 -122.100380666   -28.7172   2  18   0.0408   0.0408   0.0752  -0.0221  -0.0292  -0.0126 -12.55    0.0
2111 347958.448   37.431466632 -122.100371435   -28.6022   2  18   0.0406   0.0402   0.0742  -0.0221  -0.0291  -0.0139 -11.55    0.0
2111 347959.448   37.431572734 -122.100357664   -28.6100   2  18   0.0402   0.0399   0.0733  -0.0219  -0.0288  -0.0142 -10.55    0.0
2111 347960.448   37.431675075 -122.100342036   -28.4643   2  16   0.0400   0.0396   0.0727  -0.0218  -0.0285  -0.0144  -9.55    0.0
2111 347961.448   37.431782955 -122.100328304   -28.5027   2  18   0.0398   0.0394   0.0722  -0.0216  -0.0282  -0.0148  -8.55    0.0
2111 347962.448   37.431890069 -122.100313254   -28.3428   2  18   0.0396   0.0392   0.0729  -0.0213  -0.0274  -0.0139  -7.55    0.0
2111 347963.448   37.431991587 -122.100296808   -28.2020   2  18   0.0394   0.0389   0.0721  -0.0212  -0.0276  -0.0144  -6.55    0.0
2111 347964.448   37.432082569 -122.100278729   -28.0301   2  17   0.0393   0.0394   0.0716  -0.0213  -0.0281  -0.0146  -5.55    0.0
2111 347965.448   37.432156971 -122.100243653   -27.9253   2  18   0.0392   0.0394   0.0714  -0.0214  -0.0284  -0.0144  -4.55    0.0
2111 347966.448   37.432209650 -122.100182175   -27.7115   2  14   0.0437   0.0402   0.0770  -0.0171  -0.0225   0.0139  -3.55    0.0
2111 347967.448   37.432238742 -122.100097946   -27.3160   2  17   0.0459   0.0412   0.0815  -0.0116  -0.0153   0.0229  -2.55    0.0
2111 347968.448   37.432244201 -122.099999480   -27.1570   2  17   0.0432   0.0405   0.0778  -0.0181  -0.0214   0.0169  -1.55    0.0
2111 347969.448   37.432232618 -122.099887767   -27.2222   2  19   0.0429   0.0411   0.0778  -0.0173  -0.0196   0.0162  -0.55    0.0
2111 347970.448   37.432218296 -122.099760889   -27.7500   2  14   0.0443   0.0404   0.0783  -0.0167  -0.0211   0.0109   0.45    0.0
2111 347971.448   37.432200737 -122.099621325   -27.8828   2  16   0.0436   0.0398   0.0770  -0.0175  -0.0222   0.0104   1.45    0.0
2111 347972.448   37.432185244 -122.099470349   -27.9942   2  13   0.0434   0.0394   0.0772  -0.0179  -0.0229   0.0071   2.45    0.0
2111 347973.448   37.432172155 -122.099312655   -27.9598   2  16   0.0436   0.0403   0.0813  -0.0187  -0.0188   0.0134   3.45    0.0
2111 347974.448   37.432159824 -122.099152657   -27.8002   2  14   0.0437   0.0406   0.0833  -0.0196  -0.0147   0.0090   4.45    0.0
2111 347975.448   37.432148324 -122.098996320   -27.9966   2  14   0.0433   0.0398   0.0798  -0.0190  -0.0201   0.0085   5.45    0.0
2111 347976.448   37.432135027 -122.098838903   -27.9901   2  17   0.0434   0.0400   0.0797  -0.0191  -0.0198   0.0116   6.45    0.0
2111 347977.448   37.432121288 -122.098679378   -28.0019   2  18   0.0429   0.0395   0.0781  -0.0195  -0.0214   0.0092   7.45    0.0
2111 347978.448   37.432106193 -122.098519213   -28.0167   2  14   0.0425   0.0391   0.0772  -0.0195  -0.0221   0.0087   8.45    0.0
2111 347979.448   37.432089785 -122.098361888   -28.0288   2  16   0.0424   0.0391   0.0782  -0.0189  -0.0210   0.0116   9.45    0.0
2111 347980.448   37.432072438 -122.098207495   -28.0961   2  19   0.0420   0.0386   0.0770  -0.0190  -0.0219   0.0092  10.45    0.0
2111 347981.448   37.432056335 -122.098061625   -28.1607   2  17   0.0417   0.0383   0.0762  -0.0190  -0.0224   0.0085  11.45    0.0
2111 347982.448   37.432044778 -122.097933136   -28.4441   2  16   0.0415   0.0383   0.0775  -0.0187  -0.0215   0.0113  12.45    0.0
2111 347983.448   37.432046272 -122.097823516   -28.2598   2  15   0.0411   0.0379   0.0759  -0.0187  -0.0224   0.0093  13.45    0.0
2111 347984.448   37.432065971 -122.097730994   -28.2127   2  16   0.0408   0.0377   0.0753  -0.0186  -0.0225   0.0082  14.45    0.0
2111 347985.448   37.432104869 -122.097660458   -28.2094   2  16   0.0404   0.0375   0.0746  -0.0186  -0.0227   0.0077 -14.55    0.0
2111 347986.448   37.432157397 -122.097616317   -28.2547   2  15   0.0405   0.0374   0.0763  -0.0182  -0.0222   0.0068 -13.55    0.0
2111 347987.448   37.432209484 -122.097610093   -28.2859   2  18   0.0413   0.0382   0.0768  -0.0190  -0.0229   0.0052 -12.55    0.0
2111 347988.448   37.432246265 -122.097635130   -28.3351   2  17   0.0406   0.0375   0.0754  -0.0186  -0.0229   0.0071 -11.55    0.0
2111 347989.448   37.432262722 -122.097674557   -28.4594   2  20   0.0406   0.0380   0.0754  -0.0191  -0.0236   0.0053 -10.55    0.0
2111 347990.448   37.432268245 -122.097716029   -28.4980   2  16   0.0401   0.0373   0.0744  -0.0186  -0.0237   0.0057  -9.55    0.0
2111 347991.448   37.432272735 -122.097756807   -28.5171   2  19   0.0400   0.0371   0.0746  -0.0182  -0.0232   0.0093  -8.55    0.0
2111 347992.448   37.432277552 -122.097806343   -28.4998   2  17   0.0399   0.0369   0.0745  -0.0182  -0.0232   0.0103  -7.55    0.0
2111 347993.448   37.432284616 -122.097879258   -28.4996   2  19   0.0397   0.0367   0.0738  -0.0182  -0.0234   0.0097  -6.55    0.0
2111 347994.448   37.432294804 -122.097975211   -28.4356   2  18   0.0393   0.0365   0.0733  -0.0183  -0.0235   0.0089  -5.55    0.0
2111 347995.448   37.432307333 -122.098083930   -28.3469   2  17   0.0390   0.0364   0.0730  -0.0183  -0.0235   0.0083  -4.55    0.0
2111 347996.448   37.432319099 -122.098196313   -28.2547   2  19   0.0389   0.0364   0.0727  -0.0183  -0.0235   0.0077  -3.55    0.0
2111 347997.448   37.432319353 -122.098299607   -28.1678   2  19   0.0389   0.0362   0.0724  -0.0182  -0.0235   0.0069  -2.55    0.0
2111 347998.448   37.432299629 -122.098383363   -28.1777   2  17   0.0386   0.0364   0.0721  -0.0176  -0.0242   0.0062  -1.55    0.0
2111 347999.448   37.432266845 -122.098438549   -28.3521   2  16   0.0382   0.0363   0.0718  -0.0175  -0.0239   0.0061  -0.55    0.0
2111 348000.448   37.432231277 -122.098468496   -28.3155   2  13   0.0379   0.0363   0.0715  -0.0174  -0.0239   0.0060   0.45    0.0
2111 348001.448   37.432205129 -122.098482308   -28.4641   2  16   0.0377   0.0367   0.0712  -0.0178  -0.0243   0.0064   1.45    0.0
2111 348002.448   37.432184052 -122.098502120   -28.5542   2  15   0.0378   0.0369   0.0737  -0.0180  -0.0231   0.0097   2.45    0.0
2111 348003.448   37.432165852 -122.098542424   -28.5711   2  19   0.0375   0.0371   0.0727  -0.0181  -0.0234   0.0080   3.45    0.0
2111 348004.448   37.432159213 -122.098612962   -28.4969   2  21   0.0373   0.0367   0.0721  -0.0177  -0.0232   0.0062   4.45    0.0
2111 348005.448   37.432161728 -122.098713392   -28.3911   2  17   0.0371   0.0376   0.0721  -0.0179  -0.0238   0.0061   5.45    0.0
2111 348006.448   37.432177878 -122.098843367   -28.3763   2  20   0.0372   0.0372   0.0719  -0.0180  -0.0233  -0.0035   6.45    0.0
2111 348007.448   37.432193681 -122.098997606   -28.2334   2  16   0.0371   0.0372   0.0739  -0.0174  -0.0213   0.0064   7.45    0.0
2111 348008.448   37.432206740 -122.099171060   -28.0220   2  14   0.0394   0.0389   0.0748  -0.0170  -0.0214  -0.0051   8.45    0.0
2111 348009.448   37.432216752 -122.099355033   -27.9173   2  15   0.0385   0.0379   0.0732  -0.0180  -0.0232  -0.0081   9.45    0.0
2111 348010.448   37.432233352 -122.099533744   -28.0752   2  13   0.0444   0.0384   0.0752  -0.0182  -0.0245  -0.0222  10.45    0.0
2111 348011.448   37.432248127 -122.099696095   -28.0638   2  13   0.0443   0.0383   0.0752  -0.0183  -0.0246  -0.0233  11.45    0.0
2111 348012.448   37.432262255 -122.099837541   -28.0300   2  14   0.0437   0.0379   0.0753  -0.0146  -0.0250  -0.0211  12.45    0.0
2111 348013.448   37.432272643 -122.099958030   -28.0237   2  18   0.0452   0.0378   0.0744  -0.0149  -0.0247  -0.0205  13.45    0.0
2111 348014.448   37.432279843 -122.100054149   -28.0063   2  16   0.0439   0.0370   0.0734  -0.0154  -0.0233  -0.0189  14.45    0.0
2111 348015.448   37.432285038 -122.100118256   -27.9942   2  18   0.0428   0.0367   0.0723  -0.0159  -0.0231  -0.0186 -14.55    0.0
2111 348016.448   37.432286885 -122.100158079   -27.9920   2  15   0.0422   0.0365   0.0718  -0.0161  -0.0230  -0.0187 -13.55    0.0
2111 348017.448   37.432277786 -122.100201743   -28.0058   2  19   0.0426   0.0363   0.0711  -0.0163  -0.0227  -0.0189 -12.55    0.0
2111 348018.448   37.432247026 -122.100258129   -27.8997   2  15   0.0414   0.0366   0.0706  -0.0160  -0.0231  -0.0183 -11.55    0.0
2111 348019.448   37.432185675 -122.100307975   -27.7897   2  16   0.0406   0.0367   0.0704  -0.0162  -0.0235  -0.0177 -10.55    0.0
2111 348020.448   37.432099107 -122.100337148   -27.8148   2  20   0.0405   0.0375   0.0720  -0.0141  -0.0265  -0.0202  -9.55    0.0
2111 348021.448   37.431992452 -122.100354574   -28.0355   2  16   0.0399   0.0365   0.0705  -0.0149  -0.0247  -0.0190  -8.55    0.0
2111 348022.448   37.431867408 -122.100374386   -28.2679   2  18   0.0394   0.0360   0.0697  -0.0149  -0.0239  -0.0187  -7.55    0.0
2111 348023.448   37.431727427 -122.100402669   -28.5212   2  18   0.0391   0.0358   0.0693  -0.0148  -0.0237  -0.0187  -6.55    0.0
2111 348024.448   37.431582750 -122.100439730   -28.8343   2  20   0.0393   0.0358   0.0702  -0.0145  -0.0239  -0.0204  -5.55    0.0
2111 348025.448   37.431442064 -122.100481219   -29.0403   2  20   0.0397   0.0356   0.0713  -0.0143  -0.0241  -0.0224  -4.55    0.0
2111 348026.448   37.431306343 -122.100518691   -29.1163   2  19   0.0396   0.0355   0.0708  -0.0140  -0.0241  -0.0223  -3.55    0.0
2111 348027.448   37.431175076 -122.100546653   -29.1271   2  17   0.0394   0.0353   0.0709  -0.0142  -0.0235  -0.0225  -2.55    0.0
2111 348028.448   37.431057702 -122.100566641   -29.1554   2  12   0.0392   0.0353   0.0703  -0.0142  -0.0234  -0.0221  -1.55    0.0
2111 348029.448   37.430951058 -122.100583615   -29.1730   2  15   0.0389   0.0352   0.0698  -0.0142  -0.0232  -0.0218  -0.55    0.0
2111 348030.448   37.430842956 -122.100598612   -29.1438   2  16   0.0387   0.0350   0.0693  -0.0141  -0.0232  -0.0216   0.45    0.0
2111 348031.448   37.430723814 -122.100614282   -29.0496   2  18   0.0387   0.0350   0.0696  -0.0139  -0.0235  -0.0224   1.45    0.0
2111 348032.448   37.430589080 -122.100633672   -28.8784   2  16   0.0384   0.0348   0.0687  -0.0139  -0.0234  -0.0215   2.45    0.0
2111 348033.448   37.430444914 -122.100662754   -28.6117   2  21   0.0383   0.0347   0.0684  -0.0138  -0.0236  -0.0213   3.45    0.0
2111 348034.448   37.430296795 -122.100708202   -28.4131   2  22   0.0381   0.0347   0.0682  -0.0139  -0.0238  -0.0209   4.45    0.0
2111 348035.448   37.430147525 -122.100773184   -28.3458   2  16   0.0380   0.0348   0.0683  -0.0141  -0.0241  -0.0205   5.45    0.0
2111 348036.448   37.429998518 -122.100856899   -28.1696   2  17   0.0394   0.0360   0.0716  -0.0155  -0.0218  -0.0245   6.45    0.0
2111 348037.448   37.429850975 -122.100950628   -28.3762   2  18   0.0386   0.0354   0.0704  -0.0145  -0.0227  -0.0218   7.45    0.0
2111 348038.448   37.429706951 -122.101047161   -28.4673   2  17   0.0381   0.0351   0.0690  -0.0146  -0.0229  -0.0216   8.45    0.0
2111 348039.448   37.429570692 -122.101147547   -28.6470   2  16   0.0379   0.0352   0.0684  -0.0149  -0.0230  -0.0212   9.45    0.0
2111 348040.448   37.429448812 -122.101259240   -28.9093   2  17   0.0376   0.0351   0.0680  -0.0146  -0.0230  -0.0212  10.45    0.0
2111 348041.448   37.429349692 -122.101393554   -29.0788   2  12   0.0373   0.0349   0.0677  -0.0143  -0.0227  -0.0210  11.45    0.0
2111 348042.448   37.429282409 -122.101551740   -29.0205   2  18   0.0371   0.0347   0.0673  -0.0141  -0.0227  -0.0212  12.45    0.0
2111 348043.448   37.429257147 -122.101723281   -29.2337   2  19   0.0374   0.0349   0.0672  -0.0145  -0.0222  -0.0217  13.45    0.0
2111 348044.448   37.429274834 -122.101900459   -29.6227   2  16   0.0370   0.0347   0.0668  -0.0142  -0.0224  -0.0215  14.45    0.0
2111 348045.448   37.429335613 -122.102062403   -29.9459   2  18   0.0367   0.0348   0.0667  -0.0141  -0.0226  -0.0213 -14.55    0.0
2111 348046.448   37.429434183 -122.102202576   -29.5670   2  19   0.0364   0.0347   0.0673  -0.0138  -0.0219  -0.0213 -13.55    0.0
2111 348047.448   37.429552999 -122.102336577   -29.4183   2  16   0.0361   0.0346   0.0668  -0.0137  -0.0218  -0.0214 -12.55    0.0
2111 348048.448   37.429683603 -122.102482209   -29.4047   2  15   0.0358   0.0345   0.0663  -0.0135  -0.0217  -0.0215 -11.55    0.0
2111 348049.448   37.429826522 -122.102647534   -29.3874   2  18   0.0354   0.0347   0.0659  -0.0131  -0.0216  -0.0216 -10.55    0.0
2111 348050.448   37.429982039 -122.102829613   -29.3203   2  19   0.0351   0.0345   0.0656  -0.0130  -0.0215  -0.0217  -9.55    0.0
2111 348051.448   37.430148469 -122.103024798   -29.2169   2  19   0.0348   0.0343   0.0653  -0.0128  -0.0214  -0.0218  -8.55    0.0
2111 348052.448   37.430324548 -122.103225936   -29.1143   2  17   0.0345   0.0342   0.0649  -0.0126  -0.0213  -0.0218  -7.55    0.0
2111 348053.448   37.430509106 -122.103431211   -29.1259   2  21   0.0342   0.0341   0.0645  -0.0124  -0.0210  -0.0220  -6.55    0.0
2111 348054.448   37.430699245 -122.103640051   -29.0598   2  18   0.0339   0.0340   0.0642  -0.0122  -0.0210  -0.0220  -5.55    0.0
2111 348055.448   37.430891240 -122.103846671   -28.9579   2  16   0.0336   0.0339   0.0640  -0.0121  -0.0209  -0.0220  -4.55    0.0
2111 348056.448   37.431081742 -122.104048610   -28.6496   2  20   0.0333   0.0338   0.0637  -0.0118  -0.0206  -0.0221  -3.55    0.0
2111 348057.448   37.431268017 -122.104247621   -28.3478   2  19   0.0331   0.0337   0.0634  -0.0117  -0.0205  -0.0221  -2.55    0.0
2111 348058.448   37.431446358 -122.104439149   -28.0085   2  16   0.0328   0.0339   0.0630  -0.0116  -0.0206  -0.0221  -1.55    0.0
2111 348059.448   37.431619108 -122.104628425   -27.7382   2  15   0.0326   0.0343   0.0629  -0.0119  -0.0210  -0.0219  -0.55    0.0
2111 348060.448   37.431789267 -122.104822168   -27.5232   2  15   0.0323   0.0342   0.0626  -0.0117  -0.0209  -0.0219   0.45    0.0
2111 348061.448   37.431963201 -122.105020004   -27.3047   2  17   0.0321   0.0336   0.0622  -0.0114  -0.0204  -0.0220   1.45    0.0
2111 348062.448   37.432145069 -122.105219325   -27.2612   2  18   0.0318   0.0334   0.0619  -0.0112  -0.0202  -0.0219   2.45    0.0
2111 348063.448   37.432335820 -122.105421796   -27.1472   2  17   0.0319   0.0333   0.0627  -0.0108  -0.0194  -0.0207   3.45    0.0
2111 348064.448   37.432534016 -122.105630843   -27.2283   2  15   0.0317   0.0337   0.0622  -0.0114  -0.0205  -0.0209   4.45    0.0
2111 348065.448   37.432739618 -122.105846703   -27.4403   2  18   0.0318   0.0336   0.0630  -0.0111  -0.0201  -0.0195   5.45    0.0
2111 348066.448   37.432947631 -122.106064369   -27.7494   2  17   0.0314   0.0332   0.0619  -0.0111  -0.0200  -0.0204   6.45    0.0
2111 348067.448   37.433156728 -122.106282456   -28.0977   2  15   0.0312   0.0330   0.0613  -0.0110  -0.0199  -0.0207   7.45    0.0
2111 348068.448   37.433366137 -122.106500050   -28.4167   2  18   0.0309   0.0328   0.0609  -0.0110  -0.0200  -0.0207   8.45    0.0
2111 348069.448   37.433574134 -122.106719033   -28.6648   2  16   0.0307   0.0327   0.0606  -0.0110  -0.0199  -0.0208   9.45    0.0
2111 348070.448   37.433780883 -122.106937987   -28.7350   2  17   0.0305   0.0327   0.0604  -0.0109  -0.0198  -0.0208  10.45    0.0
2111 348071.448   37.433985919 -122.107154028   -28.7021   2  13   0.0303   0.0326   0.0601  -0.0108  -0.0197  -0.0208  11.45    0.0
2111 348072.448   37.434187955 -122.107367946   -28.6853   2  16   0.0301   0.0325   0.0598  -0.0107  -0.0196  -0.0208  12.45    0.0
2111 348073.448   37.434387897 -122.107579172   -28.7107   2  17   0.0299   0.0324   0.0595  -0.0106  -0.0195  -0.0209  13.45    0.0
2111 348074.448   37.434585676 -122.107787258   -28.6929   2  14   0.0298   0.0323   0.0593  -0.0106  -0.0194  -0.0208  14.45    0.0
2111 348075.448   37.434781748 -122.107993082   -28.6837   2  15   0.0302   0.0336   0.0613  -0.0102  -0.0193  -0.0183 -14.55    0.0
2111 348076.448   37.434975491 -122.108196186   -28.6683   2  16   0.0297   0.0331   0.0599  -0.0104  -0.0195  -0.0196 -13.55    0.0
2111 348077.448   37.435166591 -122.108395882   -28.6637   2  14   0.0294   0.0328   0.0593  -0.0103  -0.0194  -0.0200 -12.55    0.0
2111 348078.448   37.435355327 -122.108594355   -28.6693   2  17   0.0292   0.0334   0.0591  -0.0106  -0.0199  -0.0199 -11.55    0.0
2111 348079.448   37.435542143 -122.108790084   -28.6863   2  16   0.0291   0.0328   0.0588  -0.0104  -0.0195  -0.0200 -10.55    0.0
2111 348080.448   37.435727038 -122.108983753   -28.6857   2  15   0.0293   0.0327   0.0602  -0.0094  -0.0180  -0.0181  -9.55    0.0
2111 348081.448   37.435910042 -122.109175095   -28.6632   2  16   0.0290   0.0331   0.0594  -0.0104  -0.0197  -0.0187  -8.55    0.0
2111 348082.448   37.436091706 -122.109365077   -28.6181   2  14   0.0287   0.0328   0.0588  -0.0103  -0.0195  -0.0191  -7.55    0.0
2111 348083.448   37.436275144 -122.109557490   -28.5704   2  16   0.0285   0.0326   0.0585  -0.0100  -0.0191  -0.0191  -6.55    0.0
2111 348084.448   37.436458646 -122.109750332   -28.7231   2  16   0.0283   0.0323   0.0581  -0.0099  -0.0190  -0.0194  -5.55    0.0
2111 348085.448   37.436641321 -122.109942425   -28.6913   2  17   0.0281   0.0321   0.0577  -0.0098  -0.0189  -0.0195  -4.55    0.0
2111 348086.448   37.436824549 -122.110134156   -28.6267   2  17   0.0280   0.0320   0.0575  -0.0099  -0.0190  -0.0194  -3.55    0.0
2111 348087.448   37.437008054 -122.110324763   -28.4762   2  15   0.0282   0.0325   0.0589  -0.0100  -0.0193  -0.0176  -2.55    0.0
2111 348088.448   37.437190908 -122.110517189   -28.4458   2  18   0.0279   0.0320   0.0578  -0.0099  -0.0191  -0.0186  -1.55    0.0
2111 348089.448   37.437376339 -122.110715239   -28.4643   2  16   0.0276   0.0318   0.0572  -0.0099  -0.0190  -0.0190  -0.55    0.0
2111 348090.448   37.437565265 -122.110916577   -28.4191   2  14   0.0274   0.0317   0.0569  -0.0098  -0.0189  -0.0191   0.45    0.0
2111 348091.448   37.437755582 -122.111116671   -28.3537   2  19   0.0273   0.0316   0.0566  -0.0098  -0.0189  -0.0191   1.45    0.0
2111 348092.448   37.437945741 -122.111316223   -28.3714   2  18   0.0271   0.0315   0.0563  -0.0097  -0.0188  -0.0191   2.45    0.0
2111 348093.448   37.438136119 -122.111515340   -28.3179   2  16   0.0270   0.0314   0.0561  -0.0097  -0.0188  -0.0191   3.45    0.0
2111 348094.448   37.438326874 -122.111715704   -28.2873   2  14   0.0268   0.0313   0.0558  -0.0097  -0.0187  -0.0191   4.45    0.0
2111 348095.448   37.438516541 -122.111915069   -28.2631   2  16   0.0267   0.0312   0.0556  -0.0096  -0.0187  -0.0191   5.45    0.0
2111 348096.448   37.438705745 -122.112113478   -28.2255   2  16   0.0270   0.0312   0.0569  -0.0087  -0.0176  -0.0173   6.45    0.0
2111 348097.448   37.438896610 -122.112313353   -28.1645   2  15   0.0267   0.0317   0.0560  -0.0096  -0.0189  -0.0181   7.45    0.0
2111 348098.448   37.439087292 -122.112512881   -28.0153   2  16   0.0264   0.0316   0.0555  -0.0095  -0.0189  -0.0185   8.45    0.0
2111 348099.448   37.439278052 -122.112712390   -27.8121   2  19   0.0263   0.0311   0.0551  -0.0093  -0.0187  -0.0186   9.45    0.0
2111 348100.448   37.439469523 -122.112913477   -27.5015   2  15   0.0261   0.0309   0.0547  -0.0092  -0.0185  -0.0187  10.45    0.0
2111 348101.448   37.439662975 -122.113117236   -27.2024   2  18   0.0259   0.0308   0.0544  -0.0090  -0.0184  -0.0188  11.45    0.0
2111 348102.448   37.439860771 -122.113324522   -27.0072   2  17   0.0258   0.0306   0.0541  -0.0089  -0.0183  -0.0189  12.45    0.0
2111 348103.448   37.440062769 -122.113536931   -26.9453   2  16   0.0256   0.0305   0.0538  -0.0088  -0.0182  -0.0189  13.45    0.0
2111 348104.448   37.440268506 -122.113754075   -26.9212   2  19   0.0255   0.0303   0.0536  -0.0087  -0.0181  -0.0189  14.45    0.0
2111 348105.448   37.440475528 -122.113972290   -27.0405   2  19   0.0253   0.0302   0.0534  -0.0086  -0.0180  -0.0190 -14.55    0.0
2111 348106.448   37.440682139 -122.114188376   -27.2777   2  18   0.0252   0.0301   0.0532  -0.0085  -0.0179  -0.0190 -13.55    0.0
2111 348107.448   37.440886656 -122.114403489   -27.6707   2  17   0.0251   0.0301   0.0531  -0.0084  -0.0176  -0.0189 -12.55    0.0
2111 348108.448   37.441088884 -122.114616340   -27.9654   2  19   0.0250   0.0300   0.0529  -0.0084  -0.0177  -0.0189 -11.55    0.0
2111 348109.448   37.441288331 -122.114825955   -28.1303   2  20   0.0249   0.0299   0.0527  -0.0084  -0.0177  -0.0189 -10.55    0.0
2111 348110.448   37.441485379 -122.115032133   -28.1458   2  19   0.0248   0.0298   0.0526  -0.0085  -0.0178  -0.0187  -9.55    0.0
2111 348111.448   37.441679601 -122.115235210   -28.1262   2  17   0.0247   0.0297   0.0524  -0.0085  -0.0178  -0.0187  -8.55    0.0
