% program   : RTKLIB ver.demo5 gdsc_2022
% inp file  : supplemental\gnss_log.obs
% inp file  : ..\slac2000.21o
% inp file  : ..\BRDM00DLR_S_20212000000_01D_MN.rnx
% obs start : 2021/07/19 20:49:37.4 GPST (week2167 161377.4s)
% obs end   : 2021/07/19 21:21:13.4 GPST (week2167 163273.4s)
% pos mode  : Kinematic
% freqs     : L1+L2/E5b+L5
% solution  : Combined-No Phase Reset
% elev mask : 5.0 deg
% dynamics  : on
% tidecorr  : off
% ionos opt : Broadcast
% tropo opt : Saastamoinen
% ephemeris : Broadcast
% navi sys  : GPS GLONASS Galileo
% amb res   : OFF
% amb glo   : OFF
% val thres : 3.0
% antenna1  :                       ( 0.0000  0.0000  0.0000)
% antenna2  :                       ( 0.0000  0.0000  0.0000)
% ref pos   : 37.416519040-122.204268280   63.7780
%
% (lat/lon/height=WGS84/ellipsoidal,Q=1:fix,2:float,3:sbas,4:dgps,5:single,6:ppp,ns=# of satellites)
%  GPST          latitude(deg) longitude(deg)  height(m)   Q  ns   sdn(m)   sde(m)   sdu(m)  sdne(m)  sdeu(m)  sdun(m) age(s)  ratio
2167 161377.439   37.444283335 -122.232773664   -17.7954   2   5   1.8016   1.1629   4.3162   0.7843  -1.6028  -2.1473   7.44    0.0
2167 161378.439   37.444117840 -122.232798890     5.3305   4   3   0.2299   0.2201   0.3126  -0.1901  -0.0523   0.0703   8.44    0.0
2167 161379.439   37.444107130 -122.232787442     5.1536   4   1   0.1380   0.1259   0.2766  -0.0656   0.0593  -0.0772   9.44    0.0
2167 161380.439   37.444105585 -122.232784234     5.1841   4   3   0.1435   0.1543   0.3026  -0.0894   0.1182  -0.0991  10.44    0.0
2167 161381.439   37.444104007 -122.232784227     4.8402   4   1   0.1281   0.1220   0.2591  -0.0565   0.0150  -0.0534  11.44    0.0
2167 161382.439   37.444104348 -122.232784900     4.7043   4   1   0.1211   0.1386   0.2742  -0.0648   0.0766  -0.0561  12.44    0.0
2167 161383.439   37.444102921 -122.232783503     4.6221   2   9   0.1053   0.0994   0.2322   0.0259  -0.0665  -0.0309  13.44    0.0
2167 161384.439   37.444103924 -122.232785866     4.7224   2  10   0.1231   0.1173   0.2281   0.0250  -0.0634  -0.0337  14.44    0.0
2167 161385.439   37.444110125 -122.232789607     4.8196   2  11   0.2556   0.2342   0.2413  -0.0524  -0.0666  -0.0516 -14.56    0.0
2167 161386.439   37.444093742 -122.232796667     6.3096   2   8   0.0727   0.0658   0.2085   0.0306  -0.0658  -0.0317 -13.56    0.0
2167 161387.439   37.444087313 -122.232801125     6.9980   2   8   0.0725   0.0657   0.2136   0.0310  -0.0650  -0.0308 -12.56    0.0
2167 161388.439   37.444120615 -122.232824328     5.8660   2   5   0.4410   0.3502   0.9372  -0.0853  -0.3456  -0.0895 -11.56    0.0
2167 161389.439   37.444084314 -122.232800851     7.5442   2   7   0.0680   0.0611   0.1826   0.0235  -0.0685  -0.0323 -10.56    0.0
2167 161390.439   37.444088544 -122.232803996     6.3930   2  11   0.0728   0.0641   0.2102   0.0089  -0.0813   0.0393  -9.56    0.0
2167 161391.439   37.444101579 -122.232826083     7.6082   2   7   0.0642   0.0586   0.1595   0.0296  -0.0614  -0.0506  -8.56    0.0
2167 161392.439   37.444105693 -122.232860243     8.2407   2  11   0.0622   0.0520   0.1539   0.0243  -0.0556  -0.0537  -7.56    0.0
2167 161393.439   37.444095633 -122.232898814     7.8703   2  13   0.0627   0.0521   0.1538   0.0253  -0.0574  -0.0521  -6.56    0.0
2167 161394.439   37.444069077 -122.232928412     7.3180   2  14   0.0597   0.0511   0.1514   0.0266  -0.0572  -0.0543  -5.56    0.0
2167 161395.439   37.444044424 -122.232944054     6.8067   2  16   0.0599   0.0507   0.1515   0.0260  -0.0564  -0.0535  -4.56    0.0
2167 161396.439   37.444027086 -122.232953378     6.7009   2  16   0.0599   0.0510   0.1519   0.0262  -0.0568  -0.0534  -3.56    0.0
2167 161397.439   37.444008074 -122.232966879     6.7137   2  12   0.0600   0.0512   0.1524   0.0263  -0.0573  -0.0534  -2.56    0.0
2167 161398.439   37.443981402 -122.232983912     6.6163   2  15   0.0600   0.0496   0.1514   0.0270  -0.0557  -0.0539  -1.56    0.0
2167 161399.439   37.443945434 -122.233007650     6.7382   2  13   0.0598   0.0487   0.1499   0.0268  -0.0537  -0.0531  -0.56    0.0
2167 161400.439   37.443910770 -122.233032058     6.8025   2  16   0.0600   0.0490   0.1495   0.0266  -0.0533  -0.0532   0.44    0.0
2167 161401.439   37.443883435 -122.233057077     6.5126   2  13   0.0604   0.0496   0.1502   0.0261  -0.0525  -0.0529   1.44    0.0
2167 161402.439   37.443866817 -122.233076863     6.2331   2  13   0.0611   0.0522   0.1516   0.0255  -0.0493  -0.0518   2.44    0.0
2167 161403.439   37.443856451 -122.233094683     6.7440   2  12   0.0587   0.0497   0.1479   0.0255  -0.0558  -0.0511   3.44    0.0
2167 161404.439   37.443852904 -122.233123030     6.8780   2  11   0.0595   0.0504   0.1512   0.0259  -0.0587  -0.0507   4.44    0.0
2167 161405.439   37.443858411 -122.233164299     6.7870   2  11   0.0614   0.0522   0.1543   0.0284  -0.0628  -0.0551   5.44    0.0
2167 161406.439   37.443876065 -122.233223499     7.0623   2  11   0.0531   0.0433   0.1333   0.0231  -0.0428  -0.0565   6.44    0.0
2167 161407.439   37.443907639 -122.233298042     6.9421   2  14   0.0520   0.0437   0.1333   0.0236  -0.0417  -0.0572   7.44    0.0
2167 161408.439   37.443949347 -122.233384369     6.6964   2  14   0.0523   0.0430   0.1337   0.0233  -0.0435  -0.0577   8.44    0.0
2167 161409.439   37.443996214 -122.233480223     6.4177   2  12   0.0524   0.0432   0.1347   0.0234  -0.0436  -0.0586   9.44    0.0
2167 161410.439   37.444046426 -122.233580578     5.9978   2  12   0.0529   0.0431   0.1376   0.0231  -0.0432  -0.0592  10.44    0.0
2167 161411.439   37.444099067 -122.233684398     5.6826   2  13   0.0543   0.0435   0.1420   0.0226  -0.0418  -0.0602  11.44    0.0
2167 161412.439   37.444152097 -122.233787676     6.0188   2  11   0.0578   0.0448   0.1536   0.0202  -0.0366  -0.0666  12.44    0.0
2167 161413.439   37.444207852 -122.233891189     5.9152   2  10   0.0506   0.0439   0.1209   0.0234  -0.0469  -0.0557  13.44    0.0
2167 161414.439   37.444256892 -122.233989850     6.2184   2  11   0.0470   0.0421   0.1092   0.0222  -0.0463  -0.0497  14.44    0.0
2167 161415.439   37.444302141 -122.234077709     6.3531   2  13   0.0459   0.0418   0.1088   0.0225  -0.0467  -0.0484 -14.56    0.0
2167 161416.439   37.444341742 -122.234152405     6.1044   2  15   0.0463   0.0414   0.1084   0.0224  -0.0457  -0.0476 -13.56    0.0
2167 161417.439   37.444366544 -122.234209629     6.1589   2  13   0.0423   0.0408   0.1043   0.0201  -0.0435  -0.0444 -12.56    0.0
2167 161418.439   37.444382113 -122.234243970     5.9313   2  13   0.0423   0.0396   0.1040   0.0193  -0.0423  -0.0439 -11.56    0.0
2167 161419.439   37.444390461 -122.234263247     5.8252   2  14   0.0429   0.0401   0.1050   0.0191  -0.0429  -0.0436 -10.56    0.0
2167 161420.439   37.444393166 -122.234266956     6.0218   2   8   0.0417   0.0392   0.1041   0.0222  -0.0433  -0.0471  -9.56    0.0
2167 161421.439   37.444393078 -122.234266950     6.0091   2   9   0.0415   0.0371   0.1031   0.0210  -0.0429  -0.0466  -8.56    0.0
2167 161422.439   37.444393024 -122.234266923     6.0019   2   8   0.0422   0.0390   0.1065   0.0230  -0.0463  -0.0486  -7.56    0.0
2167 161423.439   37.444392986 -122.234267284     6.0706   2   9   0.0408   0.0357   0.1003   0.0187  -0.0397  -0.0443  -6.56    0.0
2167 161424.439   37.444392740 -122.234267573     6.1600   2   9   0.0411   0.0363   0.1019   0.0195  -0.0411  -0.0451  -5.56    0.0
2167 161425.439   37.444392692 -122.234267682     6.1823   2   8   0.0409   0.0351   0.1005   0.0183  -0.0392  -0.0440  -4.56    0.0
2167 161426.439   37.444392663 -122.234267602     6.1275   2  13   0.0410   0.0358   0.1008   0.0185  -0.0397  -0.0438  -3.56    0.0
2167 161427.439   37.444392463 -122.234268115     6.1641   2  10   0.0411   0.0336   0.0992   0.0168  -0.0360  -0.0426  -2.56    0.0
2167 161428.439   37.444392422 -122.234267995     6.1843   2  12   0.0418   0.0340   0.1000   0.0163  -0.0357  -0.0421  -1.56    0.0
2167 161429.439   37.444392479 -122.234268171     6.1273   2  13   0.0407   0.0337   0.0994   0.0177  -0.0362  -0.0438  -0.56    0.0
2167 161430.439   37.444392419 -122.234268771     6.0157   2  14   0.0407   0.0337   0.0992   0.0177  -0.0366  -0.0436   0.44    0.0
2167 161431.439   37.444392691 -122.234268561     5.8094   2   9   0.0411   0.0338   0.1009   0.0176  -0.0369  -0.0441   1.44    0.0
2167 161432.439   37.444393335 -122.234271607     5.8257   2  14   0.0418   0.0337   0.0993   0.0173  -0.0366  -0.0441   2.44    0.0
2167 161433.439   37.444404118 -122.234294259     6.3620   2  13   0.0387   0.0335   0.0948   0.0168  -0.0355  -0.0458   3.44    0.0
2167 161434.439   37.444420152 -122.234346961     6.2029   2  16   0.0393   0.0347   0.0941   0.0170  -0.0369  -0.0465   4.44    0.0
2167 161435.439   37.444427760 -122.234417996     6.1639   2  16   0.0387   0.0344   0.0953   0.0179  -0.0378  -0.0473   5.44    0.0
2167 161436.439   37.444416278 -122.234498607     6.0289   2  12   0.0375   0.0333   0.0916   0.0156  -0.0350  -0.0445   6.44    0.0
2167 161437.439   37.444377606 -122.234581882     5.9960   2  18   0.0371   0.0300   0.0878   0.0137  -0.0297  -0.0429   7.44    0.0
2167 161438.439   37.444312107 -122.234655886     6.2642   2  16   0.0371   0.0298   0.0875   0.0136  -0.0296  -0.0427   8.44    0.0
2167 161439.439   37.444228679 -122.234724690     6.4979   2  17   0.0368   0.0296   0.0874   0.0131  -0.0292  -0.0424   9.44    0.0
2167 161440.439   37.444130223 -122.234798866     6.9123   2  16   0.0367   0.0294   0.0874   0.0127  -0.0289  -0.0422  10.44    0.0
2167 161441.439   37.444020706 -122.234873524     7.2919   2  19   0.0368   0.0294   0.0875   0.0127  -0.0289  -0.0423  11.44    0.0
2167 161442.439   37.443901984 -122.234950401     7.8149   2  20   0.0368   0.0295   0.0879   0.0127  -0.0290  -0.0424  12.44    0.0
2167 161443.439   37.443772995 -122.235033206     8.0344   2  19   0.0370   0.0295   0.0883   0.0128  -0.0290  -0.0426  13.44    0.0
2167 161444.439   37.443636599 -122.235121341     8.1161   2  18   0.0371   0.0296   0.0890   0.0129  -0.0291  -0.0429  14.44    0.0
2167 161445.439   37.443492678 -122.235216322     8.0970   2  19   0.0376   0.0298   0.0909   0.0134  -0.0295  -0.0440 -14.56    0.0
2167 161446.439   37.443343130 -122.235315994     8.1663   2  12   0.0372   0.0298   0.0915   0.0128  -0.0287  -0.0437 -13.56    0.0
2167 161447.439   37.443194298 -122.235416690     8.4297   2  14   0.0374   0.0301   0.0937   0.0126  -0.0277  -0.0442 -12.56    0.0
2167 161448.439   37.443048919 -122.235514186     9.0007   2  13   0.0374   0.0301   0.0910   0.0129  -0.0292  -0.0438 -11.56    0.0
2167 161449.439   37.442905940 -122.235609557     9.2485   2  19   0.0371   0.0296   0.0855   0.0124  -0.0307  -0.0422 -10.56    0.0
2167 161450.439   37.442762313 -122.235704730     9.9513   2  14   0.0371   0.0297   0.0849   0.0114  -0.0305  -0.0415  -9.56    0.0
2167 161451.439   37.442618219 -122.235799144    10.5863   2  13   0.0375   0.0297   0.0851   0.0115  -0.0304  -0.0419  -8.56    0.0
2167 161452.439   37.442474697 -122.235892774    11.3711   2  14   0.0358   0.0292   0.0843   0.0130  -0.0300  -0.0416  -7.56    0.0
2167 161453.439   37.442335130 -122.235984211    12.4203   2  19   0.0357   0.0292   0.0842   0.0130  -0.0299  -0.0414  -6.56    0.0
2167 161454.439   37.442201289 -122.236072857    13.4761   2  17   0.0357   0.0293   0.0843   0.0130  -0.0300  -0.0415  -5.56    0.0
2167 161455.439   37.442072795 -122.236159891    14.4983   2  13   0.0357   0.0293   0.0845   0.0130  -0.0301  -0.0416  -4.56    0.0
2167 161456.439   37.441946792 -122.236247281    15.2208   2  16   0.0354   0.0293   0.0841   0.0128  -0.0300  -0.0410  -3.56    0.0
2167 161457.439   37.441821194 -122.236335584    15.9359   2  19   0.0356   0.0295   0.0843   0.0127  -0.0301  -0.0410  -2.56    0.0
2167 161458.439   37.441694785 -122.236425711    16.6202   2  19   0.0358   0.0297   0.0846   0.0122  -0.0304  -0.0408  -1.56    0.0
2167 161459.439   37.441562826 -122.236518958    17.3123   2  16   0.0357   0.0297   0.0847   0.0128  -0.0302  -0.0413  -0.56    0.0
2167 161460.439   37.441427221 -122.236622994    18.2835   2  17   0.0351   0.0294   0.0844   0.0137  -0.0298  -0.0413   0.44    0.0
2167 161461.439   37.441294161 -122.236745213    18.9846   2  19   0.0349   0.0294   0.0828   0.0137  -0.0295  -0.0406   1.44    0.0
2167 161462.439   37.441161985 -122.236883826    19.9296   2  19   0.0349   0.0291   0.0829   0.0137  -0.0290  -0.0406   2.44    0.0
2167 161463.439   37.441031277 -122.237039395    21.2279   2  18   0.0347   0.0293   0.0843   0.0133  -0.0269  -0.0402   3.44    0.0
2167 161464.439   37.440904924 -122.237212364    22.3957   2  12   0.0342   0.0279   0.0819   0.0117  -0.0297  -0.0408   4.44    0.0
2167 161465.439   37.440790362 -122.237399889    23.6549   2  15   0.0343   0.0282   0.0824   0.0121  -0.0299  -0.0409   5.44    0.0
2167 161466.439   37.440683610 -122.237595788    24.9628   2  13   0.0343   0.0281   0.0815   0.0119  -0.0303  -0.0408   6.44    0.0
2167 161467.439   37.440579505 -122.237794716    26.1004   2  16   0.0343   0.0279   0.0814   0.0118  -0.0301  -0.0408   7.44    0.0
2167 161468.439   37.440472987 -122.237990481    27.4309   2  15   0.0339   0.0277   0.0802   0.0111  -0.0294  -0.0400   8.44    0.0
2167 161469.439   37.440358769 -122.238177771    28.6453   2  10   0.0339   0.0278   0.0801   0.0110  -0.0294  -0.0399   9.44    0.0
2167 161470.439   37.440240915 -122.238362256    29.7537   2  11   0.0338   0.0278   0.0801   0.0110  -0.0294  -0.0399  10.44    0.0
2167 161471.439   37.440119008 -122.238543799    30.8145   2  17   0.0338   0.0280   0.0801   0.0109  -0.0295  -0.0399  11.44    0.0
2167 161472.439   37.439992023 -122.238722783    31.8809   2  17   0.0339   0.0284   0.0802   0.0106  -0.0296  -0.0399  12.44    0.0
2167 161473.439   37.439858814 -122.238897504    32.9825   2  15   0.0339   0.0272   0.0802   0.0113  -0.0291  -0.0401  13.44    0.0
2167 161474.439   37.439721647 -122.239065888    33.9826   2  14   0.0338   0.0270   0.0795   0.0112  -0.0289  -0.0398  14.44    0.0
2167 161475.439   37.439581078 -122.239226737    35.0756   2  16   0.0338   0.0269   0.0795   0.0112  -0.0289  -0.0399 -14.56    0.0
2167 161476.439   37.439439064 -122.239374942    36.2903   2  19   0.0338   0.0268   0.0794   0.0111  -0.0288  -0.0398 -13.56    0.0
2167 161477.439   37.439297334 -122.239515375    37.4126   2  18   0.0339   0.0269   0.0796   0.0113  -0.0289  -0.0400 -12.56    0.0
2167 161478.439   37.439155407 -122.239648725    38.2638   2  18   0.0338   0.0269   0.0795   0.0112  -0.0289  -0.0399 -11.56    0.0
2167 161479.439   37.439011065 -122.239774663    39.0693   2  19   0.0339   0.0269   0.0797   0.0114  -0.0290  -0.0400 -10.56    0.0
2167 161480.439   37.438864994 -122.239894116    39.8989   2  20   0.0340   0.0270   0.0798   0.0115  -0.0291  -0.0401  -9.56    0.0
2167 161481.439   37.438717105 -122.240007614    40.5629   2  18   0.0340   0.0270   0.0798   0.0115  -0.0292  -0.0402  -8.56    0.0
2167 161482.439   37.438564383 -122.240117039    41.1441   2  19   0.0339   0.0268   0.0795   0.0113  -0.0289  -0.0399  -7.56    0.0
2167 161483.439   37.438406772 -122.240220766    41.6086   2  19   0.0340   0.0269   0.0796   0.0113  -0.0290  -0.0400  -6.56    0.0
2167 161484.439   37.438244258 -122.240317998    41.9726   2  20   0.0340   0.0269   0.0797   0.0114  -0.0290  -0.0401  -5.56    0.0
2167 161485.439   37.438077189 -122.240409606    42.1870   2  19   0.0342   0.0269   0.0800   0.0116  -0.0292  -0.0404  -4.56    0.0
2167 161486.439   37.437906213 -122.240496414    42.3326   2  17   0.0346   0.0270   0.0807   0.0120  -0.0296  -0.0410  -3.56    0.0
2167 161487.439   37.437733438 -122.240579134    42.5685   2  12   0.0341   0.0269   0.0802   0.0115  -0.0293  -0.0403  -2.56    0.0
2167 161488.439   37.437560482 -122.240659200    42.4722   2  13   0.0342   0.0270   0.0802   0.0116  -0.0293  -0.0404  -1.56    0.0
2167 161489.439   37.437387821 -122.240743126    42.7429   2  17   0.0339   0.0269   0.0796   0.0113  -0.0290  -0.0398  -0.56    0.0
2167 161490.439   37.437215996 -122.240832866    43.1560   2  19   0.0338   0.0268   0.0791   0.0111  -0.0288  -0.0396   0.44    0.0
2167 161491.439   37.437048091 -122.240927660    43.5803   2  18   0.0340   0.0269   0.0793   0.0113  -0.0289  -0.0398   1.44    0.0
2167 161492.439   37.436888106 -122.241030740    44.0847   2  16   0.0334   0.0268   0.0787   0.0107  -0.0286  -0.0391   2.44    0.0
2167 161493.439   37.436737620 -122.241147369    44.8484   2  18   0.0331   0.0267   0.0779   0.0103  -0.0281  -0.0385   3.44    0.0
2167 161494.439   37.436602593 -122.241279681    45.5540   2  20   0.0332   0.0268   0.0780   0.0104  -0.0282  -0.0386   4.44    0.0
2167 161495.439   37.436484733 -122.241424740    46.0801   2  14   0.0334   0.0269   0.0787   0.0107  -0.0285  -0.0391   5.44    0.0
2167 161496.439   37.436377285 -122.241574364    46.7691   2  19   0.0327   0.0268   0.0767   0.0096  -0.0275  -0.0376   6.44    0.0
2167 161497.439   37.436278986 -122.241722465    47.4901   2  15   0.0326   0.0268   0.0767   0.0092  -0.0276  -0.0375   7.44    0.0
2167 161498.439   37.436191183 -122.241866981    48.1926   2  14   0.0325   0.0269   0.0767   0.0088  -0.0275  -0.0373   8.44    0.0
2167 161499.439   37.436113121 -122.242004456    48.8922   2  15   0.0328   0.0282   0.0786   0.0098  -0.0295  -0.0380   9.44    0.0
2167 161500.439   37.436052219 -122.242128949    49.4660   2  17   0.0326   0.0261   0.0754   0.0056  -0.0256  -0.0369  10.44    0.0
2167 161501.439   37.436012021 -122.242233109    49.8064   2  16   0.0327   0.0258   0.0758   0.0060  -0.0256  -0.0373  11.44    0.0
2167 161502.439   37.435990746 -122.242313181    50.1688   2  16   0.0326   0.0253   0.0754   0.0061  -0.0252  -0.0371  12.44    0.0
2167 161503.439   37.435981966 -122.242365786    50.2480   2  11   0.0316   0.0244   0.0725   0.0037  -0.0231  -0.0349  13.44    0.0
2167 161504.439   37.435978829 -122.242394449    50.2989   2  13   0.0315   0.0250   0.0727  -0.0008  -0.0245  -0.0341  14.44    0.0
2167 161505.439   37.435976894 -122.242417025    50.4353   2  16   0.0315   0.0246   0.0724   0.0030  -0.0239  -0.0343 -14.56    0.0
2167 161506.439   37.435975393 -122.242455964    50.4894   2  12   0.0315   0.0246   0.0723   0.0027  -0.0237  -0.0343 -13.56    0.0
2167 161507.439   37.435976331 -122.242522854    50.6605   2  17   0.0315   0.0248   0.0725   0.0033  -0.0240  -0.0343 -12.56    0.0
2167 161508.439   37.435985151 -122.242607721    51.0260   2  18   0.0316   0.0247   0.0724   0.0036  -0.0237  -0.0341 -11.56    0.0
2167 161509.439   37.436004299 -122.242700525    51.3589   2  13   0.0315   0.0246   0.0718   0.0040  -0.0229  -0.0343 -10.56    0.0
2167 161510.439   37.436031854 -122.242803206    51.7941   2  15   0.0317   0.0245   0.0719   0.0035  -0.0226  -0.0339  -9.56    0.0
2167 161511.439   37.436065672 -122.242914987    52.3571   2  14   0.0322   0.0243   0.0722   0.0032  -0.0221  -0.0335  -8.56    0.0
2167 161512.439   37.436105770 -122.243032976    52.9929   2  16   0.0319   0.0243   0.0724   0.0035  -0.0221  -0.0337  -7.56    0.0
2167 161513.439   37.436149372 -122.243154851    53.5407   2  14   0.0310   0.0232   0.0724  -0.0068  -0.0218  -0.0340  -6.56    0.0
2167 161514.439   37.436195575 -122.243274844    54.1947   2  15   0.0306   0.0232   0.0730  -0.0058  -0.0217  -0.0343  -5.56    0.0
2167 161515.439   37.436240541 -122.243388374    54.8738   2  10   0.0307   0.0231   0.0735  -0.0059  -0.0217  -0.0345  -4.56    0.0
2167 161516.439   37.436285069 -122.243498977    55.5580   2  14   0.0304   0.0231   0.0722  -0.0059  -0.0217  -0.0339  -3.56    0.0
2167 161517.439   37.436330202 -122.243610319    56.1526   2  18   0.0300   0.0231   0.0718  -0.0049  -0.0217  -0.0343  -2.56    0.0
2167 161518.439   37.436379683 -122.243726119    56.8309   2  14   0.0302   0.0231   0.0702  -0.0049  -0.0216  -0.0341  -1.56    0.0
2167 161519.439   37.436433580 -122.243844595    57.5128   2  17   0.0305   0.0230   0.0701  -0.0066  -0.0212  -0.0341  -0.56    0.0
2167 161520.439   37.436491341 -122.243962888    58.2952   2  18   0.0310   0.0233   0.0702  -0.0066  -0.0215  -0.0344   0.44    0.0
2167 161521.439   37.436555252 -122.244079834    58.9732   2  20   0.0307   0.0224   0.0692  -0.0079  -0.0197  -0.0337   1.44    0.0
2167 161522.439   37.436624925 -122.244195954    59.7290   2  16   0.0303   0.0224   0.0696  -0.0074  -0.0198  -0.0338   2.44    0.0
2167 161523.439   37.436699375 -122.244311526    60.5129   2  18   0.0306   0.0224   0.0704  -0.0077  -0.0192  -0.0347   3.44    0.0
2167 161524.439   37.436778814 -122.244425564    61.3598   2  13   0.0303   0.0224   0.0682  -0.0075  -0.0199  -0.0333   4.44    0.0
2167 161525.439   37.436861892 -122.244539938    62.2334   2  17   0.0308   0.0224   0.0683  -0.0081  -0.0198  -0.0335   5.44    0.0
2167 161526.439   37.436947104 -122.244655811    63.1209   2  13   0.0305   0.0224   0.0683  -0.0078  -0.0199  -0.0334   6.44    0.0
2167 161527.439   37.437033263 -122.244773517    63.8673   2  17   0.0294   0.0222   0.0681  -0.0062  -0.0198  -0.0335   7.44    0.0
2167 161528.439   37.437121370 -122.244895412    64.5630   2  16   0.0294   0.0222   0.0683  -0.0063  -0.0197  -0.0336   8.44    0.0
2167 161529.439   37.437212509 -122.245020617    65.2522   2  15   0.0293   0.0222   0.0682  -0.0061  -0.0198  -0.0335   9.44    0.0
2167 161530.439   37.437307371 -122.245149635    65.9303   2  17   0.0293   0.0222   0.0682  -0.0060  -0.0198  -0.0335  10.44    0.0
2167 161531.439   37.437406442 -122.245283315    66.5812   2  16   0.0293   0.0222   0.0682  -0.0061  -0.0198  -0.0335  11.44    0.0
2167 161532.439   37.437509696 -122.245422343    67.2710   2  19   0.0293   0.0222   0.0683  -0.0061  -0.0197  -0.0335  12.44    0.0
2167 161533.439   37.437617733 -122.245564745    67.9673   2  19   0.0294   0.0222   0.0685  -0.0063  -0.0196  -0.0338  13.44    0.0
2167 161534.439   37.437727912 -122.245707322    68.6728   2  16   0.0291   0.0222   0.0680  -0.0057  -0.0200  -0.0332  14.44    0.0
2167 161535.439   37.437837996 -122.245848283    69.4872   2  16   0.0291   0.0222   0.0679  -0.0058  -0.0199  -0.0332 -14.56    0.0
2167 161536.439   37.437946464 -122.245991519    70.1953   2  15   0.0291   0.0222   0.0679  -0.0059  -0.0199  -0.0332 -13.56    0.0
2167 161537.439   37.438054487 -122.246139968    70.8847   2  15   0.0291   0.0222   0.0679  -0.0058  -0.0200  -0.0332 -12.56    0.0
2167 161538.439   37.438165774 -122.246293260    71.7174   2  16   0.0290   0.0221   0.0678  -0.0058  -0.0199  -0.0331 -11.56    0.0
2167 161539.439   37.438283455 -122.246448798    72.5504   2  19   0.0289   0.0221   0.0676  -0.0057  -0.0200  -0.0329 -10.56    0.0
2167 161540.439   37.438406706 -122.246605710    73.3166   2  15   0.0290   0.0222   0.0677  -0.0059  -0.0199  -0.0330  -9.56    0.0
2167 161541.439   37.438532139 -122.246760491    74.1210   2  14   0.0289   0.0222   0.0676  -0.0055  -0.0201  -0.0329  -8.56    0.0
2167 161542.439   37.438657667 -122.246913034    74.8482   2  15   0.0289   0.0222   0.0677  -0.0054  -0.0203  -0.0329  -7.56    0.0
2167 161543.439   37.438782319 -122.247064308    75.5688   2  18   0.0289   0.0221   0.0676  -0.0056  -0.0201  -0.0328  -6.56    0.0
2167 161544.439   37.438904587 -122.247214960    76.3620   2  20   0.0289   0.0221   0.0676  -0.0058  -0.0200  -0.0328  -5.56    0.0
2167 161545.439   37.439026311 -122.247367610    77.1337   2  20   0.0289   0.0221   0.0676  -0.0058  -0.0200  -0.0328  -4.56    0.0
2167 161546.439   37.439149368 -122.247522944    77.9147   2  17   0.0290   0.0221   0.0677  -0.0059  -0.0200  -0.0329  -3.56    0.0
2167 161547.439   37.439275036 -122.247682414    78.7232   2  15   0.0289   0.0221   0.0676  -0.0059  -0.0199  -0.0328  -2.56    0.0
2167 161548.439   37.439403042 -122.247844893    79.4938   2  22   0.0289   0.0221   0.0676  -0.0059  -0.0199  -0.0329  -1.56    0.0
2167 161549.439   37.439532460 -122.248009771    80.3368   2  16   0.0290   0.0221   0.0677  -0.0060  -0.0199  -0.0329  -0.56    0.0
2167 161550.439   37.439662798 -122.248175375    81.1707   2  19   0.0289   0.0221   0.0676  -0.0059  -0.0200  -0.0328   0.44    0.0
2167 161551.439   37.439793453 -122.248341131    81.9822   2  18   0.0289   0.0221   0.0676  -0.0059  -0.0200  -0.0328   1.44    0.0
2167 161552.439   37.439924287 -122.248508870    82.8021   2  12   0.0290   0.0221   0.0678  -0.0060  -0.0200  -0.0329   2.44    0.0
2167 161553.439   37.440055134 -122.248678270    83.6399   2  17   0.0290   0.0221   0.0677  -0.0060  -0.0200  -0.0328   3.44    0.0
2167 161554.439   37.440186067 -122.248848650    84.5135   2  18   0.0289   0.0221   0.0677  -0.0060  -0.0201  -0.0327   4.44    0.0
2167 161555.439   37.440317510 -122.249020849    85.3637   2  19   0.0290   0.0221   0.0677  -0.0060  -0.0201  -0.0327   5.44    0.0
2167 161556.439   37.440449066 -122.249194156    86.2269   2  19   0.0290   0.0221   0.0678  -0.0061  -0.0201  -0.0327   6.44    0.0
2167 161557.439   37.440580784 -122.249366921    87.0733   2  17   0.0291   0.0221   0.0679  -0.0062  -0.0201  -0.0327   7.44    0.0
2167 161558.439   37.440712577 -122.249538975    87.9032   2  18   0.0292   0.0221   0.0680  -0.0064  -0.0202  -0.0327   8.44    0.0
2167 161559.439   37.440844874 -122.249711308    88.7374   2  19   0.0293   0.0222   0.0683  -0.0066  -0.0202  -0.0326   9.44    0.0
2167 161560.439   37.440978742 -122.249884820    89.5948   2  15   0.0298   0.0222   0.0688  -0.0072  -0.0205  -0.0323  10.44    0.0
2167 161561.439   37.441114003 -122.250059842    90.4453   2  14   0.0292   0.0222   0.0685  -0.0065  -0.0197  -0.0334  11.44    0.0
2167 161562.439   37.441250490 -122.250237127    91.3387   2  16   0.0288   0.0221   0.0676  -0.0059  -0.0200  -0.0329  12.44    0.0
2167 161563.439   37.441388498 -122.250416382    92.2598   2  17   0.0288   0.0221   0.0676  -0.0059  -0.0199  -0.0330  13.44    0.0
2167 161564.439   37.441527672 -122.250597704    93.2301   2  18   0.0287   0.0221   0.0675  -0.0058  -0.0200  -0.0329  14.44    0.0
2167 161565.439   37.441667327 -122.250780517    94.3051   2  18   0.0287   0.0221   0.0675  -0.0057  -0.0200  -0.0329 -14.56    0.0
2167 161566.439   37.441808418 -122.250965518    95.3475   2  20   0.0287   0.0221   0.0674  -0.0057  -0.0200  -0.0329 -13.56    0.0
2167 161567.439   37.441950507 -122.251151447    96.4084   2  15   0.0287   0.0221   0.0675  -0.0057  -0.0201  -0.0329 -12.56    0.0
2167 161568.439   37.442092022 -122.251337989    97.3605   2  16   0.0287   0.0221   0.0675  -0.0057  -0.0201  -0.0329 -11.56    0.0
2167 161569.439   37.442230343 -122.251526923    98.3217   2  18   0.0287   0.0222   0.0674  -0.0058  -0.0201  -0.0328 -10.56    0.0
2167 161570.439   37.442364364 -122.251719669    99.1754   2  18   0.0288   0.0224   0.0679  -0.0056  -0.0205  -0.0330  -9.56    0.0
2167 161571.439   37.442493772 -122.251917228   100.2196   2  15   0.0290   0.0227   0.0686  -0.0050  -0.0212  -0.0333  -8.56    0.0
2167 161572.439   37.442619478 -122.252117528   101.1154   2  17   0.0289   0.0226   0.0686  -0.0054  -0.0208  -0.0332  -7.56    0.0
2167 161573.439   37.442740270 -122.252321710   101.9665   2  19   0.0292   0.0226   0.0690  -0.0063  -0.0202  -0.0333  -6.56    0.0
2167 161574.439   37.442856157 -122.252528831   102.9480   2  13   0.0292   0.0228   0.0700  -0.0048  -0.0215  -0.0330  -5.56    0.0
2167 161575.439   37.442965768 -122.252741781   104.5038   2  14   0.0291   0.0229   0.0696  -0.0052  -0.0203  -0.0337  -4.56    0.0
2167 161576.439   37.443072872 -122.252955409   105.3686   2  11   0.0290   0.0229   0.0694  -0.0042  -0.0208  -0.0338  -3.56    0.0
2167 161577.439   37.443176004 -122.253171134   106.0779   2  15   0.0289   0.0226   0.0688  -0.0049  -0.0198  -0.0335  -2.56    0.0
2167 161578.439   37.443275087 -122.253389326   107.0145   2  18   0.0288   0.0224   0.0682  -0.0050  -0.0203  -0.0334  -1.56    0.0
2167 161579.439   37.443370519 -122.253610806   107.8984   2  16   0.0288   0.0222   0.0677  -0.0054  -0.0200  -0.0332  -0.56    0.0
2167 161580.439   37.443461680 -122.253835022   108.7891   2  17   0.0287   0.0222   0.0676  -0.0052  -0.0202  -0.0332   0.44    0.0
2167 161581.439   37.443548186 -122.254062031   109.6773   2  15   0.0289   0.0226   0.0682  -0.0041  -0.0211  -0.0335   1.44    0.0
2167 161582.439   37.443630324 -122.254290416   110.5771   2  15   0.0288   0.0228   0.0681  -0.0038  -0.0214  -0.0334   2.44    0.0
2167 161583.439   37.443707528 -122.254520234   111.3506   2  15   0.0287   0.0225   0.0678  -0.0046  -0.0209  -0.0333   3.44    0.0
2167 161584.439   37.443779758 -122.254751625   112.1617   2  15   0.0287   0.0223   0.0674  -0.0052  -0.0204  -0.0331   4.44    0.0
2167 161585.439   37.443847164 -122.254985071   113.0115   2  17   0.0287   0.0222   0.0673  -0.0053  -0.0202  -0.0330   5.44    0.0
2167 161586.439   37.443909587 -122.255216038   113.8492   2  19   0.0286   0.0221   0.0672  -0.0054  -0.0201  -0.0330   6.44    0.0
2167 161587.439   37.443968334 -122.255448100   114.6843   2  17   0.0287   0.0222   0.0674  -0.0055  -0.0202  -0.0330   7.44    0.0
2167 161588.439   37.444022816 -122.255681490   115.5404   2  17   0.0287   0.0222   0.0674  -0.0055  -0.0202  -0.0330   8.44    0.0
2167 161589.439   37.444072774 -122.255915372   116.3939   2  14   0.0287   0.0222   0.0674  -0.0054  -0.0203  -0.0330   9.44    0.0
2167 161590.439   37.444117783 -122.256149583   117.1976   2  17   0.0287   0.0222   0.0674  -0.0055  -0.0202  -0.0330  10.44    0.0
2167 161591.439   37.444158192 -122.256383970   117.9784   2  15   0.0287   0.0223   0.0674  -0.0055  -0.0204  -0.0330  11.44    0.0
2167 161592.439   37.444193997 -122.256618995   118.7478   2  16   0.0286   0.0222   0.0673  -0.0055  -0.0203  -0.0329  12.44    0.0
2167 161593.439   37.444225932 -122.256854040   119.4649   2  16   0.0287   0.0222   0.0674  -0.0055  -0.0203  -0.0330  13.44    0.0
2167 161594.439   37.444254255 -122.257089214   120.1157   2  18   0.0286   0.0221   0.0672  -0.0056  -0.0201  -0.0329  14.44    0.0
2167 161595.439   37.444278245 -122.257325169   120.7338   2  20   0.0286   0.0220   0.0672  -0.0055  -0.0200  -0.0330 -14.56    0.0
2167 161596.439   37.444297571 -122.257561922   121.3667   2  15   0.0287   0.0221   0.0673  -0.0054  -0.0202  -0.0330 -13.56    0.0
2167 161597.439   37.444312181 -122.257799139   121.9416   2  13   0.0287   0.0222   0.0675  -0.0053  -0.0204  -0.0330 -12.56    0.0
2167 161598.439   37.444322045 -122.258037464   122.4948   2  17   0.0287   0.0221   0.0673  -0.0055  -0.0201  -0.0330 -11.56    0.0
2167 161599.439   37.444327842 -122.258276609   122.9976   2  13   0.0287   0.0219   0.0672  -0.0055  -0.0198  -0.0330 -10.56    0.0
2167 161600.439   37.444329387 -122.258516733   123.4705   2  15   0.0287   0.0218   0.0671  -0.0056  -0.0197  -0.0330  -9.56    0.0
2167 161601.439   37.444326150 -122.258758262   123.8888   2  15   0.0287   0.0218   0.0671  -0.0057  -0.0197  -0.0330  -8.56    0.0
2167 161602.439   37.444318149 -122.259001492   124.2961   2  17   0.0287   0.0218   0.0671  -0.0058  -0.0196  -0.0330  -7.56    0.0
2167 161603.439   37.444306154 -122.259246842   124.6166   2  17   0.0287   0.0218   0.0671  -0.0058  -0.0196  -0.0330  -6.56    0.0
2167 161604.439   37.444290664 -122.259494595   124.8294   2  17   0.0287   0.0218   0.0671  -0.0058  -0.0197  -0.0330  -5.56    0.0
2167 161605.439   37.444271668 -122.259746037   125.0628   2  15   0.0287   0.0218   0.0671  -0.0058  -0.0196  -0.0330  -4.56    0.0
2167 161606.439   37.444251341 -122.260001680   125.2319   2  16   0.0287   0.0218   0.0671  -0.0058  -0.0196  -0.0330  -3.56    0.0
2167 161607.439   37.444231340 -122.260260146   125.3544   2  16   0.0287   0.0218   0.0670  -0.0058  -0.0197  -0.0330  -2.56    0.0
2167 161608.439   37.444210900 -122.260521294   125.4528   2  17   0.0287   0.0218   0.0670  -0.0058  -0.0196  -0.0329  -1.56    0.0
2167 161609.439   37.444189630 -122.260787138   125.5452   2  15   0.0287   0.0218   0.0670  -0.0058  -0.0196  -0.0329  -0.56    0.0
2167 161610.439   37.444168049 -122.261053307   125.6758   2  17   0.0287   0.0218   0.0670  -0.0058  -0.0196  -0.0330   0.44    0.0
2167 161611.439   37.444146412 -122.261315698   125.8316   2  15   0.0287   0.0218   0.0669  -0.0059  -0.0196  -0.0329   1.44    0.0
2167 161612.439   37.444124544 -122.261574005   126.0665   2  13   0.0287   0.0218   0.0669  -0.0059  -0.0196  -0.0329   2.44    0.0
2167 161613.439   37.444103237 -122.261827955   126.1919   2  16   0.0287   0.0218   0.0669  -0.0059  -0.0196  -0.0329   3.44    0.0
2167 161614.439   37.444083378 -122.262078123   126.3196   2  14   0.0287   0.0218   0.0669  -0.0059  -0.0196  -0.0329   4.44    0.0
2167 161615.439   37.444064078 -122.262324310   126.4300   2  16   0.0287   0.0218   0.0670  -0.0059  -0.0196  -0.0329   5.44    0.0
2167 161616.439   37.444045229 -122.262566454   126.5293   2  13   0.0287   0.0218   0.0670  -0.0060  -0.0196  -0.0329   6.44    0.0
2167 161617.439   37.444027207 -122.262805078   126.5868   2  13   0.0287   0.0218   0.0670  -0.0060  -0.0196  -0.0329   7.44    0.0
2167 161618.439   37.444010015 -122.263040036   126.6624   2  15   0.0287   0.0218   0.0670  -0.0060  -0.0196  -0.0329   8.44    0.0
2167 161619.439   37.443993267 -122.263271345   126.7787   2  13   0.0287   0.0218   0.0670  -0.0060  -0.0196  -0.0329   9.44    0.0
2167 161620.439   37.443976153 -122.263499060   126.8425   2  16   0.0287   0.0218   0.0669  -0.0060  -0.0196  -0.0329  10.44    0.0
2167 161621.439   37.443958720 -122.263723606   126.8889   2  12   0.0287   0.0218   0.0670  -0.0060  -0.0196  -0.0329  11.44    0.0
2167 161622.439   37.443942315 -122.263945869   126.9479   2  14   0.0287   0.0218   0.0670  -0.0060  -0.0196  -0.0329  12.44    0.0
2167 161623.439   37.443927932 -122.264171765   126.9637   2  13   0.0288   0.0219   0.0670  -0.0062  -0.0196  -0.0329  13.44    0.0
2167 161624.439   37.443917829 -122.264403066   126.9684   2  14   0.0288   0.0218   0.0669  -0.0062  -0.0196  -0.0329  14.44    0.0
2167 161625.439   37.443912816 -122.264639108   126.9382   2  17   0.0288   0.0218   0.0669  -0.0061  -0.0196  -0.0329 -14.56    0.0
2167 161626.439   37.443911748 -122.264877820   126.9079   2  17   0.0287   0.0218   0.0669  -0.0061  -0.0196  -0.0328 -13.56    0.0
2167 161627.439   37.443914587 -122.265118994   126.8249   2  17   0.0288   0.0218   0.0669  -0.0061  -0.0196  -0.0329 -12.56    0.0
2167 161628.439   37.443921097 -122.265365001   126.7342   2  19   0.0287   0.0218   0.0669  -0.0061  -0.0196  -0.0329 -11.56    0.0
2167 161629.439   37.443931901 -122.265615653   126.5930   2  22   0.0287   0.0218   0.0669  -0.0061  -0.0197  -0.0328 -10.56    0.0
2167 161630.439   37.443947793 -122.265870421   126.4242   2  21   0.0287   0.0218   0.0668  -0.0060  -0.0197  -0.0328  -9.56    0.0
2167 161631.439   37.443969124 -122.266129568   126.2153   2  21   0.0287   0.0219   0.0668  -0.0060  -0.0197  -0.0328  -8.56    0.0
2167 161632.439   37.443995778 -122.266392878   125.9568   2  18   0.0287   0.0219   0.0669  -0.0059  -0.0199  -0.0329  -7.56    0.0
2167 161633.439   37.444027874 -122.266661284   125.6497   2  18   0.0288   0.0219   0.0670  -0.0059  -0.0199  -0.0329  -6.56    0.0
2167 161634.439   37.444064817 -122.266936149   125.3682   2  16   0.0288   0.0223   0.0673  -0.0058  -0.0204  -0.0330  -5.56    0.0
2167 161635.439   37.444107359 -122.267215333   125.0960   2  14   0.0289   0.0224   0.0675  -0.0056  -0.0207  -0.0331  -4.56    0.0
2167 161636.439   37.444156481 -122.267497444   124.7339   2  20   0.0289   0.0221   0.0673  -0.0058  -0.0202  -0.0331  -3.56    0.0
2167 161637.439   37.444213282 -122.267780513   124.3757   2  14   0.0294   0.0222   0.0680  -0.0052  -0.0205  -0.0339  -2.56    0.0
2167 161638.439   37.444276736 -122.268059572   123.9240   2  15   0.0292   0.0221   0.0676  -0.0056  -0.0202  -0.0335  -1.56    0.0
2167 161639.439   37.444345288 -122.268334906   123.5518   2  16   0.0290   0.0222   0.0674  -0.0058  -0.0202  -0.0333  -0.56    0.0
2167 161640.439   37.444418977 -122.268606109   123.2787   2  17   0.0292   0.0226   0.0684  -0.0050  -0.0213  -0.0338   0.44    0.0
2167 161641.439   37.444498130 -122.268871949   122.7350   2  17   0.0291   0.0221   0.0675  -0.0060  -0.0196  -0.0336   1.44    0.0
2167 161642.439   37.444581776 -122.269134157   122.3319   2  16   0.0295   0.0228   0.0695  -0.0040  -0.0216  -0.0346   2.44    0.0
2167 161643.439   37.444671137 -122.269395241   121.8608   2  14   0.0296   0.0231   0.0692  -0.0043  -0.0205  -0.0344   3.44    0.0
2167 161644.439   37.444765771 -122.269657272   121.4498   2  12   0.0303   0.0240   0.0711  -0.0050  -0.0197  -0.0356   4.44    0.0
2167 161645.439   37.444864086 -122.269918667   121.1840   2   7   0.0290   0.0240   0.0693  -0.0010  -0.0196  -0.0334   5.44    0.0
2167 161646.439   37.444966355 -122.270176883   121.1222   2  13   0.0317   0.0256   0.0735  -0.0061  -0.0178  -0.0373   6.44    0.0
2167 161647.439   37.445076753 -122.270435796   120.8089   2  13   0.0314   0.0247   0.0723  -0.0030  -0.0200  -0.0365   7.44    0.0
2167 161648.439   37.445193919 -122.270692304   120.5200   2  14   0.0305   0.0238   0.0711  -0.0041  -0.0204  -0.0354   8.44    0.0
2167 161649.439   37.445317717 -122.270945865   120.3256   2  15   0.0302   0.0234   0.0697  -0.0058  -0.0197  -0.0345   9.44    0.0
2167 161650.439   37.445447522 -122.271196916   120.2336   2  18   0.0303   0.0229   0.0689  -0.0073  -0.0193  -0.0342  10.44    0.0
2167 161651.439   37.445583978 -122.271444103   120.1065   2  19   0.0302   0.0227   0.0688  -0.0078  -0.0194  -0.0339  11.44    0.0
2167 161652.439   37.445726818 -122.271687264   120.1318   2  20   0.0301   0.0224   0.0682  -0.0076  -0.0188  -0.0338  12.44    0.0
2167 161653.439   37.445874836 -122.271926426   120.2006   2  17   0.0302   0.0223   0.0683  -0.0075  -0.0189  -0.0340  13.44    0.0
2167 161654.439   37.446027175 -122.272162036   120.3981   2  15   0.0305   0.0223   0.0682  -0.0083  -0.0188  -0.0337  14.44    0.0
2167 161655.439   37.446183538 -122.272393320   120.7048   2  15   0.0304   0.0222   0.0681  -0.0082  -0.0188  -0.0335 -14.56    0.0
2167 161656.439   37.446342063 -122.272621264   121.0202   2  15   0.0302   0.0221   0.0680  -0.0079  -0.0189  -0.0335 -13.56    0.0
2167 161657.439   37.446500180 -122.272848603   121.3916   2  20   0.0302   0.0221   0.0681  -0.0077  -0.0190  -0.0335 -12.56    0.0
2167 161658.439   37.446658198 -122.273075286   121.7193   2  13   0.0303   0.0223   0.0683  -0.0080  -0.0192  -0.0335 -11.56    0.0
2167 161659.439   37.446815850 -122.273300643   122.1795   2  13   0.0317   0.0227   0.0684  -0.0099  -0.0194  -0.0335 -10.56    0.0
2167 161660.439   37.446973145 -122.273524206   122.5400   2  11   0.0323   0.0246   0.0704  -0.0107  -0.0233  -0.0330  -9.56    0.0
2167 161661.439   37.447128797 -122.273750241   123.5124   2  14   0.0318   0.0245   0.0707  -0.0093  -0.0235  -0.0335  -8.56    0.0
2167 161662.439   37.447283710 -122.273975219   124.3821   2  14   0.0314   0.0236   0.0695  -0.0096  -0.0214  -0.0332  -7.56    0.0
2167 161663.439   37.447438284 -122.274197561   125.1504   2  16   0.0314   0.0238   0.0701  -0.0087  -0.0220  -0.0338  -6.56    0.0
2167 161664.439   37.447592219 -122.274417246   125.8023   2  15   0.0311   0.0232   0.0689  -0.0100  -0.0200  -0.0332  -5.56    0.0
2167 161665.439   37.447745235 -122.274636593   126.5982   2  14   0.0310   0.0231   0.0689  -0.0095  -0.0202  -0.0332  -4.56    0.0
2167 161666.439   37.447897807 -122.274854721   127.3497   2  11   0.0309   0.0230   0.0689  -0.0092  -0.0204  -0.0332  -3.56    0.0
2167 161667.439   37.448049764 -122.275071366   128.0394   2  15   0.0311   0.0235   0.0695  -0.0088  -0.0211  -0.0336  -2.56    0.0
2167 161668.439   37.448201007 -122.275287290   128.8413   2  15   0.0313   0.0239   0.0697  -0.0095  -0.0206  -0.0339  -1.56    0.0
2167 161669.439   37.448353731 -122.275501632   129.2566   2  16   0.0312   0.0236   0.0690  -0.0104  -0.0193  -0.0336  -0.56    0.0
2167 161670.439   37.448507609 -122.275717609   129.9458   2  13   0.0309   0.0232   0.0685  -0.0097  -0.0196  -0.0332   0.44    0.0
2167 161671.439   37.448663229 -122.275934661   130.5862   2  15   0.0314   0.0233   0.0692  -0.0100  -0.0194  -0.0339   1.44    0.0
2167 161672.439   37.448819211 -122.276153091   131.3182   2  15   0.0311   0.0230   0.0685  -0.0098  -0.0193  -0.0333   2.44    0.0
2167 161673.439   37.448972757 -122.276373489   132.1486   2  15   0.0312   0.0230   0.0686  -0.0098  -0.0192  -0.0335   3.44    0.0
2167 161674.439   37.449124791 -122.276594376   132.6443   2  14   0.0333   0.0244   0.0715  -0.0075  -0.0227  -0.0358   4.44    0.0
2167 161675.439   37.449275190 -122.276818682   133.3296   2  14   0.0335   0.0248   0.0724  -0.0063  -0.0238  -0.0364   5.44    0.0
2167 161676.439   37.449425955 -122.277043526   133.9165   2  15   0.0327   0.0245   0.0713  -0.0082  -0.0228  -0.0350   6.44    0.0
2167 161677.439   37.449575708 -122.277266982   134.5146   2  15   0.0320   0.0239   0.0701  -0.0090  -0.0215  -0.0342   7.44    0.0
2167 161678.439   37.449722079 -122.277488015   134.9300   2  17   0.0317   0.0237   0.0698  -0.0093  -0.0203  -0.0340   8.44    0.0
2167 161679.439   37.449865202 -122.277706441   135.3819   2  16   0.0316   0.0233   0.0695  -0.0095  -0.0198  -0.0339   9.44    0.0
2167 161680.439   37.450006400 -122.277922316   135.8644   2  16   0.0316   0.0231   0.0693  -0.0099  -0.0192  -0.0338  10.44    0.0
2167 161681.439   37.450147461 -122.278137438   136.2684   2  17   0.0321   0.0230   0.0693  -0.0105  -0.0190  -0.0337  11.44    0.0
2167 161682.439   37.450288583 -122.278353408   136.7642   2  15   0.0319   0.0230   0.0698  -0.0105  -0.0189  -0.0332  12.44    0.0
2167 161683.439   37.450430377 -122.278567534   137.1088   2  14   0.0325   0.0231   0.0692  -0.0114  -0.0189  -0.0332  13.44    0.0
2167 161684.439   37.450572108 -122.278780726   137.4057   2  16   0.0321   0.0230   0.0691  -0.0109  -0.0188  -0.0334  14.44    0.0
2167 161685.439   37.450714010 -122.278993998   137.6215   2  15   0.0326   0.0231   0.0691  -0.0114  -0.0188  -0.0334 -14.56    0.0
2167 161686.439   37.450856154 -122.279209347   137.7811   2  15   0.0322   0.0230   0.0690  -0.0111  -0.0188  -0.0333 -13.56    0.0
2167 161687.439   37.450999136 -122.279426401   137.8703   2  15   0.0320   0.0229   0.0687  -0.0110  -0.0188  -0.0332 -12.56    0.0
2167 161688.439   37.451143630 -122.279644410   137.9159   2  13   0.0317   0.0228   0.0688  -0.0106  -0.0188  -0.0332 -11.56    0.0
2167 161689.439   37.451289177 -122.279863216   137.9452   2  16   0.0326   0.0230   0.0688  -0.0116  -0.0189  -0.0332 -10.56    0.0
2167 161690.439   37.451434510 -122.280083769   137.9552   2  12   0.0318   0.0228   0.0687  -0.0107  -0.0189  -0.0329  -9.56    0.0
2167 161691.439   37.451580130 -122.280305454   137.9109   2  17   0.0317   0.0228   0.0687  -0.0106  -0.0188  -0.0331  -8.56    0.0
2167 161692.439   37.451724873 -122.280529017   137.8777   2  19   0.0316   0.0228   0.0687  -0.0105  -0.0189  -0.0331  -7.56    0.0
2167 161693.439   37.451868368 -122.280752987   137.7393   2  18   0.0317   0.0228   0.0687  -0.0106  -0.0189  -0.0332  -6.56    0.0
2167 161694.439   37.452013022 -122.280976501   137.5771   2  17   0.0320   0.0229   0.0687  -0.0109  -0.0189  -0.0330  -5.56    0.0
2167 161695.439   37.452159310 -122.281198971   137.3442   2  17   0.0318   0.0228   0.0687  -0.0107  -0.0190  -0.0330  -4.56    0.0
2167 161696.439   37.452307063 -122.281421558   137.0787   2  17   0.0318   0.0229   0.0687  -0.0108  -0.0191  -0.0329  -3.56    0.0
2167 161697.439   37.452455703 -122.281646003   136.7468   2  15   0.0316   0.0228   0.0687  -0.0105  -0.0190  -0.0330  -2.56    0.0
2167 161698.439   37.452605230 -122.281873701   136.3321   2  17   0.0316   0.0228   0.0687  -0.0103  -0.0191  -0.0331  -1.56    0.0
2167 161699.439   37.452756405 -122.282103939   135.7675   2  16   0.0317   0.0231   0.0692  -0.0098  -0.0198  -0.0334  -0.56    0.0
2167 161700.439   37.452908941 -122.282338096   135.4038   2  16   0.0316   0.0230   0.0690  -0.0100  -0.0195  -0.0333   0.44    0.0
2167 161701.439   37.453064759 -122.282575039   134.8872   2  16   0.0316   0.0229   0.0688  -0.0102  -0.0193  -0.0332   1.44    0.0
2167 161702.439   37.453223504 -122.282815339   134.3543   2  17   0.0315   0.0229   0.0687  -0.0102  -0.0194  -0.0330   2.44    0.0
2167 161703.439   37.453385532 -122.283059741   133.6917   2  18   0.0315   0.0229   0.0687  -0.0102  -0.0194  -0.0330   3.44    0.0
2167 161704.439   37.453550109 -122.283307881   133.0658   2  17   0.0315   0.0229   0.0687  -0.0102  -0.0194  -0.0330   4.44    0.0
2167 161705.439   37.453715890 -122.283561249   132.4293   2  18   0.0315   0.0229   0.0687  -0.0102  -0.0194  -0.0330   5.44    0.0
2167 161706.439   37.453883817 -122.283818544   131.7647   2  16   0.0314   0.0229   0.0686  -0.0102  -0.0194  -0.0330   6.44    0.0
2167 161707.439   37.454052222 -122.284076198   131.1593   2  17   0.0314   0.0229   0.0686  -0.0102  -0.0194  -0.0329   7.44    0.0
2167 161708.439   37.454220196 -122.284332237   130.4634   2  19   0.0314   0.0229   0.0686  -0.0102  -0.0194  -0.0329   8.44    0.0
2167 161709.439   37.454389053 -122.284586864   129.8019   2  15   0.0315   0.0230   0.0690  -0.0103  -0.0195  -0.0328   9.44    0.0
2167 161710.439   37.454557579 -122.284841511   129.2365   2  17   0.0315   0.0229   0.0689  -0.0103  -0.0195  -0.0328  10.44    0.0
2167 161711.439   37.454726541 -122.285095858   128.5741   2  18   0.0315   0.0229   0.0689  -0.0103  -0.0195  -0.0328  11.44    0.0
2167 161712.439   37.454894458 -122.285351452   127.9531   2  19   0.0315   0.0229   0.0688  -0.0103  -0.0194  -0.0329  12.44    0.0
2167 161713.439   37.455062141 -122.285608298   127.3247   2  20   0.0315   0.0229   0.0688  -0.0103  -0.0194  -0.0328  13.44    0.0
2167 161714.439   37.455229856 -122.285865466   126.6225   2  20   0.0315   0.0229   0.0688  -0.0103  -0.0194  -0.0328  14.44    0.0
2167 161715.439   37.455398715 -122.286122061   125.9981   2  19   0.0314   0.0229   0.0687  -0.0103  -0.0194  -0.0328 -14.56    0.0
2167 161716.439   37.455567478 -122.286379449   125.2971   2  19   0.0315   0.0229   0.0688  -0.0103  -0.0194  -0.0328 -13.56    0.0
2167 161717.439   37.455736333 -122.286637891   124.5292   2  17   0.0315   0.0229   0.0688  -0.0103  -0.0194  -0.0329 -12.56    0.0
2167 161718.439   37.455907902 -122.286895563   123.7915   2  17   0.0314   0.0229   0.0687  -0.0103  -0.0194  -0.0328 -11.56    0.0
2167 161719.439   37.456083258 -122.287151014   123.1307   2  14   0.0314   0.0229   0.0687  -0.0103  -0.0194  -0.0328 -10.56    0.0
2167 161720.439   37.456263681 -122.287401468   122.7015   2  20   0.0314   0.0229   0.0686  -0.0103  -0.0194  -0.0328  -9.56    0.0
2167 161721.439   37.456451055 -122.287644361   122.3319   2  13   0.0314   0.0229   0.0687  -0.0103  -0.0195  -0.0328  -8.56    0.0
2167 161722.439   37.456646951 -122.287878534   122.1467   2  13   0.0315   0.0230   0.0687  -0.0102  -0.0195  -0.0328  -7.56    0.0
2167 161723.439   37.456850258 -122.288104513   122.0201   2  15   0.0315   0.0230   0.0687  -0.0103  -0.0195  -0.0328  -6.56    0.0
2167 161724.439   37.457059793 -122.288323518   122.0188   2  12   0.0315   0.0230   0.0688  -0.0101  -0.0197  -0.0329  -5.56    0.0
2167 161725.439   37.457274556 -122.288534463   122.1618   2  13   0.0315   0.0231   0.0688  -0.0102  -0.0197  -0.0329  -4.56    0.0
2167 161726.439   37.457493737 -122.288733950   122.5265   2  17   0.0315   0.0231   0.0688  -0.0101  -0.0197  -0.0328  -3.56    0.0
2167 161727.439   37.457716896 -122.288923481   122.9630   2  19   0.0315   0.0230   0.0687  -0.0102  -0.0196  -0.0327  -2.56    0.0
2167 161728.439   37.457944319 -122.289102714   123.5064   2  18   0.0315   0.0230   0.0688  -0.0103  -0.0196  -0.0327  -1.56    0.0
2167 161729.439   37.458175210 -122.289272114   124.1061   2  19   0.0316   0.0230   0.0689  -0.0103  -0.0196  -0.0326  -0.56    0.0
2167 161730.439   37.458408734 -122.289432213   124.6798   2  20   0.0316   0.0233   0.0690  -0.0102  -0.0199  -0.0326   0.44    0.0
2167 161731.439   37.458645546 -122.289580578   125.2762   2  19   0.0316   0.0233   0.0690  -0.0103  -0.0199  -0.0327   1.44    0.0
2167 161732.439   37.458885021 -122.289717480   125.9064   2  18   0.0316   0.0233   0.0690  -0.0103  -0.0198  -0.0327   2.44    0.0
2167 161733.439   37.459126899 -122.289844048   126.4895   2  17   0.0317   0.0233   0.0692  -0.0104  -0.0200  -0.0326   3.44    0.0
2167 161734.439   37.459370719 -122.289960291   127.0764   2  14   0.0320   0.0233   0.0696  -0.0106  -0.0201  -0.0320   4.44    0.0
2167 161735.439   37.459616824 -122.290066035   127.5882   2  18   0.0319   0.0232   0.0694  -0.0105  -0.0199  -0.0322   5.44    0.0
2167 161736.439   37.459864708 -122.290162513   128.1655   2  18   0.0319   0.0232   0.0695  -0.0105  -0.0197  -0.0325   6.44    0.0
2167 161737.439   37.460113307 -122.290250261   128.7497   2  21   0.0327   0.0234   0.0698  -0.0113  -0.0193  -0.0331   7.44    0.0
2167 161738.439   37.460363576 -122.290327565   129.3890   2  17   0.0325   0.0233   0.0699  -0.0111  -0.0194  -0.0331   8.44    0.0
2167 161739.439   37.460616325 -122.290393308   129.9906   2  17   0.0325   0.0234   0.0700  -0.0110  -0.0195  -0.0331   9.44    0.0
2167 161740.439   37.460872218 -122.290448360   130.5499   2  14   0.0332   0.0234   0.0710  -0.0106  -0.0200  -0.0343  10.44    0.0
2167 161741.439   37.461130510 -122.290494112   131.2198   2  11   0.0336   0.0260   0.0765  -0.0072  -0.0269  -0.0363  11.44    0.0
2167 161742.439   37.461391765 -122.290527921   131.3658   2  10   0.0348   0.0302   0.0987   0.0056  -0.0385  -0.0371  12.44    0.0
2167 161743.439   37.461655129 -122.290549440   132.2110   2  10   0.0351   0.0305   0.1011   0.0063  -0.0399  -0.0370  13.44    0.0
2167 161744.439   37.461919905 -122.290564374   132.5066   2  13   0.0373   0.0300   0.0929   0.0126  -0.0363  -0.0397  14.44    0.0
2167 161745.439   37.462181987 -122.290577451   133.3736   2  15   0.0355   0.0283   0.0884   0.0075  -0.0327  -0.0372 -14.56    0.0
2167 161746.439   37.462443817 -122.290589446   134.3624   2  15   0.0357   0.0284   0.0877   0.0085  -0.0326  -0.0376 -13.56    0.0
2167 161747.439   37.462709173 -122.290596959   134.7566   2  19   0.0363   0.0288   0.0874   0.0096  -0.0332  -0.0371 -12.56    0.0
2167 161748.439   37.462974162 -122.290606029   135.4091   2  18   0.0361   0.0286   0.0863   0.0094  -0.0330  -0.0374 -11.56    0.0
2167 161749.439   37.463238461 -122.290614909   136.0834   2  19   0.0360   0.0285   0.0858   0.0092  -0.0330  -0.0378 -10.56    0.0
2167 161750.439   37.463501885 -122.290623137   136.7956   2  20   0.0358   0.0283   0.0853   0.0093  -0.0329  -0.0379  -9.56    0.0
2167 161751.439   37.463761541 -122.290632772   137.5944   2  19   0.0358   0.0282   0.0848   0.0093  -0.0327  -0.0381  -8.56    0.0
2167 161752.439   37.464016940 -122.290646507   138.3247   2  18   0.0357   0.0282   0.0845   0.0093  -0.0327  -0.0382  -7.56    0.0
2167 161753.439   37.464269251 -122.290665226   138.8105   2  16   0.0365   0.0283   0.0852   0.0088  -0.0329  -0.0379  -6.56    0.0
2167 161754.439   37.464519283 -122.290687229   139.1696   2  18   0.0366   0.0286   0.0852   0.0099  -0.0322  -0.0373  -5.56    0.0
2167 161755.439   37.464767226 -122.290711005   139.5798   2  19   0.0362   0.0284   0.0849   0.0095  -0.0325  -0.0377  -4.56    0.0
2167 161756.439   37.465013293 -122.290737055   139.9342   2  20   0.0361   0.0283   0.0846   0.0093  -0.0326  -0.0379  -3.56    0.0
2167 161757.439   37.465256989 -122.290769147   140.2367   2  18   0.0365   0.0283   0.0849   0.0090  -0.0327  -0.0377  -2.56    0.0
2167 161758.439   37.465498396 -122.290810307   140.4493   2  19   0.0366   0.0283   0.0848   0.0088  -0.0327  -0.0374  -1.56    0.0
2167 161759.439   37.465738984 -122.290860327   140.7257   2  19   0.0368   0.0287   0.0850   0.0097  -0.0323  -0.0370  -0.56    0.0
2167 161760.439   37.465978085 -122.290914463   141.0206   2  17   0.0376   0.0288   0.0855   0.0102  -0.0324  -0.0368   0.44    0.0
2167 161761.439   37.466216378 -122.290966268   141.4944   2  15   0.0374   0.0287   0.0854   0.0099  -0.0324  -0.0364   1.44    0.0
2167 161762.439   37.466450765 -122.291017611   141.8324   2  18   0.0376   0.0290   0.0852   0.0090  -0.0323  -0.0364   2.44    0.0
2167 161763.439   37.466676898 -122.291071469   142.1079   2  20   0.0373   0.0291   0.0854   0.0097  -0.0319  -0.0366   3.44    0.0
2167 161764.439   37.466892635 -122.291130034   142.1774   2  20   0.0370   0.0288   0.0852   0.0097  -0.0320  -0.0367   4.44    0.0
2167 161765.439   37.467097488 -122.291191282   141.9973   2  21   0.0369   0.0287   0.0852   0.0097  -0.0321  -0.0368   5.44    0.0
2167 161766.439   37.467290334 -122.291254525   141.6394   2  19   0.0369   0.0287   0.0853   0.0096  -0.0322  -0.0369   6.44    0.0
2167 161767.439   37.467471414 -122.291317613   141.0170   2  16   0.0371   0.0295   0.0869   0.0101  -0.0330  -0.0375   7.44    0.0
2167 161768.439   37.467642181 -122.291381386   140.5561   2  18   0.0369   0.0289   0.0860   0.0093  -0.0320  -0.0372   8.44    0.0
2167 161769.439   37.467803632 -122.291446998   139.8852   2  20   0.0368   0.0289   0.0856   0.0094  -0.0319  -0.0375   9.44    0.0
2167 161770.439   37.467954147 -122.291515886   139.0059   2  21   0.0369   0.0299   0.0865   0.0086  -0.0314  -0.0369  10.44    0.0
2167 161771.439   37.468094366 -122.291582675   138.2146   2  22   0.0368   0.0295   0.0859   0.0086  -0.0315  -0.0370  11.44    0.0
2167 161772.439   37.468225226 -122.291641515   137.3759   2  18   0.0369   0.0295   0.0860   0.0084  -0.0317  -0.0368  12.44    0.0
2167 161773.439   37.468348146 -122.291691697   136.5357   2  12   0.0380   0.0297   0.0866   0.0060  -0.0319  -0.0364  13.44    0.0
2167 161774.439   37.468458341 -122.291732990   135.9677   2  18   0.0411   0.0306   0.0888  -0.0092  -0.0303  -0.0391  14.44    0.0
2167 161775.439   37.468550812 -122.291767279   135.5746   2  17   0.0393   0.0302   0.0878  -0.0049  -0.0311  -0.0377 -14.56    0.0
2167 161776.439   37.468623057 -122.291798762   135.4033   2  17   0.0389   0.0301   0.0874  -0.0029  -0.0314  -0.0371 -13.56    0.0
2167 161777.439   37.468669840 -122.291827446   135.3746   2  20   0.0387   0.0300   0.0875  -0.0025  -0.0314  -0.0370 -12.56    0.0
2167 161778.439   37.468692433 -122.291844935   135.4038   2  21   0.0387   0.0300   0.0874  -0.0028  -0.0314  -0.0368 -11.56    0.0
2167 161779.439   37.468699650 -122.291850741   135.4011   2  20   0.0389   0.0300   0.0874  -0.0034  -0.0315  -0.0365 -10.56    0.0
2167 161780.439   37.468700455 -122.291851471   135.3982   2  20   0.0387   0.0300   0.0869  -0.0026  -0.0314  -0.0368  -9.56    0.0
2167 161781.439   37.468707229 -122.291857170   135.3882   2  19   0.0386   0.0300   0.0867  -0.0021  -0.0313  -0.0369  -8.56    0.0
2167 161782.439   37.468725675 -122.291873370   135.4205   2  20   0.0386   0.0300   0.0868  -0.0023  -0.0314  -0.0368  -7.56    0.0
2167 161783.439   37.468753971 -122.291902984   135.5297   2  16   0.0403   0.0311   0.0879  -0.0064  -0.0321  -0.0374  -6.56    0.0
2167 161784.439   37.468783320 -122.291952209   135.8772   2  17   0.0409   0.0321   0.0912  -0.0061  -0.0313  -0.0367  -5.56    0.0
2167 161785.439   37.468795349 -122.292025612   136.0050   2  19   0.0414   0.0334   0.0931  -0.0057  -0.0316  -0.0372  -4.56    0.0
2167 161786.439   37.468781439 -122.292109203   135.8823   2  14   0.0425   0.0344   0.0993  -0.0037  -0.0295  -0.0347  -3.56    0.0
2167 161787.439   37.468743198 -122.292196571   136.1099   2  10   0.0440   0.0382   0.1106   0.0047  -0.0312  -0.0346  -2.56    0.0
2167 161788.439   37.468680324 -122.292294260   136.5290   4   2   0.2832   0.2889   0.2050   0.0336  -0.0230   0.0185  -1.56    0.0
2167 161789.439   37.468591182 -122.292364739   137.9127   4   2   0.7694   0.7793   0.3889  -0.3163  -0.1659  -0.0186  -0.56    0.0
2167 161792.439   37.468345299 -122.292681356   135.4566   2   5   0.0435   0.0651   0.1109   0.0273  -0.0429  -0.0299   2.44    0.0
2167 161793.439   37.468265956 -122.292800184   134.7327   2  16   0.0360   0.0390   0.0898   0.0123  -0.0356  -0.0369   3.44    0.0
2167 161794.439   37.468183801 -122.292916038   134.7472   2  17   0.0351   0.0357   0.0835   0.0055  -0.0277  -0.0331   4.44    0.0
2167 161795.439   37.468102127 -122.293018503   134.3832   2  12   0.0351   0.0354   0.0829   0.0048  -0.0267  -0.0331   5.44    0.0
2167 161796.439   37.468030265 -122.293104293   132.6848   2  16   0.0349   0.0353   0.0829   0.0049  -0.0270  -0.0330   6.44    0.0
2167 161797.439   37.467976764 -122.293201870   131.9769   2  18   0.0350   0.0357   0.0829   0.0039  -0.0269  -0.0329   7.44    0.0
2167 161798.439   37.467951599 -122.293299221   130.9354   2  18   0.0351   0.0352   0.0833   0.0029  -0.0260  -0.0331   8.44    0.0
2167 161799.439   37.467964246 -122.293401887   130.6223   2  19   0.0359   0.0341   0.0849   0.0038  -0.0231  -0.0345   9.44    0.0
2167 161800.439   37.468011985 -122.293495165   130.5086   2  19   0.0358   0.0330   0.0824  -0.0055  -0.0194  -0.0360  10.44    0.0
2167 161801.439   37.468084630 -122.293590643   130.6447   2  13   0.0311   0.0307   0.0715  -0.0099  -0.0195  -0.0250  11.44    0.0
2167 161802.439   37.468171709 -122.293690181   130.7681   2  17   0.0311   0.0307   0.0714  -0.0098  -0.0196  -0.0250  12.44    0.0
2167 161803.439   37.468265595 -122.293795705   130.9823   2  13   0.0311   0.0307   0.0714  -0.0098  -0.0196  -0.0250  13.44    0.0
2167 161804.439   37.468368216 -122.293910311   131.5928   2  12   0.0311   0.0307   0.0714  -0.0098  -0.0195  -0.0250  14.44    0.0
2167 161805.439   37.468474565 -122.294027729   132.2969   2  13   0.0311   0.0307   0.0715  -0.0098  -0.0196  -0.0248 -14.56    0.0
2167 161806.439   37.468582056 -122.294139118   133.0022   2  20   0.0311   0.0307   0.0716  -0.0100  -0.0197  -0.0246 -13.56    0.0
2167 161807.439   37.468689702 -122.294227423   133.7245   2  18   0.0310   0.0307   0.0713  -0.0094  -0.0195  -0.0251 -12.56    0.0
2167 161808.439   37.468800761 -122.294278281   134.5920   2  19   0.0312   0.0306   0.0724  -0.0096  -0.0195  -0.0245 -11.56    0.0
2167 161809.439   37.468912021 -122.294287646   135.4253   2  20   0.0310   0.0309   0.0706  -0.0087  -0.0188  -0.0258 -10.56    0.0
2167 161810.439   37.469020215 -122.294258954   136.2927   2  21   0.0311   0.0306   0.0703  -0.0078  -0.0195  -0.0269  -9.56    0.0
2167 161811.439   37.469120710 -122.294192403   137.0486   2  19   0.0311   0.0305   0.0702  -0.0079  -0.0199  -0.0272  -8.56    0.0
2167 161812.439   37.469205602 -122.294091137   137.8987   2  22   0.0308   0.0303   0.0687  -0.0080  -0.0200  -0.0268  -7.56    0.0
2167 161813.439   37.469266386 -122.293963859   138.7041   2  21   0.0306   0.0302   0.0688  -0.0087  -0.0199  -0.0267  -6.56    0.0
2167 161814.439   37.469296131 -122.293821403   139.5688   2  19   0.0298   0.0293   0.0686  -0.0114  -0.0192  -0.0263  -5.56    0.0
2167 161815.439   37.469290430 -122.293672321   140.3012   2  22   0.0298   0.0292   0.0684  -0.0114  -0.0191  -0.0264  -4.56    0.0
2167 161816.439   37.469249096 -122.293529479   140.9134   2  23   0.0298   0.0293   0.0684  -0.0115  -0.0193  -0.0263  -3.56    0.0
2167 161817.439   37.469176021 -122.293401524   141.6157   2  20   0.0298   0.0293   0.0685  -0.0116  -0.0195  -0.0262  -2.56    0.0
2167 161818.439   37.469081382 -122.293282704   142.1687   2  20   0.0300   0.0294   0.0688  -0.0116  -0.0196  -0.0264  -1.56    0.0
2167 161819.439   37.468973389 -122.293161607   142.6072   2  19   0.0296   0.0292   0.0689  -0.0107  -0.0198  -0.0262  -0.56    0.0
2167 161820.439   37.468852155 -122.293035564   143.0656   2  20   0.0295   0.0291   0.0688  -0.0106  -0.0197  -0.0262   0.44    0.0
2167 161821.439   37.468716928 -122.292904363   143.2694   2  21   0.0295   0.0291   0.0689  -0.0106  -0.0198  -0.0262   1.44    0.0
