MessageType,Provider,LatitudeDegrees,LongitudeDegrees,AltitudeMeters,SpeedMps,AccuracyMeters,BearingDegrees,UnixTimeMillis,SpeedAccuracyMps,BearingAccuracyDegrees,elapsedRealtimeNanos,VerticalAccuracyMeters
Fix,GT,37.4282903,-122.0725281,-28.20880043,0.013611529,0.1,238.64088,1.59305E+12,,,,
Fix,GT,37.4282902,-122.0725281,-28.20980072,0.020511672,0.1,238.64206,1.59305E+12,,,,
Fix,GT,37.4282895,-122.0725289,-28.22180176,0.47322106,0.1,238.31201,1.59305E+12,,,,
Fix,GT,37.4282826,-122.0725375,-28.20816187,1.5512872,0.1,233.01088,1.59305E+12,,,,
Fix,GT,37.4282717,-122.0725548,-28.18984868,2.3169348,0.1,233.92097,1.59305E+12,,,,
Fix,GT,37.4282673,-122.0725841,-28.23957215,3.0183043,0.1,255.60587,1.59305E+12,,,,
Fix,GT,37.4282774,-122.0726213,-28.18375239,4.058316,0.1,286.56152,1.59305E+12,,,,
Fix,GT,37.4283042,-122.0726667,-28.23130565,6.075042,0.1,306.06757,1.59305E+12,,,,
Fix,GT,37.4283392,-122.0727336,-28.31325712,7.9996066,0.1,301.27417,1.59305E+12,,,,
Fix,GT,37.4283688,-122.0728241,-28.40148572,9.257176,0.1,288.57315,1.59305E+12,,,,
Fix,GT,37.4283836,-122.0729343,-28.47243842,10.432119,0.1,275.88873,1.59305E+12,,,,
Fix,GT,37.4283872,-122.0730581,-28.44129604,11.476551,0.1,270.44656,1.59305E+12,,,,
Fix,GT,37.4283855,-122.0731938,-28.34566687,12.50405,0.1,268.81915,1.59305E+12,,,,
Fix,GT,37.428383,-122.0733396,-28.18406765,13.318168,0.1,269.0686,1.59305E+12,,,,
Fix,GT,37.428382,-122.0734955,-28.07406811,14.27623,0.1,269.52063,1.59305E+12,,,,
Fix,GT,37.4283813,-122.0736616,-28.02021111,14.9529505,0.1,269.7542,1.59305E+12,,,,
Fix,GT,37.4283808,-122.0738303,-28.07466696,14.8696995,0.1,269.82727,1.59305E+12,,,,
Fix,GT,37.4283803,-122.0739986,-28.19435343,15.067646,0.1,269.71838,1.59305E+12,,,,
Fix,GT,37.4283793,-122.0741726,-28.28184768,15.66316,0.1,269.51123,1.59305E+12,,,,
Fix,GT,37.4283783,-122.0743511,-28.36012533,15.9346695,0.1,269.64856,1.59305E+12,,,,
Fix,GT,37.4283776,-122.0745339,-28.4889442,16.4443,0.1,269.91336,1.59305E+12,,,,
Fix,GT,37.4283779,-122.0747233,-28.74872553,17.106218,0.1,270.33618,1.59305E+12,,,,
Fix,GT,37.4283794,-122.07492,-29.1533144,17.699331,0.1,270.5685,1.59305E+12,,,,
Fix,GT,37.4283808,-122.0751224,-29.60809734,18.05284,0.1,270.36063,1.59305E+12,,,,
Fix,GT,37.4283817,-122.0753266,-29.93262896,18.045935,0.1,270.4042,1.59305E+12,,,,
Fix,GT,37.4283828,-122.0755296,-30.07839089,17.908596,0.1,270.3536,1.59305E+12,,,,
Fix,GT,37.4283835,-122.0757315,-30.13102861,17.802687,0.1,270.1668,1.59305E+12,,,,
Fix,GT,37.4283839,-122.0759313,-30.18907659,17.574022,0.1,270.28702,1.59305E+12,,,,
Fix,GT,37.4283833,-122.0761286,-30.23957215,17.342264,0.1,268.99368,1.59305E+12,,,,
Fix,GT,37.428376,-122.0763238,-30.29871519,17.293053,0.1,265.49265,1.59305E+12,,,,
Fix,GT,37.4283564,-122.0765178,-30.25588738,17.319107,0.1,260.44946,1.59305E+12,,,,
Fix,GT,37.4283233,-122.0767094,-30.18734363,17.348907,0.1,255.84668,1.59305E+12,,,,
Fix,GT,37.4282803,-122.0768964,-30.13129747,17.047623,0.1,252.87886,1.59305E+12,,,,
Fix,GT,37.4282347,-122.0770772,-30.048753,16.419611,0.1,252.26596,1.59305E+12,,,,
Fix,GT,37.4281915,-122.0772486,-30.01216188,15.427304,0.1,253.24771,1.59305E+12,,,,
Fix,GT,37.4281584,-122.0774118,-30.03584823,14.362766,0.1,258.0067,1.59305E+12,,,,
Fix,GT,37.4281391,-122.0775651,-30.09307782,13.051125,0.1,262.99884,1.59305E+12,,,,
Fix,GT,37.4281305,-122.0777015,-30.15884855,11.120743,0.1,266.67435,1.59305E+12,,,,
Fix,GT,37.4281276,-122.0778137,-30.23525807,8.708578,0.1,268.68103,1.59305E+12,,,,
Fix,GT,37.4281271,-122.0778977,-30.2730297,6.239217,0.1,269.76276,1.59305E+12,,,,
Fix,GT,37.4281268,-122.0779625,-30.36607663,5.5839615,0.1,269.39487,1.59305E+12,,,,
Fix,GT,37.42812,-122.0780258,-30.54030567,5.897669,0.1,259.2637,1.59305E+12,,,,
Fix,GT,37.4280949,-122.0780888,-30.58803023,6.4810405,0.1,239.11497,1.59305E+12,,,,
Fix,GT,37.4280491,-122.0781422,-30.57565771,7.4553022,0.1,217.72554,1.59305E+12,,,,
Fix,GT,37.4279828,-122.0781797,-30.65225866,8.70939,0.1,199.39444,1.59305E+12,,,,
Fix,GT,37.4278979,-122.0781997,-30.70812396,10.431437,0.1,186.7616,1.59305E+12,,,,
Fix,GT,37.4277968,-122.0782038,-30.76253412,11.969191,0.1,180.17145,1.59305E+12,,,,
Fix,GT,37.4276819,-122.0782003,-30.78517204,13.429582,0.1,177.7715,1.59305E+12,,,,
Fix,GT,37.427556,-122.0781911,-30.78101875,14.477416,0.1,175.95543,1.59305E+12,,,,
Fix,GT,37.4274235,-122.0781763,-30.70275438,15.00316,0.1,174.0138,1.59305E+12,,,,
Fix,GT,37.4272872,-122.0781558,-30.64980125,15.430672,0.1,172.83195,1.59305E+12,,,,
Fix,GT,37.4271463,-122.0781345,-30.61134434,16.159,0.1,173.67204,1.59305E+12,,,,
Fix,GT,37.4269977,-122.0781161,-30.57434298,17.002367,0.1,174.91878,1.59305E+12,,,,
Fix,GT,37.4268418,-122.0781009,-30.52157083,17.674217,0.1,176.19408,1.59305E+12,,,,
Fix,GT,37.4266806,-122.0780904,-30.43888685,18.133392,0.1,177.7639,1.59305E+12,,,,
Fix,GT,37.4265157,-122.0780854,-30.40639192,18.485292,0.1,179.26445,1.59305E+12,,,,
Fix,GT,37.426348,-122.0780845,-30.34270635,18.75696,0.1,180.1911,1.59305E+12,,,,
Fix,GT,37.4261774,-122.0780874,-30.29506781,19.13512,0.1,181.3261,1.59305E+12,,,,
Fix,GT,37.4260036,-122.0780948,-30.23811409,19.45554,0.1,182.5121,1.59305E+12,,,,
Fix,GT,37.4258284,-122.0781067,-30.15834354,19.395666,0.1,183.61147,1.59305E+12,,,,
Fix,GT,37.4256565,-122.0781211,-30.09234445,18.706284,0.1,183.9891,1.59305E+12,,,,
Fix,GT,37.4254959,-122.0781337,-30.04321021,16.840628,0.1,183.20909,1.59305E+12,,,,
Fix,GT,37.4253553,-122.078142,-29.97421086,14.336441,0.1,182.30411,1.59305E+12,,,,
Fix,GT,37.4252377,-122.0781475,-29.92934345,11.712734,0.1,182.12906,1.59305E+12,,,,
Fix,GT,37.4251441,-122.0781514,-29.89739114,9.103987,0.1,181.72726,1.59305E+12,,,,
Fix,GT,37.4250731,-122.0781534,-29.86857187,6.904603,0.1,181.10953,1.59305E+12,,,,
Fix,GT,37.4250192,-122.078154,-29.86739158,4.944125,0.1,180.41444,1.59305E+12,,,,
Fix,GT,37.4249842,-122.0781538,-29.861211,2.8325589,0.1,179.82713,1.59305E+12,,,,
Fix,GT,37.4249653,-122.0781537,-29.8713904,1.5079119,0.1,179.58966,1.59305E+12,,,,
Fix,GT,37.4249562,-122.0781536,-29.86821097,0.49357003,0.1,179.53308,1.59305E+12,,,,
Fix,GT,37.4249548,-122.0781536,-29.87480075,0.01496939,0.1,179.52806,1.59305E+12,,,,
Fix,GT,37.4249548,-122.0781536,-29.87480164,0.002139391,0.1,179.52814,1.59305E+12,,,,
Fix,GT,37.4249548,-122.0781536,-29.87480164,0.001,0.1,179.52629,1.59305E+12,,,,
Fix,GT,37.4249548,-122.0781536,-29.87480164,0.000819057,0.1,179.52669,1.59305E+12,,,,
Fix,GT,37.4249548,-122.0781536,-29.87480253,0.00335031,0.1,179.52757,1.59305E+12,,,,
Fix,GT,37.4249547,-122.0781536,-29.87561935,0.05349255,0.1,179.53075,1.59305E+12,,,,
Fix,GT,37.4249522,-122.0781536,-29.87379939,0.2743243,0.1,179.51057,1.59305E+12,,,,
Fix,GT,37.424951,-122.0781535,-29.87280083,0.029512774,0.1,179.50612,1.59305E+12,,,,
Fix,GT,37.4249504,-122.0781535,-29.87379939,0.11809787,0.1,179.50336,1.59305E+12,,,,
Fix,GT,37.4249494,-122.0781535,-29.87180049,0.0301915,0.1,179.49023,1.59305E+12,,,,
Fix,GT,37.4249483,-122.0781534,-29.87321013,0.3006199,0.1,179.48335,1.59305E+12,,,,
Fix,GT,37.4249425,-122.0781534,-29.87139129,1.0091833,0.1,179.35555,1.59305E+12,,,,
Fix,GT,37.4249265,-122.0781523,-29.85298234,2.702723,0.1,177.99344,1.59305E+12,,,,
Fix,GT,37.4248936,-122.0781503,-29.83475257,4.5588617,0.1,177.38153,1.59305E+12,,,,
Fix,GT,37.4248428,-122.0781481,-29.82857287,7.010269,0.1,178.22865,1.59305E+12,,,,
Fix,GT,37.4247681,-122.0781466,-29.79998083,9.473523,0.1,179.30936,1.59305E+12,,,,
Fix,GT,37.4246751,-122.0781455,-29.76843894,10.998598,0.1,179.31378,1.59305E+12,,,,
Fix,GT,37.4245689,-122.0781424,-29.74057162,12.480372,0.1,178.35039,1.59305E+12,,,,
Fix,GT,37.4244521,-122.0781361,-29.70416214,13.3856945,0.1,177.21953,1.59305E+12,,,,
Fix,GT,37.4243286,-122.0781275,-29.62675327,14.031824,0.1,176.62665,1.59305E+12,,,,
Fix,GT,37.4242012,-122.0781161,-29.5939342,14.212734,0.1,175.44182,1.59305E+12,,,,
Fix,GT,37.4240747,-122.0781022,-29.56772377,13.961636,0.1,174.91504,1.59305E+12,,,,
Fix,GT,37.4239519,-122.0780888,-29.50166607,13.344049,0.1,175.20605,1.59305E+12,,,,
Fix,GT,37.4238353,-122.0780772,-29.4818864,12.523113,0.1,175.86018,1.59305E+12,,,,
Fix,GT,37.423728,-122.078068,-29.45166771,11.288543,0.1,176.3931,1.59305E+12,,,,
Fix,GT,37.4236349,-122.0780623,-29.41616292,9.427305,0.1,178.67163,1.59305E+12,,,,
Fix,GT,37.4235563,-122.0780689,-29.44098257,8.204828,0.1,187.26682,1.59305E+12,,,,
Fix,GT,37.4234899,-122.0780977,-29.49684864,7.7115326,0.1,205.76518,1.59305E+12,,,,
Fix,GT,37.4234423,-122.0781576,-29.53084737,7.6268115,0.1,232.85944,1.59305E+12,,,,
Fix,GT,37.4234201,-122.078241,-29.586163,8.322248,0.1,257.60983,1.59305E+12,,,,
Fix,GT,37.4234152,-122.0783428,-29.52793423,9.903414,0.1,268.24588,1.59305E+12,,,,
Fix,GT,37.4234126,-122.0784646,-29.44347789,11.661164,0.1,268.49725,1.59305E+12,,,,
Fix,GT,37.4234085,-122.0786058,-29.35747569,13.340171,0.1,267.77142,1.59305E+12,,,,
Fix,GT,37.423403,-122.0787658,-29.23652553,14.985729,0.1,267.48016,1.59305E+12,,,,
Fix,GT,37.4233959,-122.0789427,-29.10011655,16.230398,0.1,267.19165,1.59305E+12,,,,
Fix,GT,37.4233884,-122.0791314,-28.93547759,17.134056,0.1,267.058,1.59305E+12,,,,
Fix,GT,37.4233799,-122.0793284,-28.80306746,17.768074,0.1,266.79077,1.59305E+12,,,,
Fix,GT,37.4233693,-122.0795307,-28.65302032,18.035334,0.1,265.88104,1.59305E+12,,,,
Fix,GT,37.4233557,-122.0797349,-28.50370571,18.274305,0.1,264.8132,1.59305E+12,,,,
Fix,GT,37.4233391,-122.0799423,-28.36629453,18.569508,0.1,263.97464,1.59305E+12,,,,
Fix,GT,37.4233205,-122.08015,-28.28807829,18.37215,0.1,263.42972,1.59305E+12,,,,
Fix,GT,37.423301,-122.0803544,-28.1845642,18.033857,0.1,263.03235,1.59305E+12,,,,
Fix,GT,37.42328,-122.0805544,-28.20176334,17.708761,0.1,262.37277,1.59305E+12,,,,
Fix,GT,37.4232617,-122.0807512,-28.29953452,17.37031,0.1,263.98657,1.59305E+12,,,,
Fix,GT,37.4232471,-122.0809448,-28.38581061,17.057663,0.1,264.90973,1.59305E+12,,,,
Fix,GT,37.4232329,-122.0811351,-28.51512398,16.789799,0.1,264.47983,1.59305E+12,,,,
Fix,GT,37.4232178,-122.0813225,-28.65648592,16.545948,0.1,264.09094,1.59305E+12,,,,
Fix,GT,37.4232018,-122.081507,-28.78899083,16.312616,0.1,263.70847,1.59305E+12,,,,
Fix,GT,37.4231863,-122.0816889,-28.94112458,16.073177,0.1,264.17902,1.59305E+12,,,,
Fix,GT,37.4231716,-122.0818682,-29.06176204,15.8393955,0.1,263.82394,1.59305E+12,,,,
Fix,GT,37.4231552,-122.0820448,-29.19822106,15.607918,0.1,263.16086,1.59305E+12,,,,
Fix,GT,37.4231384,-122.0822193,-29.32689781,15.599786,0.1,263.30756,1.59305E+12,,,,
Fix,GT,37.4231224,-122.082394,-29.4398959,15.5029335,0.1,263.78653,1.59305E+12,,,,
Fix,GT,37.4231092,-122.0825671,-29.56530608,15.284491,0.1,265.3539,1.59305E+12,,,,
Fix,GT,37.4231001,-122.0827379,-29.69171385,15.0174885,0.1,266.7867,1.59305E+12,,,,
Fix,GT,37.4230936,-122.0829058,-29.78125922,14.748017,0.1,267.6562,1.59305E+12,,,,
Fix,GT,37.4230898,-122.0830707,-29.84384965,14.456097,0.1,269.1224,1.59305E+12,,,,
Fix,GT,37.4230891,-122.0832328,-29.88803034,14.367435,0.1,269.94577,1.59305E+12,,,,
Fix,GT,37.4230893,-122.0833975,-29.92807595,14.804131,0.1,270.37692,1.59305E+12,,,,
Fix,GT,37.4230914,-122.0835679,-29.98161912,15.452612,0.1,271.42392,1.59305E+12,,,,
Fix,GT,37.4230974,-122.0837463,-29.9559346,16.116333,0.1,273.2222,1.59305E+12,,,,
Fix,GT,37.4231074,-122.0839311,-29.88998098,16.707531,0.1,274.3268,1.59305E+12,,,,
Fix,GT,37.4231199,-122.0841234,-29.86002868,17.468119,0.1,275.23465,1.59305E+12,,,,
Fix,GT,37.4231364,-122.0843231,-29.80357213,18.04251,0.1,276.52597,1.59305E+12,,,,
Fix,GT,37.4231565,-122.0845272,-29.74134374,18.3423,0.1,277.51587,1.59305E+12,,,,
Fix,GT,37.4231793,-122.0847336,-29.67593302,18.544178,0.1,278.15152,1.59305E+12,,,,
Fix,GT,37.423204,-122.0849416,-29.47633389,18.66103,0.1,278.90213,1.59305E+12,,,,
Fix,GT,37.4232315,-122.0851492,-29.08568663,18.575827,0.1,279.93237,1.59305E+12,,,,
Fix,GT,37.4232608,-122.0853543,-28.44954205,18.252922,0.1,280.40985,1.59305E+12,,,,
Fix,GT,37.4232907,-122.0855544,-27.75718141,17.835743,0.1,281.08633,1.59305E+12,,,,
Fix,GT,37.4233246,-122.0857507,-27.0885904,17.740692,0.1,283.24783,1.59305E+12,,,,
Fix,GT,37.4233626,-122.0859444,-26.5499619,17.576393,0.1,284.22577,1.59305E+12,,,,
Fix,GT,37.4234016,-122.0861359,-26.21720143,17.429028,0.1,284.50195,1.59305E+12,,,,
Fix,GT,37.423441,-122.0863262,-25.9991147,17.422556,0.1,284.7346,1.59305E+12,,,,
Fix,GT,37.4234812,-122.0865177,-25.95952499,17.641628,0.1,284.7608,1.59305E+12,,,,
Fix,GT,37.4235218,-122.0867118,-26.05653369,17.88694,0.1,284.7003,1.59305E+12,,,,
Fix,GT,37.4235627,-122.0869087,-26.23036234,18.153252,0.1,284.58514,1.59305E+12,,,,
Fix,GT,37.4236039,-122.0871092,-26.65904924,18.503162,0.1,284.48816,1.59305E+12,,,,
Fix,GT,37.4236459,-122.0873138,-27.20146854,18.90208,0.1,284.4589,1.59305E+12,,,,
Fix,GT,37.4236888,-122.087523,-27.90069477,19.345953,0.1,284.44678,1.59305E+12,,,,
Fix,GT,37.4237325,-122.0877368,-28.61751489,19.685331,0.1,284.49472,1.59305E+12,,,,
Fix,GT,37.4237771,-122.0879523,-29.25578225,19.712135,0.1,284.6226,1.59305E+12,,,,
Fix,GT,37.4238212,-122.0881674,-29.621268,19.540812,0.1,284.09802,1.59305E+12,,,,
Fix,GT,37.4238627,-122.0883803,-29.85903013,19.231714,0.1,283.56918,1.59305E+12,,,,
Fix,GT,37.4239019,-122.0885883,-29.91680145,18.513721,0.1,283.17407,1.59305E+12,,,,
Fix,GT,37.4239388,-122.088787,-29.96107782,17.600727,0.1,282.8379,1.59305E+12,,,,
Fix,GT,37.4239696,-122.0889752,-30.01698189,16.335455,0.1,280.23605,1.59305E+12,,,,
Fix,GT,37.4239885,-122.0891503,-30.079668,14.926247,0.1,275.65228,1.59305E+12,,,,
Fix,GT,37.4239942,-122.0893105,-30.12225796,13.364429,0.1,270.57388,1.59305E+12,,,,
Fix,GT,37.4239917,-122.0894524,-30.14639079,11.731931,0.1,267.26382,1.59305E+12,,,,
Fix,GT,37.4239821,-122.0895787,-30.11411557,10.957614,0.1,262.82565,1.59305E+12,,,,
Fix,GT,37.4239631,-122.0896972,-30.00765718,10.360423,0.1,256.44257,1.59305E+12,,,,
Fix,GT,37.4239381,-122.0898053,-29.88334391,9.451487,0.1,253.6596,1.59305E+12,,,,
Fix,GT,37.4239193,-122.0899011,-29.76875434,8.080986,0.1,259.65463,1.59305E+12,,,,
Fix,GT,37.4239209,-122.0899864,-29.67461113,7.278716,0.1,276.92386,1.59305E+12,,,,
Fix,GT,37.4239461,-122.0900579,-29.43724793,6.8484073,0.1,300.01602,1.59305E+12,,,,
Fix,GT,37.4239923,-122.0901113,-29.34498266,7.456052,0.1,322.21893,1.59305E+12,,,,
Fix,GT,37.4240537,-122.090159,-29.30075303,8.604242,0.1,328.5039,1.59305E+12,,,,
Fix,GT,37.424124,-122.0902147,-29.28311418,9.918659,0.1,327.2613,1.59305E+12,,,,
Fix,GT,37.424203,-122.0902837,-29.22934345,11.393219,0.1,323.96332,1.59305E+12,,,,
Fix,GT,37.424287,-122.090368,-29.17357217,12.416592,0.1,319.95993,1.59305E+12,,,,
Fix,GT,37.4243721,-122.0904658,-29.12616197,13.2105255,0.1,315.59625,1.59305E+12,,,,
Fix,GT,37.4244541,-122.0905793,-29.13361967,13.814812,0.1,310.1222,1.59305E+12,,,,
Fix,GT,37.4245305,-122.0907055,-29.16993334,14.168071,0.1,305.14243,1.59305E+12,,,,
Fix,GT,37.4245987,-122.0908406,-29.2018486,14.1612015,0.1,300.1907,1.59305E+12,,,,
Fix,GT,37.4246573,-122.0909844,-29.24566839,14.3922,0.1,294.66147,1.59305E+12,,,,
Fix,GT,37.4247052,-122.0911366,-29.28966624,14.479605,0.1,289.4978,1.59305E+12,,,,
Fix,GT,37.4247434,-122.0912918,-29.32539176,14.235022,0.1,285.67267,1.59305E+12,,,,
Fix,GT,37.424776,-122.0914459,-29.2717537,13.940707,0.1,284.32123,1.59305E+12,,,,
Fix,GT,37.4248062,-122.0915969,-29.26498186,13.69867,0.1,284.17737,1.59305E+12,,,,
Fix,GT,37.4248374,-122.0917484,-29.18993466,14.089697,0.1,284.65955,1.59305E+12,,,,
Fix,GT,37.4248718,-122.0919052,-29.14775228,14.700329,0.1,286.09528,1.59305E+12,,,,
Fix,GT,37.424912,-122.0920665,-29.16294487,15.214214,0.1,288.2572,1.59305E+12,,,,
Fix,GT,37.4249575,-122.0922297,-29.23330561,15.277029,0.1,290.08493,1.59305E+12,,,,
Fix,GT,37.4250073,-122.0923898,-29.26052388,15.159014,0.1,292.2835,1.59305E+12,,,,
Fix,GT,37.4250616,-122.0925463,-29.32043878,15.036661,0.1,294.48938,1.59305E+12,,,,
Fix,GT,37.4251196,-122.0926987,-29.35480205,14.899433,0.1,296.4057,1.59305E+12,,,,
Fix,GT,37.4251808,-122.0928478,-29.31911545,14.815787,0.1,297.96814,1.59305E+12,,,,
Fix,GT,37.4252461,-122.0929939,-29.241391,14.894308,0.1,300.26678,1.59305E+12,,,,
Fix,GT,37.4253167,-122.0931387,-29.18116227,15.145366,0.1,302.5441,1.59305E+12,,,,
Fix,GT,37.4253929,-122.0932797,-29.22725754,14.983459,0.1,305.26096,1.59305E+12,,,,
Fix,GT,37.4254715,-122.0934157,-29.28044853,14.733244,0.1,306.39194,1.59305E+12,,,,
Fix,GT,37.4255504,-122.0935474,-29.31884841,14.4261675,0.1,307.7478,1.59305E+12,,,,
Fix,GT,37.425632,-122.093673,-29.37621127,14.261004,0.1,310.1129,1.59305E+12,,,,
Fix,GT,37.4257147,-122.0937935,-29.37152567,13.750773,0.1,311.09125,1.59305E+12,,,,
Fix,GT,37.4257947,-122.0939067,-29.31734477,13.094206,0.1,312.1968,1.59305E+12,,,,
Fix,GT,37.4258746,-122.094013,-29.28352345,12.865049,0.1,314.0706,1.59305E+12,,,,
Fix,GT,37.425958,-122.0941166,-29.22257281,13.310231,0.1,316.23083,1.59305E+12,,,,
Fix,GT,37.4260487,-122.09422,-29.1872101,13.877566,0.1,318.99988,1.59305E+12,,,,
Fix,GT,37.426147,-122.0943215,-29.21748572,14.43671,0.1,321.43536,1.59305E+12,,,,
Fix,GT,37.4262516,-122.0944226,-29.28130485,14.832918,0.1,322.91635,1.59305E+12,,,,
Fix,GT,37.4263596,-122.0945237,-29.33284836,15.008993,0.1,323.64093,1.59305E+12,,,,
Fix,GT,37.426469,-122.0946234,-29.39166921,15.094103,0.1,324.4073,1.59305E+12,,,,
Fix,GT,37.4265824,-122.0947188,-29.36338986,15.123735,0.1,327.92795,1.59305E+12,,,,
Fix,GT,37.4266985,-122.0948028,-29.3157523,14.538664,0.1,331.37387,1.59305E+12,,,,
Fix,GT,37.4268107,-122.094876,-29.25570439,13.637823,0.1,333.2062,1.59305E+12,,,,
Fix,GT,37.4269187,-122.0949439,-29.21798122,13.123762,0.1,333.28284,1.59305E+12,,,,
Fix,GT,37.4270199,-122.0950109,-29.20603028,12.193264,0.1,331.05463,1.59305E+12,,,,
Fix,GT,37.4271128,-122.0950807,-29.22302883,11.922644,0.1,327.83063,1.59305E+12,,,,
Fix,GT,37.4272032,-122.0951566,-29.27766801,12.343977,0.1,325.1167,1.59305E+12,,,,
Fix,GT,37.4272951,-122.0952435,-29.3053913,13.173033,0.1,321.62805,1.59305E+12,,,,
Fix,GT,37.4273867,-122.0953424,-29.33548663,13.591091,0.1,317.56107,1.59305E+12,,,,
Fix,GT,37.4274741,-122.0954527,-29.35680008,13.905958,0.1,312.89136,1.59305E+12,,,,
Fix,GT,37.4275548,-122.0955721,-29.34375305,13.747535,0.1,308.46814,1.59305E+12,,,,
Fix,GT,37.4276271,-122.0956964,-29.28570429,13.442385,0.1,304.5661,1.59305E+12,,,,
Fix,GT,37.427692,-122.095823,-29.24502897,13.273055,0.1,301.10568,1.59305E+12,,,,
Fix,GT,37.4277493,-122.0959561,-29.20475224,13.437607,0.1,296.31,1.59305E+12,,,,
Fix,GT,37.4277984,-122.0960946,-29.1918002,13.378311,0.1,292.30756,1.59305E+12,,,,
Fix,GT,37.42784,-122.0962379,-29.24384757,13.687437,0.1,288.18564,1.59305E+12,,,,
Fix,GT,37.4278734,-122.096388,-29.32466699,13.79907,0.1,283.79465,1.59305E+12,,,,
Fix,GT,37.4278982,-122.0965397,-29.35707867,13.595432,0.1,279.86853,1.59305E+12,,,,
Fix,GT,37.427914,-122.0966924,-29.41457128,13.656803,0.1,275.53156,1.59305E+12,,,,
Fix,GT,37.4279207,-122.0968456,-29.47125728,13.459869,0.1,271.3539,1.59305E+12,,,,
Fix,GT,37.4279186,-122.0969962,-29.52021116,13.1799755,0.1,267.41293,1.59305E+12,,,,
Fix,GT,37.4279079,-122.0971432,-29.59012491,12.971069,0.1,262.77133,1.59305E+12,,,,
Fix,GT,37.4278889,-122.0972806,-29.63175404,11.470141,0.1,258.9093,1.59305E+12,,,,
Fix,GT,37.4278688,-122.0973987,-29.64587704,10.1189,0.1,257.43408,1.59305E+12,,,,
Fix,GT,37.4278501,-122.0975031,-29.59091447,8.74818,0.1,257.51715,1.59305E+12,,,,
Fix,GT,37.4278346,-122.0975947,-29.67630451,8.05483,0.1,258.10696,1.59305E+12,,,,
Fix,GT,37.4278193,-122.0976831,-29.73817215,7.9405346,0.1,257.4522,1.59305E+12,,,,
Fix,GT,37.4278034,-122.0977704,-29.74798254,7.957164,0.1,256.94464,1.59305E+12,,,,
Fix,GT,37.4277871,-122.0978592,-29.76984951,8.257026,0.1,256.97495,1.59305E+12,,,,
Fix,GT,37.4277699,-122.097953,-29.79180145,8.753017,0.1,257.22897,1.59305E+12,,,,
Fix,GT,37.4277529,-122.0980523,-29.7318494,9.246213,0.1,258.98096,1.59305E+12,,,,
Fix,GT,37.4277383,-122.0981583,-29.7740776,9.824387,0.1,260.17804,1.59305E+12,,,,
Fix,GT,37.4277216,-122.0982724,-29.8201631,10.760699,0.1,259.27615,1.59305E+12,,,,
Fix,GT,37.4277027,-122.0983959,-29.78916296,11.452482,0.1,259.06882,1.59305E+12,,,,
Fix,GT,37.427682,-122.0985255,-29.76861991,11.860704,0.1,258.48114,1.59305E+12,,,,
Fix,GT,37.4276601,-122.0986574,-29.79543749,11.904722,0.1,258.09238,1.59305E+12,,,,
Fix,GT,37.4276384,-122.0987853,-29.83502998,11.1280155,0.1,258.00793,1.59305E+12,,,,
Fix,GT,37.4276178,-122.0989027,-29.86903049,10.085723,0.1,257.389,1.59305E+12,,,,
Fix,GT,37.4275994,-122.0990052,-29.89584885,8.505272,0.1,257.29483,1.59305E+12,,,,
Fix,GT,37.4275831,-122.0990927,-29.91284737,7.357954,0.1,256.90884,1.59305E+12,,,,
Fix,GT,37.4275699,-122.0991624,-29.92598228,5.12362,0.1,256.87234,1.59305E+12,,,,
Fix,GT,37.4275619,-122.0992064,-29.93862087,3.255887,0.1,257.37323,1.59305E+12,,,,
Fix,GT,37.427556,-122.0992384,-29.95684889,2.7427995,0.1,257.6751,1.59305E+12,,,,
Fix,GT,37.4275507,-122.0992701,-29.99643769,3.0158439,0.1,258.5672,1.59305E+12,,,,
Fix,GT,37.4275478,-122.0993069,-30.04384789,3.6737432,0.1,265.30826,1.59305E+12,,,,
Fix,GT,37.4275548,-122.0993526,-30.14071447,4.7079945,0.1,282.14084,1.59305E+12,,,,
Fix,GT,37.4275798,-122.099402,-30.25102866,5.791978,0.1,305.9571,1.59305E+12,,,,
Fix,GT,37.4276262,-122.0994429,-30.31830646,7.0040617,0.1,329.1633,1.59305E+12,,,,
Fix,GT,37.4276929,-122.0994729,-30.28680038,8.739427,0.1,341.85883,1.59305E+12,,,,
Fix,GT,37.4277731,-122.0995063,-30.29980087,10.1644945,0.1,341.58542,1.59305E+12,,,,
Fix,GT,37.4278661,-122.0995482,-30.28220963,11.682042,0.1,340.02118,1.59305E+12,,,,
Fix,GT,37.4279707,-122.0995967,-30.27598154,13.1239395,0.1,339.78143,1.59305E+12,,,,
Fix,GT,37.4280869,-122.0996501,-30.31425651,14.287333,0.1,340.07944,1.59305E+12,,,,
Fix,GT,37.4282129,-122.0997068,-30.34525665,15.362028,0.1,340.40338,1.59305E+12,,,,
Fix,GT,37.4283472,-122.099767,-30.38866804,16.212236,0.1,340.3107,1.59305E+12,,,,
Fix,GT,37.4284866,-122.0998289,-30.41761916,16.42727,0.1,340.80966,1.59305E+12,,,,
Fix,GT,37.428626,-122.0998888,-30.44502868,16.361805,0.1,341.35773,1.59305E+12,,,,
Fix,GT,37.4287675,-122.0999478,-30.47275279,16.74784,0.1,341.84503,1.59305E+12,,,,
Fix,GT,37.4289123,-122.1000073,-30.49080086,17.035975,0.1,341.92026,1.59305E+12,,,,
Fix,GT,37.4290592,-122.100068,-30.49121017,17.264635,0.1,341.73407,1.59305E+12,,,,
Fix,GT,37.429206,-122.1001294,-30.52343901,17.069212,0.1,341.43906,1.59305E+12,,,,
Fix,GT,37.4293494,-122.100191,-30.54025747,16.427334,0.1,340.82852,1.59305E+12,,,,
Fix,GT,37.4294845,-122.1002499,-30.58743897,15.323603,0.1,340.92328,1.59305E+12,,,,
Fix,GT,37.429611,-122.1003019,-30.60880089,14.250643,0.1,342.58994,1.59305E+12,,,,
Fix,GT,37.4297314,-122.1003452,-30.68348524,13.649679,0.1,345.2016,1.59305E+12,,,,
Fix,GT,37.42985,-122.1003735,-30.78884757,13.246953,0.1,352.47833,1.59305E+12,,,,
Fix,GT,37.4299655,-122.1003773,-30.76875252,12.453424,0.1,2.2827497,1.59305E+12,,,,
Fix,GT,37.4300735,-122.1003578,-30.6567055,11.908358,0.1,11.870026,1.59305E+12,,,,
Fix,GT,37.4301759,-122.1003199,-30.60134431,12.0044565,0.1,18.192238,1.59305E+12,,,,
Fix,GT,37.4302804,-122.100273,-30.5392947,12.624653,0.1,20.50411,1.59305E+12,,,,
Fix,GT,37.4303863,-122.1002219,-30.49270685,12.381596,0.1,21.594694,1.59305E+12,,,,
Fix,GT,37.430486,-122.1001722,-30.43893525,11.376717,0.1,21.10662,1.59305E+12,,,,
Fix,GT,37.430579,-122.1001415,-30.39062133,10.100734,0.1,9.689779,1.59305E+12,,,,
Fix,GT,37.4306667,-122.1001436,-30.36502785,9.249793,0.1,353.33517,1.59305E+12,,,,
Fix,GT,37.4307426,-122.1001763,-30.32821006,8.322426,0.1,334.82953,1.59305E+12,,,,
Fix,GT,37.4307971,-122.1002295,-30.40307819,7.052747,0.1,318.30823,1.59305E+12,,,,
Fix,GT,37.4308421,-122.1002851,-30.43466757,6.9714193,0.1,315.2866,1.59305E+12,,,,
Fix,GT,37.4308885,-122.1003389,-30.57776203,7.195856,0.1,319.3245,1.59305E+12,,,,
Fix,GT,37.4309462,-122.1003774,-30.75448551,7.4177966,0.1,337.07114,1.59305E+12,,,,
Fix,GT,37.4310121,-122.1003919,-30.81157173,7.5673914,0.1,353.22742,1.59305E+12,,,,
Fix,GT,37.4310835,-122.1003924,-30.75134301,8.451472,0.1,1.4023418,1.59305E+12,,,,
Fix,GT,37.4311641,-122.1003865,-30.73757212,9.527398,0.1,3.8359303,1.59305E+12,,,,
Fix,GT,37.4312551,-122.100379,-30.7248387,10.695663,0.1,3.9044387,1.59305E+12,,,,
Fix,GT,37.4313549,-122.100371,-30.67193415,11.481202,0.1,3.492172,1.59305E+12,,,,
Fix,GT,37.4314607,-122.1003616,-30.59334376,11.88821,0.1,4.878766,1.59305E+12,,,,
Fix,GT,37.4315668,-122.1003476,-30.53970583,11.750038,0.1,6.397571,1.59305E+12,,,,
Fix,GT,37.4316711,-122.100333,-30.45647829,11.672701,0.1,6.476041,1.59305E+12,,,,
Fix,GT,37.4317775,-122.1003186,-30.31724728,12.049929,0.1,6.213992,1.59305E+12,,,,
Fix,GT,37.4318847,-122.1003034,-30.13383831,11.794798,0.1,7.053465,1.59305E+12,,,,
Fix,GT,37.4319864,-122.1002871,-29.96565732,10.906872,0.1,7.668115,1.59305E+12,,,,
Fix,GT,37.4320778,-122.1002693,-29.81193442,9.546538,0.1,10.966729,1.59305E+12,,,,
Fix,GT,37.4321521,-122.1002353,-29.73975298,8.325191,0.1,26.157722,1.59305E+12,,,,
Fix,GT,37.4322051,-122.1001749,-29.65142953,7.8368683,0.1,49.61653,1.59305E+12,,,,
Fix,GT,37.4322327,-122.1000944,-29.56602809,8.143656,0.1,73.582634,1.59305E+12,,,,
Fix,GT,37.4322359,-122.0999976,-29.56280224,9.254065,0.1,91.96793,1.59305E+12,,,,
Fix,GT,37.4322248,-122.0998863,-29.59284945,10.630871,0.1,98.35685,1.59305E+12,,,,
Fix,GT,37.4322095,-122.0997597,-29.66439222,11.995021,0.1,98.789764,1.59305E+12,,,,
Fix,GT,37.4321934,-122.0996198,-29.68884811,12.961719,0.1,97.976166,1.59305E+12,,,,
Fix,GT,37.4321788,-122.0994692,-29.75312498,13.828459,0.1,96.47432,1.59305E+12,,,,
Fix,GT,37.4321659,-122.099311,-29.76025847,14.193929,0.1,95.699394,1.59305E+12,,,,
Fix,GT,37.4321539,-122.0991522,-29.81403007,14.02623,0.1,95.41788,1.59305E+12,,,,
Fix,GT,37.4321419,-122.0989953,-29.88325767,13.937009,0.1,95.72368,1.59305E+12,,,,
Fix,GT,37.432129,-122.0988378,-29.82421035,14.1000805,0.1,95.97957,1.59305E+12,,,,
Fix,GT,37.4321154,-122.0986782,-29.86947838,14.330864,0.1,96.2134,1.59305E+12,,,,
Fix,GT,37.4321005,-122.098518,-29.83939081,14.164274,0.1,96.96353,1.59305E+12,,,,
Fix,GT,37.4320842,-122.0983606,-29.80521012,13.983728,0.1,97.62581,1.59305E+12,,,,
Fix,GT,37.4320667,-122.0982059,-29.84107613,13.56906,0.1,98.15574,1.59305E+12,,,,
Fix,GT,37.4320505,-122.0980596,-29.9142587,12.476934,0.1,97.281784,1.59305E+12,,,,
Fix,GT,37.4320392,-122.0979294,-29.95543811,10.664318,0.1,94.6527,1.59305E+12,,,,
Fix,GT,37.4320401,-122.0978187,-29.95980072,9.070546,0.1,85.584045,1.59305E+12,,,,
Fix,GT,37.4320598,-122.0977245,-29.93147753,8.150941,0.1,69.78597,1.59305E+12,,,,
Fix,GT,37.4320984,-122.0976519,-29.92602958,7.3362665,0.1,50.329144,1.59305E+12,,,,
Fix,GT,37.4321514,-122.0976058,-29.96375224,6.6550827,0.1,28.095228,1.59305E+12,,,,
Fix,GT,37.4322047,-122.0975979,-29.98280233,5.1760807,0.1,359.73892,1.59305E+12,,,,
Fix,GT,37.4322432,-122.097622,-29.95657222,4.221379,0.1,329.11395,1.59305E+12,,,,
Fix,GT,37.4322613,-122.0976614,-30.00630529,3.7051716,0.1,299.3663,1.59305E+12,,,,
Fix,GT,37.4322677,-122.0977037,-30.14267815,3.6032362,0.1,281.9602,1.59305E+12,,,,
Fix,GT,37.4322719,-122.0977449,-30.02488546,3.77123,0.1,277.69702,1.59305E+12,,,,
Fix,GT,37.4322767,-122.0977939,-29.92516199,5.260919,0.1,276.83734,1.59305E+12,,,,
Fix,GT,37.4322843,-122.0978665,-29.89393337,7.649972,0.1,277.30338,1.59305E+12,,,,
Fix,GT,37.4322951,-122.0979621,-29.78952486,9.244896,0.1,278.16278,1.59305E+12,,,,
Fix,GT,37.4323082,-122.0980707,-29.69239121,10.082762,0.1,278.40918,1.59305E+12,,,,
Fix,GT,37.4323204,-122.0981833,-29.60229621,9.826176,0.1,276.70782,1.59305E+12,,,,
Fix,GT,37.4323216,-122.0982875,-29.53780174,8.541157,0.1,266.47778,1.59305E+12,,,,
Fix,GT,37.432302,-122.0983725,-29.5708472,7.013639,0.1,247.85986,1.59305E+12,,,,
Fix,GT,37.4322692,-122.0984298,-29.687487,5.4382095,0.1,230.58606,1.59305E+12,,,,
Fix,GT,37.4322335,-122.0984612,-29.70930631,3.9543467,0.1,213.12154,1.59305E+12,,,,
Fix,GT,37.4322073,-122.0984749,-29.80325774,2.8977113,0.1,205.0636,1.59305E+12,,,,
Fix,GT,37.4321858,-122.0984943,-30.05685787,3.3023076,0.1,215.72017,1.59305E+12,,,,
Fix,GT,37.4321682,-122.0985336,-29.92657242,4.8869066,0.1,240.84943,1.59305E+12,,,,
Fix,GT,37.4321617,-122.0986019,-29.88739002,7.5661488,0.1,266.15707,1.59305E+12,,,,
Fix,GT,37.432168,-122.0987028,-29.89780134,10.367986,0.1,276.55765,1.59305E+12,,,,
Fix,GT,37.4321838,-122.0988322,-29.84402974,12.806504,0.1,278.67654,1.59305E+12,,,,
Fix,GT,37.4321993,-122.098987,-29.88230551,14.692299,0.1,276.43594,1.59305E+12,,,,
Fix,GT,37.4322118,-122.0991618,-29.83611567,16.08926,0.1,274.56668,1.59305E+12,,,,
Fix,GT,37.4322222,-122.0993451,-29.75639152,16.263521,0.1,274.32504,1.59305E+12,,,,
Fix,GT,37.4322347,-122.0995241,-29.71057282,15.311171,0.1,275.5098,1.59305E+12,,,,
Fix,GT,37.4322484,-122.0996872,-29.64834329,13.660607,0.1,276.43076,1.59305E+12,,,,
Fix,GT,37.4322618,-122.0998291,-29.59952434,11.6134815,0.1,276.6302,1.59305E+12,,,,
Fix,GT,37.4322714,-122.09995,-29.53239137,9.814639,0.1,275.2905,1.59305E+12,,,,
Fix,GT,37.4322786,-122.1000464,-29.51239091,7.201966,0.1,275.4782,1.59305E+12,,,,
Fix,GT,37.4322837,-122.1001109,-29.48479946,4.2259264,0.1,275.30634,1.59305E+12,,,,
Fix,GT,37.4322852,-122.1001519,-29.48557244,3.4389,0.1,271.61374,1.59305E+12,,,,
Fix,GT,37.4322769,-122.1001959,-29.47543779,4.916703,0.1,255.85358,1.59305E+12,,,,
Fix,GT,37.4322464,-122.1002546,-29.45683741,7.17418,0.1,232.03499,1.59305E+12,,,,
Fix,GT,37.4321846,-122.1003056,-29.44912323,9.152784,0.1,206.87459,1.59305E+12,,,,
Fix,GT,37.4320977,-122.1003358,-29.60517178,10.875507,0.1,191.41768,1.59305E+12,,,,
Fix,GT,37.4319911,-122.1003544,-29.81403787,12.972463,0.1,187.0994,1.59305E+12,,,,
Fix,GT,37.4318663,-122.1003751,-30.04617175,14.953208,0.1,188.02946,1.59305E+12,,,,
Fix,GT,37.4317272,-122.1004035,-30.28049686,16.127182,0.1,190.30606,1.59305E+12,,,,
Fix,GT,37.4315829,-122.1004413,-30.44253422,16.398165,0.1,192.67944,1.59305E+12,,,,
Fix,GT,37.4314423,-122.100483,-30.58421058,15.64808,0.1,193.48608,1.59305E+12,,,,
Fix,GT,37.4313065,-122.1005207,-30.63011518,15.221014,0.1,191.45503,1.59305E+12,,,,
Fix,GT,37.4311752,-122.1005488,-30.65201995,14.041155,0.1,188.579,1.59305E+12,,,,
Fix,GT,37.4310578,-122.1005689,-30.65811414,12.259133,0.1,187.43808,1.59305E+12,,,,
Fix,GT,37.4309511,-122.1005861,-30.63602775,11.786101,0.1,187.13261,1.59305E+12,,,,
Fix,GT,37.4308433,-122.100601,-30.62552546,12.455679,0.1,186.2144,1.59305E+12,,,,
Fix,GT,37.4307242,-122.1006166,-30.59606841,14.191265,0.1,185.8997,1.59305E+12,,,,
Fix,GT,37.4305897,-122.1006357,-30.42261147,15.757886,0.1,187.12201,1.59305E+12,,,,
Fix,GT,37.4304461,-122.1006645,-30.15310455,16.56183,0.1,191.00171,1.59305E+12,,,,
Fix,GT,37.4302984,-122.1007096,-29.95865739,17.219315,0.1,195.8383,1.59305E+12,,,,
Fix,GT,37.4301492,-122.1007738,-29.89393429,17.835936,0.1,201.52487,1.59305E+12,,,,
Fix,GT,37.4300002,-122.1008566,-29.72133372,18.33736,0.1,205.13818,1.59305E+12,,,,
Fix,GT,37.4298509,-122.1009484,-29.53662033,18.425373,0.1,207.59103,1.59305E+12,,,,
Fix,GT,37.4297075,-122.1010459,-29.67044891,17.80196,0.1,209.15605,1.59305E+12,,,,
Fix,GT,37.4295713,-122.1011457,-29.88067813,17.187683,0.1,211.8456,1.59305E+12,,,,
Fix,GT,37.4294491,-122.101257,-30.0787537,16.484228,0.1,220.15108,1.59305E+12,,,,
Fix,GT,37.4293499,-122.1013905,-30.2254017,16.021656,0.1,233.21138,1.59305E+12,,,,
Fix,GT,37.4292839,-122.1015475,-30.31989793,15.619608,0.1,249.27376,1.59305E+12,,,,
Fix,GT,37.429257,-122.1017175,-30.42048677,15.32449,0.1,266.43414,1.59305E+12,,,,
Fix,GT,37.4292732,-122.1018896,-30.42830613,15.687973,0.1,284.68945,1.59305E+12,,,,
Fix,GT,37.4293337,-122.1020512,-30.46016353,16.187918,0.1,303.1648,1.59305E+12,,,,
Fix,GT,37.4294313,-122.1021919,-30.32693486,17.010656,0.1,315.78937,1.59305E+12,,,,
Fix,GT,37.4295493,-122.1023254,-30.26266744,18.288248,0.1,318.71936,1.59305E+12,,,,
Fix,GT,37.4296796,-122.1024709,-30.25075268,20.458134,0.1,317.90698,1.59305E+12,,,,
Fix,GT,37.4298224,-122.1026356,-30.2182481,22.601612,0.1,317.26453,1.59305E+12,,,,
Fix,GT,37.429978,-122.1028176,-30.14425934,24.454317,0.1,316.93845,1.59305E+12,,,,
Fix,GT,37.4301441,-122.1030112,-30.15011488,25.842121,0.1,317.3713,1.59305E+12,,,,
Fix,GT,37.4303201,-122.1032119,-30.06352597,26.929434,0.1,318.16998,1.59305E+12,,,,
Fix,GT,37.4305046,-122.1034174,-30.04226856,27.869682,0.1,318.6211,1.59305E+12,,,,
Fix,GT,37.4306951,-122.1036269,-29.93180084,28.231617,0.1,319.06223,1.59305E+12,,,,
Fix,GT,37.4308872,-122.1038335,-29.84147767,27.928913,0.1,319.73804,1.59305E+12,,,,
Fix,GT,37.431078,-122.1040357,-29.57751562,27.519587,0.1,319.78232,1.59305E+12,,,,
Fix,GT,37.4312646,-122.1042351,-29.24387689,26.689228,0.1,319.45444,1.59305E+12,,,,
Fix,GT,37.4314433,-122.104427,-28.91910537,25.669348,0.1,319.452,1.59305E+12,,,,
Fix,GT,37.4316163,-122.1046166,-28.60205838,25.386894,0.1,318.17868,1.59305E+12,,,,
Fix,GT,37.4317866,-122.1048103,-28.36765758,25.73124,0.1,317.65536,1.59305E+12,,,,
Fix,GT,37.4319607,-122.1050084,-28.14960989,26.389566,0.1,318.2882,1.59305E+12,,,,
Fix,GT,37.4321426,-122.1052075,-28.11343999,27.258736,0.1,319.45212,1.59305E+12,,,,
Fix,GT,37.4323329,-122.1054098,-28.0702958,28.08354,0.1,319.93256,1.59305E+12,,,,
Fix,GT,37.4325312,-122.1056186,-28.15794447,29.400457,0.1,320.0807,1.59305E+12,,,,
Fix,GT,37.4327369,-122.1058345,-28.37067697,29.980549,0.1,320.12332,1.59305E+12,,,,
Fix,GT,37.4329449,-122.1060522,-28.70431655,30.171753,0.1,320.2529,1.59305E+12,,,,
Fix,GT,37.4331542,-122.1062704,-29.05418251,30.206074,0.1,320.32938,1.59305E+12,,,,
Fix,GT,37.4333637,-122.106488,-29.37926756,30.17517,0.1,320.20557,1.59305E+12,,,,
Fix,GT,37.4335717,-122.1067072,-29.66248532,30.13423,0.1,319.8859,1.59305E+12,,,,
Fix,GT,37.4337787,-122.1069259,-29.73984957,29.910942,0.1,319.95316,1.59305E+12,,,,
Fix,GT,37.4339837,-122.1071421,-29.73761976,29.537497,0.1,319.91443,1.59305E+12,,,,
Fix,GT,37.4341859,-122.1073562,-29.74080086,29.191261,0.1,319.9054,1.59305E+12,,,,
Fix,GT,37.434386,-122.1075673,-29.75784922,28.858261,0.1,320.03214,1.59305E+12,,,,
Fix,GT,37.4345842,-122.1077755,-29.73557334,28.522547,0.1,320.12906,1.59305E+12,,,,
Fix,GT,37.4347801,-122.1079814,-29.75793552,28.213017,0.1,320.05136,1.59305E+12,,,,
Fix,GT,37.434974,-122.1081846,-29.75875235,27.829319,0.1,320.27438,1.59305E+12,,,,
Fix,GT,37.4351653,-122.1083843,-29.73211474,27.457432,0.1,320.19522,1.59305E+12,,,,
Fix,GT,37.4353541,-122.1085824,-29.73602903,27.176804,0.1,320.15695,1.59305E+12,,,,
Fix,GT,37.4355411,-122.1087782,-29.768619,26.895943,0.1,320.1883,1.59305E+12,,,,
Fix,GT,37.435726,-122.1089719,-29.75884801,26.58939,0.1,320.1938,1.59305E+12,,,,
Fix,GT,37.4359091,-122.1091633,-29.75875324,26.306732,0.1,320.27295,1.59305E+12,,,,
Fix,GT,37.436091,-122.1093533,-29.72980118,26.31341,0.1,320.18762,1.59305E+12,,,,
Fix,GT,37.4362745,-122.1095459,-29.70316269,26.730839,0.1,320.09723,1.59305E+12,,,,
Fix,GT,37.4364587,-122.1097392,-29.68998312,26.522514,0.1,320.1231,1.59305E+12,,,,
Fix,GT,37.4366413,-122.109931,-29.68498107,26.4145,0.1,320.12564,1.59305E+12,,,,
Fix,GT,37.4368243,-122.1101224,-29.66843855,26.471016,0.1,320.27222,1.59305E+12,,,,
Fix,GT,37.4370076,-122.110313,-29.64202828,26.395145,0.1,320.31686,1.59305E+12,,,,
Fix,GT,37.4371906,-122.1105056,-29.60780055,26.716314,0.1,319.7605,1.59305E+12,,,,
Fix,GT,37.4373762,-122.1107036,-29.60857078,27.356663,0.1,319.5728,1.59305E+12,,,,
Fix,GT,37.437565,-122.110905,-29.55721102,27.58065,0.1,319.92126,1.59305E+12,,,,
Fix,GT,37.4377554,-122.1111051,-29.51598245,27.573257,0.1,320.06616,1.59305E+12,,,,
Fix,GT,37.4379457,-122.1113046,-29.51557404,27.492887,0.1,320.22784,1.59305E+12,,,,
Fix,GT,37.4381361,-122.1115038,-29.48762062,27.576519,0.1,320.17188,1.59305E+12,,,,
Fix,GT,37.4383269,-122.1117042,-29.46975371,27.593224,0.1,320.07355,1.59305E+12,,,,
Fix,GT,37.4385165,-122.1119036,-29.45780094,27.337334,0.1,320.03665,1.59305E+12,,,,
Fix,GT,37.4387057,-122.1121021,-29.47680092,27.491634,0.1,320.1673,1.59305E+12,,,,
Fix,GT,37.4388965,-122.1123019,-29.44893554,27.60511,0.1,320.22067,1.59305E+12,,,,
Fix,GT,37.4390873,-122.1125016,-29.30101946,27.58537,0.1,320.18973,1.59305E+12,,,,
Fix,GT,37.4392782,-122.1127014,-29.1227424,27.605227,0.1,320.1814,1.59305E+12,,,,
Fix,GT,37.4394698,-122.1129024,-28.82656289,27.854244,0.1,319.97296,1.59305E+12,,,,
Fix,GT,37.4396632,-122.1131064,-28.54787609,28.329987,0.1,320.12292,1.59305E+12,,,,
Fix,GT,37.4398612,-122.1133138,-28.29015235,28.935324,0.1,320.16574,1.59305E+12,,,,
Fix,GT,37.4400633,-122.1135262,-28.20843926,29.589516,0.1,319.95984,1.59305E+12,,,,
Fix,GT,37.4402689,-122.1137435,-28.18329762,30.048569,0.1,319.9247,1.59305E+12,,,,
Fix,GT,37.4404762,-122.1139621,-28.23590648,29.96331,0.1,320.14374,1.59305E+12,,,,
Fix,GT,37.4406827,-122.1141782,-28.52095269,29.7444,0.1,320.18243,1.59305E+12,,,,
Fix,GT,37.4408875,-122.114393,-28.85549525,29.466904,0.1,320.06332,1.59305E+12,,,,
Fix,GT,37.4410895,-122.1146056,-29.17685724,29.084606,0.1,320.09567,1.59305E+12,,,,
Fix,GT,37.441289,-122.1148155,-29.35612461,28.689354,0.1,320.04684,1.59305E+12,,,,
Fix,GT,37.441486,-122.1150218,-29.39420915,28.288643,0.1,320.35086,1.59305E+12,,,,
Fix,GT,37.4416804,-122.115225,-29.3715713,27.870903,0.1,320.12955,1.59305E+12,,,,
Fix,GT,37.4418721,-122.1154251,-29.34980011,27.526682,0.1,320.4847,1.59305E+12,,,,
Fix,GT,37.4420623,-122.1156224,-29.36139186,27.272175,0.1,320.4157,1.59305E+12,,,,
Fix,GT,37.4422502,-122.1158193,-29.37421035,27.094404,0.1,319.956,1.59305E+12,,,,
Fix,GT,37.4424362,-122.1160166,-29.35802873,27.007011,0.1,319.79245,1.59305E+12,,,,
Fix,GT,37.4426228,-122.1162142,-29.35380173,27.209812,0.1,319.983,1.59305E+12,,,,
Fix,GT,37.4428107,-122.1164124,-29.37580196,27.312546,0.1,320.00787,1.59305E+12,,,,
Fix,GT,37.4429991,-122.1166118,-29.38762012,27.428139,0.1,319.90372,1.59305E+12,,,,
Fix,GT,37.4431889,-122.1168119,-29.38680077,27.579088,0.1,320.06204,1.59305E+12,,,,
Fix,GT,37.4433801,-122.1170119,-29.36643934,27.66484,0.1,320.4416,1.59305E+12,,,,
Fix,GT,37.4435722,-122.1172107,-29.38662076,27.605408,0.1,320.5265,1.59305E+12,,,,
Fix,GT,37.4437634,-122.117409,-29.35811436,27.474586,0.1,320.3378,1.59305E+12,,,,
Fix,GT,37.4439527,-122.1176067,-29.37902862,27.179516,0.1,320.15738,1.59305E+12,,,,
Fix,GT,37.444139,-122.1178033,-29.38980015,26.854626,0.1,319.88477,1.59305E+12,,,,
Fix,GT,37.4443228,-122.1179979,-29.41862025,26.550316,0.1,319.85532,1.59305E+12,,,,
Fix,GT,37.4445044,-122.1181906,-29.42717184,26.256516,0.1,319.73508,1.59305E+12,,,,
Fix,GT,37.4446839,-122.1183815,-29.44602908,25.97729,0.1,319.9474,1.59305E+12,,,,
Fix,GT,37.4448636,-122.1185677,-29.4643926,25.836666,0.1,320.8891,1.59305E+12,,,,
Fix,GT,37.4450446,-122.1187535,-29.45807825,26.128197,0.1,320.59772,1.59305E+12,,,,
Fix,GT,37.4452269,-122.1189431,-29.48466748,26.435944,0.1,320.28027,1.59305E+12,,,,
Fix,GT,37.4454107,-122.119135,-29.50984824,26.624401,0.1,320.2741,1.59305E+12,,,,
Fix,GT,37.4455948,-122.1193269,-29.49902857,26.430285,0.1,320.33557,1.59305E+12,,,,
Fix,GT,37.4457768,-122.1195164,-29.51366695,26.054085,0.1,320.39948,1.59305E+12,,,,
Fix,GT,37.4459566,-122.1197021,-29.49520897,25.66124,0.1,320.6711,1.59305E+12,,,,
Fix,GT,37.4461341,-122.1198851,-29.4845722,25.427982,0.1,320.43008,1.59305E+12,,,,
Fix,GT,37.4463108,-122.1200701,-29.48334447,25.66703,0.1,319.99097,1.59305E+12,,,,
Fix,GT,37.4464874,-122.1202565,-29.48843816,25.489933,0.1,320.00146,1.59305E+12,,,,
Fix,GT,37.4466623,-122.1204403,-29.50339129,25.163448,0.1,320.15555,1.59305E+12,,,,
Fix,GT,37.446835,-122.1206214,-29.52598248,24.781242,0.1,320.07166,1.59305E+12,,,,
Fix,GT,37.4470046,-122.1208003,-29.54198157,24.418953,0.1,319.91656,1.59305E+12,,,,
Fix,GT,37.4471717,-122.1209768,-29.54239163,24.094654,0.1,319.9304,1.59305E+12,,,,
Fix,GT,37.4473366,-122.1211512,-29.54380123,23.785072,0.1,319.8614,1.59305E+12,,,,
Fix,GT,37.4475,-122.1213243,-29.55062108,23.763834,0.1,319.8162,1.59305E+12,,,,
Fix,GT,37.4476646,-122.1214996,-29.55866787,24.221178,0.1,319.71777,1.59305E+12,,,,
Fix,GT,37.4478337,-122.121679,-29.56539157,24.803877,0.1,319.97498,1.59305E+12,,,,
Fix,GT,37.448006,-122.1218601,-29.52416195,25.012762,0.1,320.1233,1.59305E+12,,,,
Fix,GT,37.4481785,-122.1220406,-29.46179171,24.815926,0.1,320.37952,1.59305E+12,,,,
Fix,GT,37.4483493,-122.1222185,-29.37629503,24.48114,0.1,320.20795,1.59305E+12,,,,
Fix,GT,37.4485172,-122.122395,-29.29275292,24.120567,0.1,320.10007,1.59305E+12,,,,
Fix,GT,37.4486827,-122.1225685,-29.2680681,23.773743,0.1,320.22388,1.59305E+12,,,,
Fix,GT,37.4488461,-122.122739,-29.14788714,23.400084,0.1,320.39136,1.59305E+12,,,,
Fix,GT,37.449008,-122.1229069,-29.0749343,23.302902,0.1,320.56152,1.59305E+12,,,,
Fix,GT,37.4491708,-122.1230745,-28.9642481,23.470482,0.1,320.62866,1.59305E+12,,,,
Fix,GT,37.4493345,-122.1232448,-28.87779216,23.772758,0.1,320.23492,1.59305E+12,,,,
Fix,GT,37.4495001,-122.1234188,-28.6891164,24.158447,0.1,320.00165,1.59305E+12,,,,
Fix,GT,37.4496677,-122.1235952,-28.57024911,24.350964,0.1,319.97943,1.59305E+12,,,,
Fix,GT,37.4498355,-122.1237722,-28.47088628,24.318913,0.1,320.00623,1.59305E+12,,,,
Fix,GT,37.4500032,-122.123949,-28.35406748,24.339865,0.1,319.9468,1.59305E+12,,,,
Fix,GT,37.4501713,-122.124127,-28.24088648,24.521423,0.1,319.82123,1.59305E+12,,,,
Fix,GT,37.4503406,-122.1243076,-28.11088649,24.785019,0.1,319.4993,1.59305E+12,,,,
Fix,GT,37.4505107,-122.1244914,-27.92906743,25.030182,0.1,319.1506,1.59305E+12,,,,
Fix,GT,37.4506812,-122.124679,-27.80343072,25.323784,0.1,318.52405,1.59305E+12,,,,
Fix,GT,37.4508497,-122.1248683,-27.70888692,24.569733,0.1,318.0558,1.59305E+12,,,,
Fix,GT,37.4510088,-122.1250497,-27.60393368,23.160816,0.1,317.78912,1.59305E+12,,,,
Fix,GT,37.4511597,-122.1252227,-27.5017061,22.383408,0.1,317.3891,1.59305E+12,,,,
Fix,GT,37.4513053,-122.1253947,-27.39606818,22.009312,0.1,316.07513,1.59305E+12,,,,
Fix,GT,37.4514449,-122.1255699,-27.31811451,21.89943,0.1,313.75827,1.59305E+12,,,,
Fix,GT,37.4515782,-122.1257544,-27.27175313,22.604694,0.1,311.18503,1.59305E+12,,,,
Fix,GT,37.4517164,-122.1259592,-27.20088677,24.83577,0.1,309.6793,1.59305E+12,,,,
Fix,GT,37.4518653,-122.1261847,-27.11602045,26.983574,0.1,310.17938,1.59305E+12,,,,
Fix,GT,37.4520298,-122.1264255,-26.98511436,29.073452,0.1,310.58643,1.59305E+12,,,,
Fix,GT,37.4522014,-122.1266799,-26.84738327,29.492886,0.1,309.9706,1.59305E+12,,,,
Fix,GT,37.4523693,-122.1269369,-26.50788679,29.24242,0.1,308.71487,1.59305E+12,,,,
Fix,GT,37.4525304,-122.1271967,-26.2217445,29.098766,0.1,306.84018,1.59305E+12,,,,
Fix,GT,37.4526858,-122.1274631,-26.01248615,29.424171,0.1,305.51712,1.59305E+12,,,,
Fix,GT,37.4528399,-122.1277423,-25.96557137,30.721838,0.1,304.33005,1.59305E+12,,,,
Fix,GT,37.452998,-122.1280339,-25.91362025,31.460651,0.1,304.55963,1.59305E+12,,,,
Fix,GT,37.4531611,-122.128326,-26.00063665,31.666344,0.1,305.68393,1.59305E+12,,,,
Fix,GT,37.4533286,-122.1286155,-26.2081167,31.558764,0.1,306.24,1.59305E+12,,,,
Fix,GT,37.4534959,-122.1289021,-26.21525805,31.300858,0.1,306.3178,1.59305E+12,,,,
Fix,GT,37.4536622,-122.129186,-26.22921098,31.028826,0.1,306.2705,1.59305E+12,,,,
Fix,GT,37.4538272,-122.1294683,-26.22543844,30.979454,0.1,306.26147,1.59305E+12,,,,
Fix,GT,37.4539924,-122.1297513,-26.24057178,31.118177,0.1,306.2446,1.59305E+12,,,,
Fix,GT,37.4541593,-122.1300364,-26.28075365,31.482231,0.1,306.4818,1.59305E+12,,,,
Fix,GT,37.4543284,-122.1303236,-26.30139165,31.663158,0.1,306.52774,1.59305E+12,,,,
Fix,GT,37.454498,-122.1306116,-26.31898206,31.737514,0.1,306.36356,1.59305E+12,,,,
Fix,GT,37.454668,-122.1309028,-26.3362102,32.153862,0.1,306.17108,1.59305E+12,,,,
Fix,GT,37.4548401,-122.1311983,-26.34425772,32.591114,0.1,306.22742,1.59305E+12,,,,
Fix,GT,37.4550146,-122.131496,-26.35998243,32.819893,0.1,306.56955,1.59305E+12,,,,
Fix,GT,37.455192,-122.1317946,-26.39498149,33.014244,0.1,307.05298,1.59305E+12,,,,
Fix,GT,37.4553724,-122.1320916,-26.41021151,33.059013,0.1,307.66425,1.59305E+12,,,,
Fix,GT,37.455555,-122.1323872,-26.45730476,33.121643,0.1,308.02856,1.59305E+12,,,,
Fix,GT,37.4557388,-122.1326825,-26.51643877,33.176132,0.1,307.8507,1.59305E+12,,,,
Fix,GT,37.4559218,-122.1329795,-26.52725826,33.248547,0.1,307.62878,1.59305E+12,,,,
Fix,GT,37.4561044,-122.1332777,-26.53170539,33.28031,0.1,307.42422,1.59305E+12,,,,
Fix,GT,37.4562852,-122.1335776,-26.43729709,33.24152,0.1,306.87082,1.59305E+12,,,,
Fix,GT,37.4564642,-122.1338785,-26.31561156,33.228973,0.1,306.6345,1.59305E+12,,,,
Fix,GT,37.4566423,-122.1341806,-26.15025028,33.25319,0.1,306.34305,1.59305E+12,,,,
Fix,GT,37.4568198,-122.1344837,-26.00524905,33.300114,0.1,306.28674,1.59305E+12,,,,
Fix,GT,37.4569977,-122.1347871,-25.83247854,33.316658,0.1,306.42795,1.59305E+12,,,,
Fix,GT,37.457176,-122.1350901,-25.67129637,33.344803,0.1,306.50006,1.59305E+12,,,,
Fix,GT,37.4573547,-122.1353935,-25.52524878,33.38395,0.1,306.39853,1.59305E+12,,,,
Fix,GT,37.4575322,-122.1356964,-25.33584001,33.06598,0.1,306.39468,1.59305E+12,,,,
Fix,GT,37.4577074,-122.1359955,-25.19443116,32.629776,0.1,306.33304,1.59305E+12,,,,
Fix,GT,37.4578803,-122.1362909,-25.07725036,32.205795,0.1,306.37604,1.59305E+12,,,,
Fix,GT,37.4580513,-122.1365823,-24.94788686,31.815937,0.1,306.44424,1.59305E+12,,,,
Fix,GT,37.4582206,-122.1368698,-24.86961216,31.45351,0.1,306.5897,1.59305E+12,,,,
Fix,GT,37.4583884,-122.1371537,-24.74083997,31.090881,0.1,306.5675,1.59305E+12,,,,
Fix,GT,37.4585545,-122.1374341,-24.62052486,30.685907,0.1,306.7602,1.59305E+12,,,,
Fix,GT,37.4587188,-122.13771,-24.53411559,30.282928,0.1,306.89188,1.59305E+12,,,,
Fix,GT,37.4588817,-122.1379822,-24.51480029,29.942533,0.1,306.9521,1.59305E+12,,,,
Fix,GT,37.4590427,-122.1382531,-24.54684864,29.948757,0.1,306.85052,1.59305E+12,,,,
Fix,GT,37.4592083,-122.1385243,-24.62125879,30.56596,0.1,308.3799,1.59305E+12,,,,
Fix,GT,37.4593827,-122.1387994,-24.71230493,31.621277,0.1,308.48593,1.59305E+12,,,,
Fix,GT,37.4595603,-122.1390859,-24.77412455,32.547604,0.1,307.29108,1.59305E+12,,,,
Fix,GT,37.4597385,-122.1393816,-24.82871484,33.02622,0.1,306.94223,1.59305E+12,,,,
Fix,GT,37.4599176,-122.1396813,-24.90684885,33.19399,0.1,306.86652,1.59305E+12,,,,
Fix,GT,37.4600964,-122.1399822,-24.96325708,33.121056,0.1,306.67126,1.59305E+12,,,,
Fix,GT,37.4602726,-122.140281,-24.98462012,32.61032,0.1,306.35703,1.59305E+12,,,,
Fix,GT,37.4604456,-122.1405762,-24.99857318,32.272392,0.1,306.417,1.59305E+12,,,,
Fix,GT,37.4606176,-122.1408693,-24.93506938,32.19104,0.1,306.28824,1.59305E+12,,,,
Fix,GT,37.4607886,-122.1411641,-24.89634565,32.320427,0.1,305.94452,1.59305E+12,,,,
Fix,GT,37.46096,-122.1414606,-24.82357279,32.482864,0.1,306.08835,1.59305E+12,,,,
Fix,GT,37.4611333,-122.1417578,-24.75547832,32.660923,0.1,306.4234,1.59305E+12,,,,
Fix,GT,37.4613082,-122.142056,-24.67693467,32.878826,0.1,306.35635,1.59305E+12,,,,
Fix,GT,37.4614839,-122.1423572,-24.60611507,33.17281,0.1,306.18253,1.59305E+12,,,,
Fix,GT,37.4616609,-122.142661,-24.50988728,33.38409,0.1,306.3604,1.59305E+12,,,,
Fix,GT,37.4618394,-122.1429655,-24.46775335,33.487335,0.1,306.44928,1.59305E+12,,,,
Fix,GT,37.4620185,-122.1432704,-24.44802939,33.489822,0.1,306.3932,1.59305E+12,,,,
Fix,GT,37.4621963,-122.1435756,-24.50648455,33.40108,0.1,306.12393,1.59305E+12,,,,
Fix,GT,37.4623737,-122.1438807,-24.61743923,33.460236,0.1,306.18326,1.59305E+12,,,,
Fix,GT,37.4625519,-122.1441866,-24.7651162,33.590797,0.1,306.2163,1.59305E+12,,,,
Fix,GT,37.462731,-122.1444935,-24.81398183,33.682278,0.1,306.2476,1.59305E+12,,,,
Fix,GT,37.4629106,-122.1448004,-24.82403001,33.701057,0.1,306.50266,1.59305E+12,,,,
Fix,GT,37.4630916,-122.1451073,-24.82861996,33.862446,0.1,306.51724,1.59305E+12,,,,
Fix,GT,37.4632731,-122.1454164,-24.72865903,34.050415,0.1,306.32266,1.59305E+12,,,,
Fix,GT,37.4634553,-122.1457263,-24.56738396,34.05678,0.1,306.59924,1.59305E+12,,,,
Fix,GT,37.4636382,-122.1460351,-24.34579385,34.028755,0.1,306.62833,1.59305E+12,,,,
Fix,GT,37.4638209,-122.146345,-24.112794,34.218483,0.1,306.3488,1.59305E+12,,,,
Fix,GT,37.4640038,-122.1466585,-23.8652889,34.50273,0.1,306.13367,1.59305E+12,,,,
Fix,GT,37.4641877,-122.1469747,-23.60674676,34.76326,0.1,306.1917,1.59305E+12,,,,
Fix,GT,37.4643734,-122.1472932,-23.38138399,35.0484,0.1,306.3625,1.59305E+12,,,,
Fix,GT,37.4645614,-122.1476134,-23.24870634,35.339134,0.1,306.5108,1.59305E+12,,,,
Fix,GT,37.4647508,-122.1479367,-23.17657273,35.626183,0.1,306.12274,1.59305E+12,,,,
Fix,GT,37.46494,-122.1482639,-23.14284807,35.86419,0.1,306.01315,1.59305E+12,,,,
Fix,GT,37.4651307,-122.1485923,-23.17948622,36.0073,0.1,306.25473,1.59305E+12,,,,
Fix,GT,37.4653228,-122.1489205,-23.28635093,36.005775,0.1,306.39746,1.59305E+12,,,,
Fix,GT,37.4655158,-122.149248,-23.44339911,36.10095,0.1,306.6904,1.59305E+12,,,,
Fix,GT,37.4657106,-122.149576,-23.63516967,36.28461,0.1,306.62125,1.59305E+12,,,,
Fix,GT,37.4659051,-122.1499068,-23.7664847,36.4426,0.1,306.283,1.59305E+12,,,,
Fix,GT,37.4660998,-122.1502394,-23.92799042,36.537067,0.1,306.38727,1.59305E+12,,,,
Fix,GT,37.4662954,-122.150572,-24.09135261,36.589973,0.1,306.47473,1.59305E+12,,,,
Fix,GT,37.4664909,-122.1509053,-24.23735251,36.62747,0.1,306.23697,1.59305E+12,,,,
Fix,GT,37.4666857,-122.1512389,-24.38907723,36.548378,0.1,306.3396,1.59305E+12,,,,
Fix,GT,37.4668805,-122.1515715,-24.49894283,36.459564,0.1,306.3536,1.59305E+12,,,,
Fix,GT,37.4670744,-122.1519033,-24.593304,36.33137,0.1,306.26096,1.59305E+12,,,,
Fix,GT,37.467268,-122.1522335,-24.68939932,36.183487,0.1,306.5138,1.59305E+12,,,,
Fix,GT,37.4674616,-122.1525616,-24.79212239,36.055435,0.1,306.63727,1.59305E+12,,,,
Fix,GT,37.4676554,-122.1528879,-24.90089535,35.924355,0.1,306.74908,1.59305E+12,,,,
Fix,GT,37.4678478,-122.1532129,-24.90775392,35.670853,0.1,306.68704,1.59305E+12,,,,
Fix,GT,37.4680393,-122.1535337,-24.88039105,35.22033,0.1,307.08774,1.59305E+12,,,,
Fix,GT,37.4682293,-122.1538492,-24.83529747,34.749268,0.1,307.10138,1.59305E+12,,,,
Fix,GT,37.4684163,-122.1541615,-24.8412097,34.37356,0.1,306.71683,1.59305E+12,,,,
Fix,GT,37.4686,-122.1544731,-24.79575403,34.220726,0.1,306.29315,1.59305E+12,,,,
Fix,GT,37.4687819,-122.1547852,-24.79098228,34.16897,0.1,306.16983,1.59305E+12,,,,
Fix,GT,37.468963,-122.155097,-24.83443939,34.09228,0.1,306.0622,1.59305E+12,,,,
Fix,GT,37.4691439,-122.1554078,-24.86075458,34.014606,0.1,306.29004,1.59305E+12,,,,
Fix,GT,37.4693248,-122.1557176,-24.85957407,33.940025,0.1,306.24582,1.59305E+12,,,,
Fix,GT,37.469505,-122.1560272,-24.87312355,33.886963,0.1,306.03906,1.59305E+12,,,,
Fix,GT,37.469684,-122.1563374,-24.8441621,33.857,0.1,305.81265,1.59305E+12,,,,
Fix,GT,37.4698624,-122.156647,-24.87139066,33.706856,0.1,306.07962,1.59305E+12,,,,
Fix,GT,37.4700405,-122.1569535,-24.89561861,33.439472,0.1,306.2261,1.59305E+12,,,,
Fix,GT,37.4702179,-122.1572574,-24.89343939,33.17349,0.1,306.35114,1.59305E+12,,,,
Fix,GT,37.4703945,-122.1575583,-24.93361946,32.954727,0.1,306.44,1.59305E+12,,,,
Fix,GT,37.4705704,-122.1578575,-24.96734349,32.807014,0.1,306.47455,1.59305E+12,,,,
Fix,GT,37.4707457,-122.1581549,-24.99421031,32.635548,0.1,306.59793,1.59305E+12,,,,
Fix,GT,37.4709209,-122.1584508,-25.0258478,32.59169,0.1,306.7361,1.59305E+12,,,,
Fix,GT,37.4710961,-122.158746,-25.06002922,32.557915,0.1,306.6424,1.59305E+12,,,,
Fix,GT,37.4712706,-122.1590418,-25.10462011,32.51406,0.1,306.46835,1.59305E+12,,,,
Fix,GT,37.471444,-122.1593368,-25.12348562,32.323822,0.1,306.46652,1.59305E+12,,,,
Fix,GT,37.4716161,-122.1596302,-25.1670292,32.170647,0.1,306.3447,1.59305E+12,,,,
Fix,GT,37.4717873,-122.159923,-25.20361916,32.019882,0.1,306.28296,1.59305E+12,,,,
Fix,GT,37.4719571,-122.160214,-25.22621141,31.775354,0.1,306.16992,1.59305E+12,,,,
Fix,GT,37.4721247,-122.1605029,-25.25307596,31.444206,0.1,305.98306,1.59305E+12,,,,
Fix,GT,37.4722906,-122.1607887,-25.26598343,31.084276,0.1,306.13745,1.59305E+12,,,,
Fix,GT,37.4724547,-122.1610707,-25.29502795,30.696358,0.1,306.24042,1.59305E+12,,,,
Fix,GT,37.4726171,-122.1613488,-25.3098011,30.31193,0.1,306.2797,1.59305E+12,,,,
Fix,GT,37.4727776,-122.1616236,-25.34702799,29.952955,0.1,306.2783,1.59305E+12,,,,
Fix,GT,37.4729363,-122.1618951,-25.39302939,29.600384,0.1,306.33484,1.59305E+12,,,,
Fix,GT,37.4730934,-122.162163,-25.44384703,29.246424,0.1,306.4334,1.59305E+12,,,,
Fix,GT,37.4732488,-122.1624275,-25.49284833,28.88564,0.1,306.41205,1.59305E+12,,,,
Fix,GT,37.4734024,-122.1626885,-25.51180001,28.531364,0.1,306.52658,1.59305E+12,,,,
Fix,GT,37.473554,-122.1629467,-25.56648559,28.195793,0.1,306.3417,1.59305E+12,,,,
Fix,GT,37.4737037,-122.1632021,-25.62043864,27.98943,0.1,306.3093,1.59305E+12,,,,
Fix,GT,37.4738527,-122.1634593,-25.64757347,28.461452,0.1,305.5907,1.59305E+12,,,,
Fix,GT,37.4740024,-122.163728,-25.66498173,29.528942,0.1,304.46506,1.59305E+12,,,,
Fix,GT,37.4741548,-122.1640089,-25.69325827,30.57631,0.1,304.19278,1.59305E+12,,,,
Fix,GT,37.4743125,-122.1642992,-25.68275286,31.545822,0.1,304.63943,1.59305E+12,,,,
Fix,GT,37.474479,-122.164595,-25.74907506,32.66524,0.1,305.86816,1.59305E+12,,,,
Fix,GT,37.474656,-122.1648992,-25.80784732,33.95127,0.1,306.32822,1.59305E+12,,,,
Fix,GT,37.4748402,-122.1652139,-25.85507517,35.03295,0.1,306.31094,1.59305E+12,,,,
Fix,GT,37.4750291,-122.1655368,-25.91507618,35.772446,0.1,306.3311,1.59305E+12,,,,
Fix,GT,37.4752214,-122.1658647,-25.99430474,36.149277,0.1,306.48874,1.59305E+12,,,,
Fix,GT,37.4754155,-122.1661936,-26.1095326,36.230423,0.1,306.69885,1.59305E+12,,,,
Fix,GT,37.4756106,-122.1665227,-26.23843865,36.3164,0.1,306.66193,1.59305E+12,,,,
Fix,GT,37.4758056,-122.1668521,-26.28125839,36.25859,0.1,306.70383,1.59305E+12,,,,
Fix,GT,37.4760008,-122.1671803,-26.24998195,36.19535,0.1,306.93866,1.59305E+12,,,,
Fix,GT,37.4761974,-122.1675047,-26.27353292,35.85711,0.1,307.70773,1.59305E+12,,,,
Fix,GT,37.4763952,-122.1678226,-26.31612378,35.544704,0.1,308.4947,1.59305E+12,,,,
Fix,GT,37.4765947,-122.1681352,-26.38443934,35.320683,0.1,308.96872,1.59305E+12,,,,
Fix,GT,37.4767944,-122.1684449,-26.52235123,35.167557,0.1,308.89444,1.59305E+12,,,,
Fix,GT,37.4769909,-122.1687559,-26.58021153,35.03022,0.1,307.69733,1.59305E+12,,,,
Fix,GT,37.4771811,-122.1690722,-26.73216919,35.154945,0.1,306.6606,1.59305E+12,,,,
Fix,GT,37.4773692,-122.1693941,-26.95371928,35.411827,0.1,305.9114,1.59305E+12,,,,
Fix,GT,37.4775556,-122.1697207,-27.36722457,35.68402,0.1,305.49887,1.59305E+12,,,,
Fix,GT,37.477743,-122.1700509,-27.88591574,36.041534,0.1,305.68268,1.59305E+12,,,,
Fix,GT,37.4779333,-122.1703833,-28.5959148,36.336716,0.1,305.81796,1.59305E+12,,,,
Fix,GT,37.4781257,-122.1707174,-29.29386723,36.592476,0.1,306.03406,1.59305E+12,,,,
Fix,GT,37.4783202,-122.1710533,-30.03227699,36.85479,0.1,306.16272,1.59305E+12,,,,
Fix,GT,37.4785164,-122.1713908,-30.7763242,37.026165,0.1,306.22897,1.59305E+12,,,,
Fix,GT,37.4787136,-122.1717289,-31.44367968,37.071865,0.1,306.34555,1.59305E+12,,,,
Fix,GT,37.4789109,-122.1720668,-31.86603528,37.011875,0.1,306.33646,1.59305E+12,,,,
Fix,GT,37.479108,-122.1724031,-31.85497464,36.78393,0.1,306.40228,1.59305E+12,,,,
Fix,GT,37.4793045,-122.1727358,-31.46696099,36.493534,0.1,306.59363,1.59305E+12,,,,
Fix,GT,37.4794991,-122.1730657,-30.81455235,36.097084,0.1,306.57413,1.59305E+12,,,,
Fix,GT,37.479691,-122.1733918,-30.09727784,35.592205,0.1,306.3821,1.59305E+12,,,,
Fix,GT,37.4798793,-122.1737148,-29.41405607,35.21922,0.1,306.14157,1.59305E+12,,,,
Fix,GT,37.4800651,-122.1740356,-28.86996871,34.937057,0.1,306.01688,1.59305E+12,,,,
Fix,GT,37.4802493,-122.1743545,-28.46506239,34.74787,0.1,306.08606,1.59305E+12,,,,
Fix,GT,37.4804327,-122.1746721,-28.22233783,34.681713,0.1,305.96753,1.59305E+12,,,,
Fix,GT,37.4806161,-122.1749899,-27.95992876,34.68565,0.1,306.08267,1.59305E+12,,,,
Fix,GT,37.4807999,-122.1753068,-27.87939246,34.658806,0.1,306.19974,1.59305E+12,,,,
Fix,GT,37.4809842,-122.1756229,-27.78452686,34.625072,0.1,306.38052,1.59305E+12,,,,
Fix,GT,37.4811688,-122.175938,-27.7257063,34.53701,0.1,306.46875,1.59305E+12,,,,
Fix,GT,37.4813524,-122.1762523,-27.6379339,34.380524,0.1,306.2703,1.59305E+12,,,,
Fix,GT,37.4815347,-122.1765655,-27.58657269,34.248894,0.1,306.23892,1.59305E+12,,,,
Fix,GT,37.4817156,-122.176878,-27.50634393,34.068806,0.1,305.89774,1.59305E+12,,,,
Fix,GT,37.4818937,-122.1771904,-27.45216274,33.883286,0.1,305.44064,1.59305E+12,,,,
Fix,GT,37.4820684,-122.1775037,-27.39843845,33.75885,0.1,304.559,1.59305E+12,,,,
Fix,GT,37.4822379,-122.1778196,-27.40839096,33.62248,0.1,303.50754,1.59305E+12,,,,
Fix,GT,37.4824026,-122.1781387,-27.35447962,33.622646,0.1,302.46008,1.59305E+12,,,,
Fix,GT,37.4825624,-122.1784619,-27.311755,33.640144,0.1,301.33258,1.59305E+12,,,,
Fix,GT,37.4827174,-122.1787884,-27.2581151,33.565483,0.1,300.3024,1.59305E+12,,,,
Fix,GT,37.4828666,-122.1791177,-27.19239054,33.439537,0.1,298.98184,1.59305E+12,,,,
Fix,GT,37.4830091,-122.1794501,-27.13739186,33.311104,0.1,297.66446,1.59305E+12,,,,
Fix,GT,37.4831451,-122.1797848,-27.12484664,33.16172,0.1,296.7124,1.59305E+12,,,,
Fix,GT,37.4832782,-122.1801199,-27.11884771,33.058815,0.1,296.4601,1.59305E+12,,,,
Fix,GT,37.4834097,-122.1804552,-27.11930539,33.065598,0.1,295.9833,1.59305E+12,,,,
Fix,GT,37.4835381,-122.1807934,-27.14216329,33.2251,0.1,295.11664,1.59305E+12,,,,
Fix,GT,37.4836628,-122.1811359,-27.02811639,33.33608,0.1,294.02274,1.59305E+12,,,,
Fix,GT,37.4837827,-122.1814812,-26.95916353,33.271893,0.1,293.23898,1.59305E+12,,,,
Fix,GT,37.483898,-122.1818277,-26.97884753,33.143948,0.1,292.26495,1.59305E+12,,,,
Fix,GT,37.4840091,-122.1821749,-27.00843824,33.052467,0.1,291.66562,1.59305E+12,,,,
Fix,GT,37.4841175,-122.1825224,-27.05002889,32.96466,0.1,291.2327,1.59305E+12,,,,
Fix,GT,37.4842233,-122.1828705,-27.07052697,32.926357,0.1,290.57303,1.59305E+12,,,,
Fix,GT,37.4843239,-122.1832206,-27.11553095,32.897438,0.1,289.0761,1.59305E+12,,,,
Fix,GT,37.4844172,-122.1835735,-27.20830412,32.88334,0.1,287.99344,1.59305E+12,,,,
Fix,GT,37.4845069,-122.1839279,-27.33894239,32.903664,0.1,287.52133,1.59305E+12,,,,
Fix,GT,37.484596,-122.1842832,-27.44607698,32.99333,0.1,287.6325,1.59305E+12,,,,
Fix,GT,37.4846852,-122.1846403,-27.49766626,33.203823,0.1,287.40112,1.59305E+12,,,,
Fix,GT,37.4847737,-122.185,-27.54843804,33.376392,0.1,287.00253,1.59305E+12,,,,
Fix,GT,37.4848601,-122.1853621,-27.57462097,33.466675,0.1,286.47067,1.59305E+12,,,,
Fix,GT,37.4849437,-122.1857265,-27.61448571,33.6259,0.1,285.72864,1.59305E+12,,,,
Fix,GT,37.4850239,-122.1860942,-27.66139122,33.8272,0.1,285.00687,1.59305E+12,,,,
Fix,GT,37.4851009,-122.1864656,-27.68048568,34.048912,0.1,284.29675,1.59305E+12,,,,
Fix,GT,37.485175,-122.1868409,-27.74221025,34.34223,0.1,283.66568,1.59305E+12,,,,
Fix,GT,37.4852467,-122.1872204,-27.77543922,34.652866,0.1,283.13647,1.59305E+12,,,,
Fix,GT,37.4853158,-122.1876041,-27.80139257,34.92425,0.1,282.47766,1.59305E+12,,,,
Fix,GT,37.4853817,-122.1879918,-27.83362014,35.19385,0.1,281.72772,1.59305E+12,,,,
Fix,GT,37.4854441,-122.1883836,-27.85825631,35.474304,0.1,280.97275,1.59305E+12,,,,
Fix,GT,37.4855026,-122.1887795,-27.9138954,35.73169,0.1,280.20084,1.59305E+12,,,,
Fix,GT,37.4855576,-122.189179,-27.93325711,35.9834,0.1,279.59232,1.59305E+12,,,,
Fix,GT,37.4856106,-122.1895819,-27.99702743,36.220562,0.1,279.25128,1.59305E+12,,,,
Fix,GT,37.4856618,-122.1899871,-28.06412219,36.349606,0.1,278.998,1.59305E+12,,,,
Fix,GT,37.4857136,-122.1903935,-28.18812244,36.46825,0.1,279.39105,1.59305E+12,,,,
Fix,GT,37.4857683,-122.1908008,-28.25861937,36.570232,0.1,279.8706,1.59305E+12,,,,
Fix,GT,37.4858249,-122.1912087,-28.31925756,36.689316,0.1,280.02957,1.59305E+12,,,,
Fix,GT,37.485882,-122.1916183,-28.38348638,36.863846,0.1,279.91724,1.59305E+12,,,,
Fix,GT,37.4859384,-122.1920301,-28.44907558,37.038788,0.1,279.66748,1.59305E+12,,,,
Fix,GT,37.4859935,-122.1924439,-28.50571328,37.178886,0.1,279.38507,1.59305E+12,,,,
Fix,GT,37.4860479,-122.1928594,-28.55671387,37.272213,0.1,279.31342,1.59305E+12,,,,
Fix,GT,37.486101,-122.1932759,-28.64294204,37.320206,0.1,279.0225,1.59305E+12,,,,
Fix,GT,37.4861534,-122.1936927,-28.67371417,37.307945,0.1,279.0222,1.59305E+12,,,,
Fix,GT,37.4862056,-122.1941091,-28.74125653,37.259216,0.1,278.9534,1.59305E+12,,,,
Fix,GT,37.4862573,-122.1945251,-28.77339273,37.206738,0.1,278.8944,1.59305E+12,,,,
Fix,GT,37.4863087,-122.1949405,-28.78016298,37.138638,0.1,278.82452,1.59305E+12,,,,
Fix,GT,37.4863599,-122.1953551,-28.79461944,37.07506,0.1,278.90085,1.59305E+12,,,,
Fix,GT,37.4864111,-122.1957688,-28.80525675,36.992477,0.1,278.8204,1.59305E+12,,,,
Fix,GT,37.4864617,-122.196182,-28.80243685,36.935905,0.1,278.77377,1.59305E+12,,,,
