$GPGGA,204922.00,3726.6463060,N,12213.9658880,W,1,0,0.0,11.1793,M,0.0000,M,0.0000,0000*53
$GPRMC,204922.00,A,3726.6463060,N,12213.9658880,W,0.0043,30.3124,190721,,,,A*53
$GPGGA,204923.00,3726.6463060,N,12213.9658880,W,1,0,0.0,11.1784,M,0.0000,M,0.0000,0000*54
$GPRMC,204923.00,A,3726.6463060,N,12213.9658880,W,0.0043,30.3126,190721,,,,A*50
$GPGGA,204924.00,3726.6463060,N,12213.9658880,W,1,0,0.0,11.1804,M,0.0000,M,0.0000,0000*54
$GPRMC,204924.00,A,3726.6463060,N,12213.9658880,W,0.0097,30.3122,190721,,,,A*5a
$GPGGA,204925.00,3726.6463060,N,12213.9658880,W,1,0,0.0,11.1843,M,0.0000,M,0.0000,0000*56
$GPRMC,204925.00,A,3726.6463060,N,12213.9658880,W,0.0136,30.4017,190721,,,,A*51
$GPGGA,204926.00,3726.6462340,N,12213.9659600,W,1,0,0.0,11.1894,M,0.0000,M,0.0000,0000*58
$GPRMC,204926.00,A,3726.6462340,N,12213.9659600,W,0.7452,29.3453,190721,,,,A*5e
$GPGGA,204927.00,3726.6460300,N,12213.9662960,W,1,0,0.0,11.1814,M,0.0000,M,0.0000,0000*56
$GPRMC,204927.00,A,3726.6460300,N,12213.9662960,W,1.5261,21.8654,190721,,,,A*5b
$GPGGA,204928.00,3726.6456400,N,12213.9667520,W,1,0,0.0,11.1654,M,0.0000,M,0.0000,0000*5c
$GPRMC,204928.00,A,3726.6456400,N,12213.9667520,W,2.0350,9.9439,190721,,,,A*6c
$GPGGA,204929.00,3726.6451420,N,12213.9671120,W,1,0,0.0,11.1434,M,0.0000,M,0.0000,0000*5f
$GPRMC,204929.00,A,3726.6451420,N,12213.9671120,W,1.6929,356.9909,190721,,,,A*6d
$GPGGA,204930.00,3726.6448420,N,12213.9672440,W,1,0,0.0,11.1354,M,0.0000,M,0.0000,0000*5e
$GPRMC,204930.00,A,3726.6448420,N,12213.9672440,W,0.4258,350.2213,190721,,,,A*6e
$GPGGA,204931.00,3726.6448240,N,12213.9672500,W,1,0,0.0,11.1374,M,0.0000,M,0.0000,0000*58
$GPRMC,204931.00,A,3726.6448240,N,12213.9672500,W,0.0326,349.6267,190721,,,,A*69
$GPGGA,204932.00,3726.6450460,N,12213.9673820,W,1,0,0.0,11.1393,M,0.0000,M,0.0000,0000*51
$GPRMC,204932.00,A,3726.6450460,N,12213.9673820,W,1.8559,346.4929,190721,,,,A*62
$GPGGA,204933.00,3726.6456880,N,12213.9682100,W,1,0,0.0,11.1753,M,0.0000,M,0.0000,0000*59
$GPRMC,204933.00,A,3726.6456880,N,12213.9682100,W,3.7725,327.6482,190721,,,,A*6f
$GPGGA,204934.00,3726.6461620,N,12213.9699260,W,1,0,0.0,11.1614,M,0.0000,M,0.0000,0000*53
$GPRMC,204934.00,A,3726.6461620,N,12213.9699260,W,5.3688,297.5075,190721,,,,A*66
$GPGGA,204935.00,3726.6459400,N,12213.9723260,W,1,0,0.0,11.1114,M,0.0000,M,0.0000,0000*5e
$GPRMC,204935.00,A,3726.6459400,N,12213.9723260,W,7.1467,266.2737,190721,,,,A*67
$GPGGA,204936.00,3726.6447340,N,12213.9746600,W,1,0,0.0,11.0184,M,0.0000,M,0.0000,0000*58
$GPRMC,204936.00,A,3726.6447340,N,12213.9746600,W,7.7650,237.1264,190721,,,,A*6d
$GPGGA,204937.00,3726.6430060,N,12213.9761720,W,1,0,0.0,10.9114,M,0.0000,M,0.0000,0000*5f
$GPRMC,204937.00,A,3726.6430060,N,12213.9761720,W,6.1407,215.7654,190721,,,,A*6d
$GPGGA,204938.00,3726.6418660,N,12213.9768680,W,1,0,0.0,10.8343,M,0.0000,M,0.0000,0000*5f
$GPRMC,204938.00,A,3726.6418660,N,12213.9768680,W,3.9052,209.0802,190721,,,,A*62
$GPGGA,204939.00,3726.6407800,N,12213.9775640,W,1,0,0.0,10.7914,M,0.0000,M,0.0000,0000*5f
$GPRMC,204939.00,A,3726.6407800,N,12213.9775640,W,4.7841,207.9541,190721,,,,A*6b
$GPGGA,204940.00,3726.6394180,N,12213.9784460,W,1,0,0.0,10.7094,M,0.0000,M,0.0000,0000*52
$GPRMC,204940.00,A,3726.6394180,N,12213.9784460,W,6.6112,207.2377,190721,,,,A*63
$GPGGA,204941.00,3726.6374560,N,12213.9796940,W,1,0,0.0,10.6374,M,0.0000,M,0.0000,0000*57
$GPRMC,204941.00,A,3726.6374560,N,12213.9796940,W,8.8262,207.0069,190721,,,,A*60
$GPGGA,204942.00,3726.6353020,N,12213.9811220,W,1,0,0.0,10.5634,M,0.0000,M,0.0000,0000*5f
$GPRMC,204942.00,A,3726.6353020,N,12213.9811220,W,8.4907,207.9888,190721,,,,A*60
$GPGGA,204943.00,3726.6334420,N,12213.9826100,W,1,0,0.0,10.5004,M,0.0000,M,0.0000,0000*5b
$GPRMC,204943.00,A,3726.6334420,N,12213.9826100,W,7.2671,213.0850,190721,,,,A*6f
$GPGGA,204944.00,3726.6321640,N,12213.9839420,W,1,0,0.0,10.4324,M,0.0000,M,0.0000,0000*55
$GPRMC,204944.00,A,3726.6321640,N,12213.9839420,W,4.6638,218.7957,190721,,,,A*61
$GPGGA,204945.00,3726.6314560,N,12213.9849920,W,1,0,0.0,10.3084,M,0.0000,M,0.0000,0000*57
$GPRMC,204945.00,A,3726.6314560,N,12213.9849920,W,4.0411,226.4088,190721,,,,A*67
$GPGGA,204946.00,3726.6310540,N,12213.9864200,W,1,0,0.0,10.1594,M,0.0000,M,0.0000,0000*52
$GPRMC,204946.00,A,3726.6310540,N,12213.9864200,W,5.0038,244.4094,190721,,,,A*63
$GPGGA,204947.00,3726.6311860,N,12213.9885020,W,1,0,0.0,10.1183,M,0.0000,M,0.0000,0000*50
$GPRMC,204947.00,A,3726.6311860,N,12213.9885020,W,7.2753,269.3708,190721,,,,A*63
$GPGGA,204948.00,3726.6320320,N,12213.9913880,W,1,0,0.0,10.0334,M,0.0000,M,0.0000,0000*51
$GPRMC,204948.00,A,3726.6320320,N,12213.9913880,W,10.8353,290.6779,190721,,,,A*50
$GPGGA,204949.00,3726.6336520,N,12213.9953540,W,1,0,0.0,9.8434,M,0.0000,M,0.0000,0000*63
$GPRMC,204949.00,A,3726.6336520,N,12213.9953540,W,14.7935,297.3137,190721,,,,A*5a
$GPGGA,204950.00,3726.6359080,N,12214.0002920,W,1,0,0.0,9.6044,M,0.0000,M,0.0000,0000*69
$GPRMC,204950.00,A,3726.6359080,N,12214.0002920,W,17.4623,300.7381,190721,,,,A*51
$GPGGA,204951.00,3726.6385960,N,12214.0057820,W,1,0,0.0,9.3834,M,0.0000,M,0.0000,0000*65
$GPRMC,204951.00,A,3726.6385960,N,12214.0057820,W,19.5135,301.6158,190721,,,,A*5e
$GPGGA,204952.00,3726.6415360,N,12214.0117340,W,1,0,0.0,9.1004,M,0.0000,M,0.0000,0000*63
$GPRMC,204952.00,A,3726.6415360,N,12214.0117340,W,20.3815,301.8967,190721,,,,A*5c
$GPGGA,204953.00,3726.6446200,N,12214.0178540,W,1,0,0.0,8.7954,M,0.0000,M,0.0000,0000*67
$GPRMC,204953.00,A,3726.6446200,N,12214.0178540,W,21.1584,302.4336,190721,,,,A*54
$GPGGA,204954.00,3726.6478120,N,12214.0241000,W,1,0,0.0,8.5824,M,0.0000,M,0.0000,0000*60
$GPRMC,204954.00,A,3726.6478120,N,12214.0241000,W,21.3831,302.8284,190721,,,,A*52
$GPGGA,204955.00,3726.6510880,N,12214.0303400,W,1,0,0.0,8.3564,M,0.0000,M,0.0000,0000*61
$GPRMC,204955.00,A,3726.6510880,N,12214.0303400,W,21.3812,303.6018,190721,,,,A*55
$GPGGA,204956.00,3726.6543160,N,12214.0364420,W,1,0,0.0,8.1304,M,0.0000,M,0.0000,0000*62
$GPRMC,204956.00,A,3726.6543160,N,12214.0364420,W,20.3444,303.3950,190721,,,,A*5a
$GPGGA,204957.00,3726.6572500,N,12214.0420220,W,1,0,0.0,7.9404,M,0.0000,M,0.0000,0000*62
$GPRMC,204957.00,A,3726.6572500,N,12214.0420220,W,17.9066,303.3416,190721,,,,A*5f
$GPGGA,204958.00,3726.6598000,N,12214.0468580,W,1,0,0.0,7.7564,M,0.0000,M,0.0000,0000*64
$GPRMC,204958.00,A,3726.6598000,N,12214.0468580,W,15.3170,303.4714,190721,,,,A*58
$GPGGA,204959.00,3726.6617020,N,12214.0508240,W,1,0,0.0,7.6174,M,0.0000,M,0.0000,0000*6b
$GPRMC,204959.00,A,3726.6617020,N,12214.0508240,W,10.8964,299.7818,190721,,,,A*52
$GPGGA,205000.00,3726.6628300,N,12214.0534340,W,1,0,0.0,7.5174,M,0.0000,M,0.0000,0000*6f
$GPRMC,205000.00,A,3726.6628300,N,12214.0534340,W,6.4890,298.5439,190721,,,,A*68
$GPGGA,205001.00,3726.6635020,N,12214.0549940,W,1,0,0.0,7.4664,M,0.0000,M,0.0000,0000*64
$GPRMC,205001.00,A,3726.6635020,N,12214.0549940,W,3.7666,298.4674,190721,,,,A*6f
$GPGGA,205002.00,3726.6638080,N,12214.0557140,W,1,0,0.0,7.4504,M,0.0000,M,0.0000,0000*62
$GPRMC,205002.00,A,3726.6638080,N,12214.0557140,W,0.8765,298.4747,190721,,,,A*63
$GPGGA,205003.00,3726.6638260,N,12214.0557560,W,1,0,0.0,7.4404,M,0.0000,M,0.0000,0000*68
$GPRMC,205003.00,A,3726.6638260,N,12214.0557560,W,0.0028,298.4759,190721,,,,A*61
$GPGGA,205004.00,3726.6638260,N,12214.0557560,W,1,0,0.0,7.4384,M,0.0000,M,0.0000,0000*60
$GPRMC,205004.00,A,3726.6638260,N,12214.0557560,W,0.0043,298.4766,190721,,,,A*67
$GPGGA,205005.00,3726.6638260,N,12214.0557560,W,1,0,0.0,7.4374,M,0.0000,M,0.0000,0000*6e
$GPRMC,205005.00,A,3726.6638260,N,12214.0557560,W,0.0043,298.4763,190721,,,,A*63
$GPGGA,205006.00,3726.6638260,N,12214.0557560,W,1,0,0.0,7.4373,M,0.0000,M,0.0000,0000*6a
$GPRMC,205006.00,A,3726.6638260,N,12214.0557560,W,0.0019,298.4736,190721,,,,A*6f
$GPGGA,205007.00,3726.6638260,N,12214.0557560,W,1,0,0.0,7.4373,M,0.0000,M,0.0000,0000*6b
$GPRMC,205007.00,A,3726.6638260,N,12214.0557560,W,0.0019,298.4736,190721,,,,A*6e
$GPGGA,205008.00,3726.6638260,N,12214.0557560,W,1,0,0.0,7.4384,M,0.0000,M,0.0000,0000*6c
$GPRMC,205008.00,A,3726.6638260,N,12214.0557560,W,0.0019,298.4737,190721,,,,A*60
$GPGGA,205009.00,3726.6638260,N,12214.0557620,W,1,0,0.0,7.4384,M,0.0000,M,0.0000,0000*6a
$GPRMC,205009.00,A,3726.6638260,N,12214.0557620,W,0.0000,298.4732,190721,,,,A*6b
$GPGGA,205010.00,3726.6638260,N,12214.0557620,W,1,0,0.0,7.4384,M,0.0000,M,0.0000,0000*62
$GPRMC,205010.00,A,3726.6638260,N,12214.0557620,W,0.0000,298.4735,190721,,,,A*64
$GPGGA,205011.00,3726.6638260,N,12214.0557620,W,1,0,0.0,7.4384,M,0.0000,M,0.0000,0000*63
$GPRMC,205011.00,A,3726.6638260,N,12214.0557620,W,0.0019,298.4737,190721,,,,A*6f
$GPGGA,205012.00,3726.6638260,N,12214.0557620,W,1,0,0.0,7.4384,M,0.0000,M,0.0000,0000*60
$GPRMC,205012.00,A,3726.6638260,N,12214.0557620,W,0.0019,298.4735,190721,,,,A*6e
$GPGGA,205013.00,3726.6638260,N,12214.0557620,W,1,0,0.0,7.4384,M,0.0000,M,0.0000,0000*61
$GPRMC,205013.00,A,3726.6638260,N,12214.0557620,W,0.0028,298.4738,190721,,,,A*60
$GPGGA,205014.00,3726.6638260,N,12214.0557620,W,1,0,0.0,7.4364,M,0.0000,M,0.0000,0000*68
$GPRMC,205014.00,A,3726.6638260,N,12214.0557620,W,0.1512,298.4748,190721,,,,A*6d
$GPGGA,205015.00,3726.6641080,N,12214.0564460,W,1,0,0.0,7.3984,M,0.0000,M,0.0000,0000*6e
$GPRMC,205015.00,A,3726.6641080,N,12214.0564460,W,5.0653,297.9846,190721,,,,A*69
$GPGGA,205016.00,3726.6649780,N,12214.0589600,W,1,0,0.0,7.2994,M,0.0000,M,0.0000,0000*65
$GPRMC,205016.00,A,3726.6649780,N,12214.0589600,W,10.1287,293.1052,190721,,,,A*5b
$GPGGA,205017.00,3726.6657160,N,12214.0628600,W,1,0,0.0,7.3773,M,0.0000,M,0.0000,0000*6d
$GPRMC,205017.00,A,3726.6657160,N,12214.0628600,W,12.6638,280.8374,190721,,,,A*5c
$GPGGA,205018.00,3726.6655660,N,12214.0677260,W,1,0,0.0,7.4933,M,0.0000,M,0.0000,0000*62
$GPRMC,205018.00,A,3726.6655660,N,12214.0677260,W,14.6638,262.9844,190721,,,,A*5d
$GPGGA,205019.00,3726.6639520,N,12214.0728200,W,1,0,0.0,7.6174,M,0.0000,M,0.0000,0000*6a
$GPRMC,205019.00,A,3726.6639520,N,12214.0728200,W,16.8693,242.6229,190721,,,,A*5d
$GPGGA,205020.00,3726.6606400,N,12214.0776260,W,1,0,0.0,7.6893,M,0.0000,M,0.0000,0000*62
$GPRMC,205020.00,A,3726.6606400,N,12214.0776260,W,19.0715,223.8138,190721,,,,A*57
$GPGGA,205021.00,3726.6560620,N,12214.0817840,W,1,0,0.0,7.8633,M,0.0000,M,0.0000,0000*6a
$GPRMC,205021.00,A,3726.6560620,N,12214.0817840,W,21.7392,213.4818,190721,,,,A*56
$GPGGA,205022.00,3726.6505240,N,12214.0860920,W,1,0,0.0,8.1443,M,0.0000,M,0.0000,0000*6c
$GPRMC,205022.00,A,3726.6505240,N,12214.0860920,W,25.0128,211.1816,190721,,,,A*5a
$GPGGA,205023.00,3726.6442180,N,12214.0905740,W,1,0,0.0,8.5173,M,0.0000,M,0.0000,0000*68
$GPRMC,205023.00,A,3726.6442180,N,12214.0905740,W,26.9806,208.5061,190721,,,,A*57
$GPGGA,205024.00,3726.6373420,N,12214.0950920,W,1,0,0.0,8.9852,M,0.0000,M,0.0000,0000*6b
$GPRMC,205024.00,A,3726.6373420,N,12214.0950920,W,28.9077,207.0849,190721,,,,A*5a
$GPGGA,205025.00,3726.6298600,N,12214.0998980,W,1,0,0.0,9.4153,M,0.0000,M,0.0000,0000*64
$GPRMC,205025.00,A,3726.6298600,N,12214.0998980,W,31.5006,207.0800,190721,,,,A*5e
$GPGGA,205026.00,3726.6218740,N,12214.1050520,W,1,0,0.0,9.7133,M,0.0000,M,0.0000,0000*65
$GPRMC,205026.00,A,3726.6218740,N,12214.1050520,W,33.2542,207.2342,190721,,,,A*55
$GPGGA,205027.00,3726.6134080,N,12214.1105840,W,1,0,0.0,9.8693,M,0.0000,M,0.0000,0000*6a
$GPRMC,205027.00,A,3726.6134080,N,12214.1105840,W,35.3301,207.6828,190721,,,,A*5d
$GPGGA,205028.00,3726.6045160,N,12214.1164760,W,1,0,0.0,9.9783,M,0.0000,M,0.0000,0000*66
$GPRMC,205028.00,A,3726.6045160,N,12214.1164760,W,36.8040,207.9257,190721,,,,A*53
$GPGGA,205029.00,3726.5955400,N,12214.1225120,W,1,0,0.0,10.1673,M,0.0000,M,0.0000,0000*55
$GPRMC,205029.00,A,3726.5955400,N,12214.1225120,W,36.3372,208.2741,190721,,,,A*51
$GPGGA,205030.00,3726.5867440,N,12214.1284640,W,1,0,0.0,10.3523,M,0.0000,M,0.0000,0000*57
$GPRMC,205030.00,A,3726.5867440,N,12214.1284640,W,35.5105,208.1823,190721,,,,A*58
$GPGGA,205031.00,3726.5781280,N,12214.1342540,W,1,0,0.0,10.6243,M,0.0000,M,0.0000,0000*57
$GPRMC,205031.00,A,3726.5781280,N,12214.1342540,W,34.9930,208.0667,190721,,,,A*50
$GPGGA,205032.00,3726.5695180,N,12214.1400020,W,1,0,0.0,10.9773,M,0.0000,M,0.0000,0000*58
$GPRMC,205032.00,A,3726.5695180,N,12214.1400020,W,35.0527,207.9039,190721,,,,A*5f
$GPGGA,205033.00,3726.5609020,N,12214.1456960,W,1,0,0.0,11.5982,M,0.0000,M,0.0000,0000*54
$GPRMC,205033.00,A,3726.5609020,N,12214.1456960,W,35.0560,207.5481,190721,,,,A*56
$GPGGA,205034.00,3726.5522320,N,12214.1513420,W,1,0,0.0,12.3262,M,0.0000,M,0.0000,0000*53
$GPRMC,205034.00,A,3726.5522320,N,12214.1513420,W,35.0182,207.3497,190721,,,,A*58
$GPGGA,205035.00,3726.5437180,N,12214.1568920,W,1,0,0.0,13.3272,M,0.0000,M,0.0000,0000*5e
$GPRMC,205035.00,A,3726.5437180,N,12214.1568920,W,33.9102,207.5464,190721,,,,A*58
$GPGGA,205036.00,3726.5355280,N,12214.1622740,W,1,0,0.0,14.3812,M,0.0000,M,0.0000,0000*53
$GPRMC,205036.00,A,3726.5355280,N,12214.1622740,W,32.5130,207.7404,190721,,,,A*56
$GPGGA,205037.00,3726.5277220,N,12214.1675240,W,1,0,0.0,15.2992,M,0.0000,M,0.0000,0000*57
$GPRMC,205037.00,A,3726.5277220,N,12214.1675240,W,31.3563,208.3834,190721,,,,A*58
$GPGGA,205038.00,3726.5201320,N,12214.1727320,W,1,0,0.0,16.0882,M,0.0000,M,0.0000,0000*58
$GPRMC,205038.00,A,3726.5201320,N,12214.1727320,W,31.0929,208.8087,190721,,,,A*5c
$GPGGA,205039.00,3726.5125720,N,12214.1780060,W,1,0,0.0,16.8442,M,0.0000,M,0.0000,0000*5a
$GPRMC,205039.00,A,3726.5125720,N,12214.1780060,W,31.0796,209.1241,190721,,,,A*5c
$GPGGA,205040.00,3726.5050420,N,12214.1833460,W,1,0,0.0,17.5562,M,0.0000,M,0.0000,0000*58
$GPRMC,205040.00,A,3726.5050420,N,12214.1833460,W,31.3627,209.5356,190721,,,,A*5a
$GPGGA,205041.00,3726.4972780,N,12214.1888180,W,1,0,0.0,18.2092,M,0.0000,M,0.0000,0000*51
$GPRMC,205041.00,A,3726.4972780,N,12214.1888180,W,32.7738,209.1510,190721,,,,A*59
$GPGGA,205042.00,3726.4891840,N,12214.1947160,W,1,0,0.0,18.9792,M,0.0000,M,0.0000,0000*5d
$GPRMC,205042.00,A,3726.4891840,N,12214.1947160,W,34.2959,211.2707,190721,,,,A*5d
$GPGGA,205043.00,3726.4811620,N,12214.2015200,W,1,0,0.0,19.8722,M,0.0000,M,0.0000,0000*5f
$GPRMC,205043.00,A,3726.4811620,N,12214.2015200,W,35.6719,216.0643,190721,,,,A*5f
$GPGGA,205044.00,3726.4732180,N,12214.2094100,W,1,0,0.0,20.8492,M,0.0000,M,0.0000,0000*53
$GPRMC,205044.00,A,3726.4732180,N,12214.2094100,W,37.3164,219.5780,190721,,,,A*5e
$GPGGA,205045.00,3726.4653340,N,12214.2183020,W,1,0,0.0,21.8502,M,0.0000,M,0.0000,0000*57
$GPRMC,205045.00,A,3726.4653340,N,12214.2183020,W,39.0068,223.4733,190721,,,,A*53
$GPGGA,205046.00,3726.4576180,N,12214.2282200,W,1,0,0.0,23.0402,M,0.0000,M,0.0000,0000*57
$GPRMC,205046.00,A,3726.4576180,N,12214.2282200,W,40.4468,227.5306,190721,,,,A*51
$GPGGA,205047.00,3726.4504300,N,12214.2390800,W,1,0,0.0,24.2511,M,0.0000,M,0.0000,0000*57
$GPRMC,205047.00,A,3726.4504300,N,12214.2390800,W,40.6053,232.6095,190721,,,,A*57
$GPGGA,205048.00,3726.4438840,N,12214.2506600,W,1,0,0.0,25.4441,M,0.0000,M,0.0000,0000*5d
$GPRMC,205048.00,A,3726.4438840,N,12214.2506600,W,40.8820,235.5934,190721,,,,A*5a
$GPGGA,205049.00,3726.4375840,N,12214.2625640,W,1,0,0.0,26.7162,M,0.0000,M,0.0000,0000*50
$GPRMC,205049.00,A,3726.4375840,N,12214.2625640,W,40.9923,236.8225,190721,,,,A*55
$GPGGA,205050.00,3726.4313140,N,12214.2744620,W,1,0,0.0,27.9381,M,0.0000,M,0.0000,0000*51
$GPRMC,205050.00,A,3726.4313140,N,12214.2744620,W,40.7576,235.6438,190721,,,,A*51
$GPGGA,205051.00,3726.4246660,N,12214.2859580,W,1,0,0.0,29.2812,M,0.0000,M,0.0000,0000*5a
$GPRMC,205051.00,A,3726.4246660,N,12214.2859580,W,40.6375,232.7343,190721,,,,A*57
$GPGGA,205052.00,3726.4176700,N,12214.2970700,W,1,0,0.0,30.4412,M,0.0000,M,0.0000,0000*5c
$GPRMC,205052.00,A,3726.4176700,N,12214.2970700,W,40.6491,231.1006,190721,,,,A*59
$GPGGA,205053.00,3726.4104640,N,12214.3080320,W,1,0,0.0,31.5242,M,0.0000,M,0.0000,0000*5f
$GPRMC,205053.00,A,3726.4104640,N,12214.3080320,W,40.8230,229.9311,190721,,,,A*5e
$GPGGA,205054.00,3726.4029880,N,12214.3188440,W,1,0,0.0,32.5592,M,0.0000,M,0.0000,0000*55
$GPRMC,205054.00,A,3726.4029880,N,12214.3188440,W,41.2825,228.4194,190721,,,,A*5b
$GPGGA,205055.00,3726.3951580,N,12214.3294820,W,1,0,0.0,33.6772,M,0.0000,M,0.0000,0000*52
$GPRMC,205055.00,A,3726.3951580,N,12214.3294820,W,41.5516,226.1794,190721,,,,A*55
$GPGGA,205056.00,3726.3870100,N,12214.3397360,W,1,0,0.0,34.6921,M,0.0000,M,0.0000,0000*5d
$GPRMC,205056.00,A,3726.3870100,N,12214.3397360,W,41.3786,224.2128,190721,,,,A*58
$GPGGA,205057.00,3726.3786580,N,12214.3496240,W,1,0,0.0,35.5962,M,0.0000,M,0.0000,0000*56
$GPRMC,205057.00,A,3726.3786580,N,12214.3496240,W,41.1039,222.4304,190721,,,,A*5b
$GPGGA,205058.00,3726.3701560,N,12214.3588760,W,1,0,0.0,36.8012,M,0.0000,M,0.0000,0000*51
$GPRMC,205058.00,A,3726.3701560,N,12214.3588760,W,39.7353,219.4720,190721,,,,A*50
$GPGGA,205059.00,3726.3616360,N,12214.3674320,W,1,0,0.0,37.9901,M,0.0000,M,0.0000,0000*5a
$GPRMC,205059.00,A,3726.3616360,N,12214.3674320,W,38.9548,218.5531,190721,,,,A*51
$GPGGA,205100.00,3726.3531340,N,12214.3756700,W,1,0,0.0,39.0012,M,0.0000,M,0.0000,0000*58
$GPRMC,205100.00,A,3726.3531340,N,12214.3756700,W,38.2800,216.7798,190721,,,,A*58
$GPGGA,205101.00,3726.3445240,N,12214.3834160,W,1,0,0.0,39.9592,M,0.0000,M,0.0000,0000*55
$GPRMC,205101.00,A,3726.3445240,N,12214.3834160,W,37.9818,214.8698,190721,,,,A*50
$GPGGA,205102.00,3726.3357880,N,12214.3907600,W,1,0,0.0,40.8352,M,0.0000,M,0.0000,0000*51
$GPRMC,205102.00,A,3726.3357880,N,12214.3907600,W,37.6293,213.0380,190721,,,,A*54
$GPGGA,205103.00,3726.3269560,N,12214.3977260,W,1,0,0.0,41.6712,M,0.0000,M,0.0000,0000*55
$GPRMC,205103.00,A,3726.3269560,N,12214.3977260,W,37.4581,211.5093,190721,,,,A*5f
$GPGGA,205104.00,3726.3179380,N,12214.4044040,W,1,0,0.0,42.2363,M,0.0000,M,0.0000,0000*53
$GPRMC,205104.00,A,3726.3179380,N,12214.4044040,W,37.9225,209.8839,190721,,,,A*54
$GPGGA,205105.00,3726.3086140,N,12214.4107940,W,1,0,0.0,42.7243,M,0.0000,M,0.0000,0000*54
$GPRMC,205105.00,A,3726.3086140,N,12214.4107940,W,38.4264,207.6819,190721,,,,A*50
$GPGGA,205106.00,3726.2989840,N,12214.4167820,W,1,0,0.0,43.1183,M,0.0000,M,0.0000,0000*50
$GPRMC,205106.00,A,3726.2989840,N,12214.4167820,W,38.8537,205.4260,190721,,,,A*55
$GPGGA,205107.00,3726.2890780,N,12214.4224100,W,1,0,0.0,43.4313,M,0.0000,M,0.0000,0000*5a
$GPRMC,205107.00,A,3726.2890780,N,12214.4224100,W,39.3508,203.6040,190721,,,,A*53
$GPGGA,205108.00,3726.2789140,N,12214.4277440,W,1,0,0.0,43.6143,M,0.0000,M,0.0000,0000*5a
$GPRMC,205108.00,A,3726.2789140,N,12214.4277440,W,39.8398,201.9528,190721,,,,A*54
$GPGGA,205109.00,3726.2685820,N,12214.4327960,W,1,0,0.0,43.7453,M,0.0000,M,0.0000,0000*57
$GPRMC,205109.00,A,3726.2685820,N,12214.4327960,W,39.7977,200.6990,190721,,,,A*59
$GPGGA,205110.00,3726.2582020,N,12214.4376320,W,1,0,0.0,43.8704,M,0.0000,M,0.0000,0000*57
$GPRMC,205110.00,A,3726.2582020,N,12214.4376320,W,39.8672,200.2298,190721,,,,A*55
$GPGGA,205111.00,3726.2478100,N,12214.4425520,W,1,0,0.0,44.0153,M,0.0000,M,0.0000,0000*5d
$GPRMC,205111.00,A,3726.2478100,N,12214.4425520,W,40.0357,201.1157,190721,,,,A*52
$GPGGA,205112.00,3726.2374720,N,12214.4477720,W,1,0,0.0,44.2963,M,0.0000,M,0.0000,0000*5d
$GPRMC,205112.00,A,3726.2374720,N,12214.4477720,W,40.1411,202.6018,190721,,,,A*51
$GPGGA,205113.00,3726.2272540,N,12214.4533160,W,1,0,0.0,44.7322,M,0.0000,M,0.0000,0000*56
$GPRMC,205113.00,A,3726.2272540,N,12214.4533160,W,39.7092,204.1628,190721,,,,A*53
$GPGGA,205114.00,3726.2174320,N,12214.4592680,W,1,0,0.0,45.2572,M,0.0000,M,0.0000,0000*51
$GPRMC,205114.00,A,3726.2174320,N,12214.4592680,W,38.8512,207.0969,190721,,,,A*58
$GPGGA,205115.00,3726.2081140,N,12214.4658440,W,1,0,0.0,45.8472,M,0.0000,M,0.0000,0000*5f
$GPRMC,205115.00,A,3726.2081140,N,12214.4658440,W,38.1329,211.4841,190721,,,,A*52
$GPGGA,205116.00,3726.1995880,N,12214.4733620,W,1,0,0.0,46.5982,M,0.0000,M,0.0000,0000*52
$GPRMC,205116.00,A,3726.1995880,N,12214.4733620,W,36.9395,218.0377,190721,,,,A*51
$GPGGA,205117.00,3726.1920820,N,12214.4817800,W,1,0,0.0,47.3522,M,0.0000,M,0.0000,0000*53
$GPRMC,205117.00,A,3726.1920820,N,12214.4817800,W,35.6480,224.3671,190721,,,,A*51
$GPGGA,205118.00,3726.1854100,N,12214.4906660,W,1,0,0.0,47.9262,M,0.0000,M,0.0000,0000*55
$GPRMC,205118.00,A,3726.1854100,N,12214.4906660,W,34.4294,227.9876,190721,,,,A*5e
$GPGGA,205119.00,3726.1793080,N,12214.4996060,W,1,0,0.0,48.5632,M,0.0000,M,0.0000,0000*54
$GPRMC,205119.00,A,3726.1793080,N,12214.4996060,W,33.0531,230.0804,190721,,,,A*5c
$GPGGA,205120.00,3726.1737460,N,12214.5083720,W,1,0,0.0,49.2762,M,0.0000,M,0.0000,0000*57
$GPRMC,205120.00,A,3726.1737460,N,12214.5083720,W,31.1412,232.5810,190721,,,,A*5c
$GPGGA,205121.00,3726.1688020,N,12214.5168260,W,1,0,0.0,49.9023,M,0.0000,M,0.0000,0000*5f
$GPRMC,205121.00,A,3726.1688020,N,12214.5168260,W,28.8824,234.3910,190721,,,,A*54
$GPGGA,205122.00,3726.1646680,N,12214.5246800,W,1,0,0.0,50.5182,M,0.0000,M,0.0000,0000*5f
$GPRMC,205122.00,A,3726.1646680,N,12214.5246800,W,24.9822,238.2056,190721,,,,A*57
$GPGGA,205123.00,3726.1616920,N,12214.5315260,W,1,0,0.0,50.9983,M,0.0000,M,0.0000,0000*50
$GPRMC,205123.00,A,3726.1616920,N,12214.5315260,W,19.5803,243.5484,190721,,,,A*5c
$GPGGA,205124.00,3726.1599700,N,12214.5369440,W,1,0,0.0,51.3273,M,0.0000,M,0.0000,0000*5f
$GPRMC,205124.00,A,3726.1599700,N,12214.5369440,W,14.0261,250.4398,190721,,,,A*53
$GPGGA,205125.00,3726.1591720,N,12214.5408140,W,1,0,0.0,51.5483,M,0.0000,M,0.0000,0000*5e
$GPRMC,205125.00,A,3726.1591720,N,12214.5408140,W,8.9694,256.6337,190721,,,,A*66
$GPGGA,205126.00,3726.1588720,N,12214.5431120,W,1,0,0.0,51.6823,M,0.0000,M,0.0000,0000*5c
$GPRMC,205126.00,A,3726.1588720,N,12214.5431120,W,4.6667,260.3819,190721,,,,A*69
$GPGGA,205127.00,3726.1587520,N,12214.5444620,W,1,0,0.0,51.7303,M,0.0000,M,0.0000,0000*5d
$GPRMC,205127.00,A,3726.1587520,N,12214.5444620,W,3.8571,262.4341,190721,,,,A*6e
$GPGGA,205128.00,3726.1586440,N,12214.5461780,W,1,0,0.0,51.7803,M,0.0000,M,0.0000,0000*53
$GPRMC,205128.00,A,3726.1586440,N,12214.5461780,W,7.0206,264.9110,190721,,,,A*6d
$GPGGA,205129.00,3726.1586020,N,12214.5494840,W,1,0,0.0,51.9093,M,0.0000,M,0.0000,0000*56
$GPRMC,205129.00,A,3726.1586020,N,12214.5494840,W,11.8489,269.4160,190721,,,,A*5e
$GPGGA,205130.00,3726.1588960,N,12214.5541700,W,1,0,0.0,52.1503,M,0.0000,M,0.0000,0000*58
$GPRMC,205130.00,A,3726.1588960,N,12214.5541700,W,14.8532,275.9931,190721,,,,A*5f
$GPGGA,205131.00,3726.1597660,N,12214.5595160,W,1,0,0.0,52.5593,M,0.0000,M,0.0000,0000*5c
$GPRMC,205131.00,A,3726.1597660,N,12214.5595160,W,16.5755,283.4383,190721,,,,A*5d
$GPGGA,205132.00,3726.1612120,N,12214.5654020,W,1,0,0.0,52.9293,M,0.0000,M,0.0000,0000*52
$GPRMC,205132.00,A,3726.1612120,N,12214.5654020,W,18.8257,288.1454,190721,,,,A*5f
$GPGGA,205133.00,3726.1630600,N,12214.5718880,W,1,0,0.0,53.3962,M,0.0000,M,0.0000,0000*53
$GPRMC,205133.00,A,3726.1630600,N,12214.5718880,W,20.7113,290.3739,190721,,,,A*54
$GPGGA,205134.00,3726.1653040,N,12214.5788360,W,1,0,0.0,53.9452,M,0.0000,M,0.0000,0000*5b
$GPRMC,205134.00,A,3726.1653040,N,12214.5788360,W,22.1389,292.6544,190721,,,,A*52
$GPGGA,205135.00,3726.1678480,N,12214.5860420,W,1,0,0.0,54.5572,M,0.0000,M,0.0000,0000*59
$GPRMC,205135.00,A,3726.1678480,N,12214.5860420,W,23.0365,294.5186,190721,,,,A*55
$GPGGA,205136.00,3726.1706140,N,12214.5933200,W,1,0,0.0,55.2432,M,0.0000,M,0.0000,0000*5b
$GPRMC,205136.00,A,3726.1706140,N,12214.5933200,W,22.9183,295.7599,190721,,,,A*5f
$GPGGA,205137.00,3726.1733620,N,12214.6003100,W,1,0,0.0,55.9142,M,0.0000,M,0.0000,0000*5e
$GPRMC,205137.00,A,3726.1733620,N,12214.6003100,W,21.6871,296.3419,190721,,,,A*55
$GPGGA,205138.00,3726.1760020,N,12214.6069700,W,1,0,0.0,56.5522,M,0.0000,M,0.0000,0000*56
$GPRMC,205138.00,A,3726.1760020,N,12214.6069700,W,21.1982,296.4324,190721,,,,A*54
$GPGGA,205139.00,3726.1786720,N,12214.6136060,W,1,0,0.0,57.1532,M,0.0000,M,0.0000,0000*56
$GPRMC,205139.00,A,3726.1786720,N,12214.6136060,W,21.5594,296.8710,190721,,,,A*50
$GPGGA,205140.00,3726.1815100,N,12214.6204220,W,1,0,0.0,57.8022,M,0.0000,M,0.0000,0000*50
$GPRMC,205140.00,A,3726.1815100,N,12214.6204220,W,22.6900,297.9540,190721,,,,A*5d
$GPGGA,205141.00,3726.1846240,N,12214.6275020,W,1,0,0.0,58.5112,M,0.0000,M,0.0000,0000*54
$GPRMC,205141.00,A,3726.1846240,N,12214.6275020,W,23.4882,299.3668,190721,,,,A*5c
$GPGGA,205142.00,3726.1879780,N,12214.6345940,W,1,0,0.0,59.2432,M,0.0000,M,0.0000,0000*5e
$GPRMC,205142.00,A,3726.1879780,N,12214.6345940,W,23.8742,301.2667,190721,,,,A*56
$GPGGA,205143.00,3726.1916500,N,12214.6416380,W,1,0,0.0,59.9732,M,0.0000,M,0.0000,0000*52
$GPRMC,205143.00,A,3726.1916500,N,12214.6416380,W,24.4405,304.2578,190721,,,,A*51
$GPGGA,205144.00,3726.1956820,N,12214.6486160,W,1,0,0.0,60.6932,M,0.0000,M,0.0000,0000*50
$GPRMC,205144.00,A,3726.1956820,N,12214.6486160,W,25.0235,306.7416,190721,,,,A*56
$GPGGA,205145.00,3726.2000140,N,12214.6555580,W,1,0,0.0,61.4862,M,0.0000,M,0.0000,0000*55
$GPRMC,205145.00,A,3726.2000140,N,12214.6555580,W,25.5857,308.8000,190721,,,,A*5d
$GPGGA,205146.00,3726.2046520,N,12214.6624340,W,1,0,0.0,62.2922,M,0.0000,M,0.0000,0000*59
$GPRMC,205146.00,A,3726.2046520,N,12214.6624340,W,26.0974,311.0502,190721,,,,A*50
$GPGGA,205147.00,3726.2095540,N,12214.6692620,W,1,0,0.0,63.1462,M,0.0000,M,0.0000,0000*55
$GPRMC,205147.00,A,3726.2095540,N,12214.6692620,W,26.6319,312.2592,190721,,,,A*58
$GPGGA,205148.00,3726.2146240,N,12214.6761620,W,1,0,0.0,64.0002,M,0.0000,M,0.0000,0000*5b
$GPRMC,205148.00,A,3726.2146240,N,12214.6761620,W,27.1015,312.7332,190721,,,,A*52
$GPGGA,205149.00,3726.2197660,N,12214.6831580,W,1,0,0.0,64.8082,M,0.0000,M,0.0000,0000*53
$GPRMC,205149.00,A,3726.2197660,N,12214.6831580,W,27.5553,312.4354,190721,,,,A*5a
$GPGGA,205150.00,3726.2249920,N,12214.6903640,W,1,0,0.0,65.5832,M,0.0000,M,0.0000,0000*50
$GPRMC,205150.00,A,3726.2249920,N,12214.6903640,W,28.3046,312.1401,190721,,,,A*5c
$GPGGA,205151.00,3726.2303740,N,12214.6977920,W,1,0,0.0,66.2652,M,0.0000,M,0.0000,0000*50
$GPRMC,205151.00,A,3726.2303740,N,12214.6977920,W,29.2249,312.3698,190721,,,,A*5d
$GPGGA,205152.00,3726.2359540,N,12214.7054240,W,1,0,0.0,66.9602,M,0.0000,M,0.0000,0000*54
$GPRMC,205152.00,A,3726.2359540,N,12214.7054240,W,30.2152,312.6750,190721,,,,A*56
$GPGGA,205153.00,3726.2417860,N,12214.7133080,W,1,0,0.0,67.6212,M,0.0000,M,0.0000,0000*52
$GPRMC,205153.00,A,3726.2417860,N,12214.7133080,W,31.4808,312.8492,190721,,,,A*59
$GPGGA,205154.00,3726.2478580,N,12214.7215220,W,1,0,0.0,68.3042,M,0.0000,M,0.0000,0000*5d
$GPRMC,205154.00,A,3726.2478580,N,12214.7215220,W,32.7655,312.8919,190721,,,,A*53
$GPGGA,205155.00,3726.2542360,N,12214.7299880,W,1,0,0.0,69.0132,M,0.0000,M,0.0000,0000*5c
$GPRMC,205155.00,A,3726.2542360,N,12214.7299880,W,33.9453,313.4885,190721,,,,A*54
$GPGGA,205156.00,3726.2607940,N,12214.7385560,W,1,0,0.0,69.7342,M,0.0000,M,0.0000,0000*58
$GPRMC,205156.00,A,3726.2607940,N,12214.7385560,W,34.1088,314.0449,190721,,,,A*50
$GPGGA,205157.00,3726.2674240,N,12214.7470580,W,1,0,0.0,70.4762,M,0.0000,M,0.0000,0000*58
$GPRMC,205157.00,A,3726.2674240,N,12214.7470580,W,34.0681,314.5295,190721,,,,A*51
$GPGGA,205158.00,3726.2740120,N,12214.7555660,W,1,0,0.0,71.2422,M,0.0000,M,0.0000,0000*5f
$GPRMC,205158.00,A,3726.2740120,N,12214.7555660,W,33.9355,313.5228,190721,,,,A*55
$GPGGA,205159.00,3726.2804620,N,12214.7643500,W,1,0,0.0,71.9902,M,0.0000,M,0.0000,0000*53
$GPRMC,205159.00,A,3726.2804620,N,12214.7643500,W,34.6291,312.1294,190721,,,,A*5e
$GPGGA,205200.00,3726.2870200,N,12214.7734160,W,1,0,0.0,72.7432,M,0.0000,M,0.0000,0000*59
$GPRMC,205200.00,A,3726.2870200,N,12214.7734160,W,35.7883,312.3315,190721,,,,A*54
$GPGGA,205201.00,3726.2939320,N,12214.7827220,W,1,0,0.0,73.5392,M,0.0000,M,0.0000,0000*53
$GPRMC,205201.00,A,3726.2939320,N,12214.7827220,W,36.9067,313.4801,190721,,,,A*57
$GPGGA,205202.00,3726.3011740,N,12214.7920940,W,1,0,0.0,74.3442,M,0.0000,M,0.0000,0000*50
$GPRMC,205202.00,A,3726.3011740,N,12214.7920940,W,38.0372,314.5613,190721,,,,A*54
$GPGGA,205203.00,3726.3086620,N,12214.8014600,W,1,0,0.0,75.1772,M,0.0000,M,0.0000,0000*51
$GPRMC,205203.00,A,3726.3086620,N,12214.8014600,W,37.8841,315.4919,190721,,,,A*5f
$GPGGA,205204.00,3726.3161920,N,12214.8106460,W,1,0,0.0,75.9352,M,0.0000,M,0.0000,0000*59
$GPRMC,205204.00,A,3726.3161920,N,12214.8106460,W,37.7184,315.8858,190721,,,,A*5e
$GPGGA,205205.00,3726.3237160,N,12214.8197720,W,1,0,0.0,76.6972,M,0.0000,M,0.0000,0000*5f
$GPRMC,205205.00,A,3726.3237160,N,12214.8197720,W,37.4341,315.8803,190721,,,,A*5a
$GPGGA,205206.00,3726.3311020,N,12214.8288020,W,1,0,0.0,77.4572,M,0.0000,M,0.0000,0000*59
$GPRMC,205206.00,A,3726.3311020,N,12214.8288020,W,36.9499,315.4549,190721,,,,A*52
$GPGGA,205207.00,3726.3384100,N,12214.8379040,W,1,0,0.0,78.2142,M,0.0000,M,0.0000,0000*50
$GPRMC,205207.00,A,3726.3384100,N,12214.8379040,W,37.1377,314.9532,190721,,,,A*5b
$GPGGA,205208.00,3726.3457420,N,12214.8471380,W,1,0,0.0,78.9802,M,0.0000,M,0.0000,0000*57
$GPRMC,205208.00,A,3726.3457420,N,12214.8471380,W,37.6807,314.7958,190721,,,,A*5f
$GPGGA,205209.00,3726.3532120,N,12214.8565940,W,1,0,0.0,79.7682,M,0.0000,M,0.0000,0000*5a
$GPRMC,205209.00,A,3726.3532120,N,12214.8565940,W,38.6380,314.6102,190721,,,,A*56
$GPGGA,205210.00,3726.3608380,N,12214.8662720,W,1,0,0.0,80.5772,M,0.0000,M,0.0000,0000*56
$GPRMC,205210.00,A,3726.3608380,N,12214.8662720,W,39.2923,314.5779,190721,,,,A*5f
$GPGGA,205211.00,3726.3685660,N,12214.8761120,W,1,0,0.0,81.3872,M,0.0000,M,0.0000,0000*55
$GPRMC,205211.00,A,3726.3685660,N,12214.8761120,W,39.8838,314.5381,190721,,,,A*56
$GPGGA,205212.00,3726.3763720,N,12214.8860420,W,1,0,0.0,82.2052,M,0.0000,M,0.0000,0000*59
$GPRMC,205212.00,A,3726.3763720,N,12214.8860420,W,40.0112,314.6305,190721,,,,A*5a
$GPGGA,205213.00,3726.3842020,N,12214.8959720,W,1,0,0.0,83.0302,M,0.0000,M,0.0000,0000*5e
$GPRMC,205213.00,A,3726.3842020,N,12214.8959720,W,40.0908,314.6341,190721,,,,A*5b
$GPGGA,205214.00,3726.3920500,N,12214.9059740,W,1,0,0.0,83.8502,M,0.0000,M,0.0000,0000*5b
$GPRMC,205214.00,A,3726.3920500,N,12214.9059740,W,40.3801,314.2939,190721,,,,A*5a
$GPGGA,205215.00,3726.3998920,N,12214.9161140,W,1,0,0.0,84.6882,M,0.0000,M,0.0000,0000*57
$GPRMC,205215.00,A,3726.3998920,N,12214.9161140,W,40.6028,314.0411,190721,,,,A*59
$GPGGA,205216.00,3726.4077520,N,12214.9263080,W,1,0,0.0,85.5572,M,0.0000,M,0.0000,0000*5b
$GPRMC,205216.00,A,3726.4077520,N,12214.9263080,W,40.6770,313.9343,190721,,,,A*51
$GPGGA,205217.00,3726.4156180,N,12214.9365860,W,1,0,0.0,86.4272,M,0.0000,M,0.0000,0000*52
$GPRMC,205217.00,A,3726.4156180,N,12214.9365860,W,41.0554,313.6635,190721,,,,A*55
$GPGGA,205218.00,3726.4235080,N,12214.9469660,W,1,0,0.0,87.2812,M,0.0000,M,0.0000,0000*54
$GPRMC,205218.00,A,3726.4235080,N,12214.9469660,W,41.1598,313.5596,190721,,,,A*50
$GPGGA,205219.00,3726.4314040,N,12214.9573460,W,1,0,0.0,88.1312,M,0.0000,M,0.0000,0000*54
$GPRMC,205219.00,A,3726.4314040,N,12214.9573460,W,41.0906,313.7110,190721,,,,A*55
$GPGGA,205220.00,3726.4393120,N,12214.9676900,W,1,0,0.0,88.9782,M,0.0000,M,0.0000,0000*5e
$GPRMC,205220.00,A,3726.4393120,N,12214.9676900,W,41.0593,313.8349,190721,,,,A*5b
$GPGGA,205221.00,3726.4472320,N,12214.9780160,W,1,0,0.0,89.8112,M,0.0000,M,0.0000,0000*5c
$GPRMC,205221.00,A,3726.4472320,N,12214.9780160,W,41.1162,313.8474,190721,,,,A*54
$GPGGA,205222.00,3726.4552120,N,12214.9883840,W,1,0,0.0,90.6422,M,0.0000,M,0.0000,0000*59
$GPRMC,205222.00,A,3726.4552120,N,12214.9883840,W,41.5627,314.0359,190721,,,,A*54
$GPGGA,205223.00,3726.4632940,N,12214.9988360,W,1,0,0.0,91.4942,M,0.0000,M,0.0000,0000*58
$GPRMC,205223.00,A,3726.4632940,N,12214.9988360,W,41.9480,314.0664,190721,,,,A*55
$GPGGA,205224.00,3726.4714540,N,12215.0094260,W,1,0,0.0,92.3482,M,0.0000,M,0.0000,0000*5e
$GPRMC,205224.00,A,3726.4714540,N,12215.0094260,W,42.4555,313.9436,190721,,,,A*5a
$GPGGA,205225.00,3726.4797040,N,12215.0201240,W,1,0,0.0,93.2182,M,0.0000,M,0.0000,0000*58
$GPRMC,205225.00,A,3726.4797040,N,12215.0201240,W,42.9095,314.0190,190721,,,,A*5a
$GPGGA,205226.00,3726.4880320,N,12215.0309540,W,1,0,0.0,94.1641,M,0.0000,M,0.0000,0000*55
$GPRMC,205226.00,A,3726.4880320,N,12215.0309540,W,43.3159,313.8584,190721,,,,A*5f
$GPGGA,205227.00,3726.4964140,N,12215.0418920,W,1,0,0.0,95.1711,M,0.0000,M,0.0000,0000*53
$GPRMC,205227.00,A,3726.4964140,N,12215.0418920,W,43.6812,313.8326,190721,,,,A*51
$GPGGA,205228.00,3726.5048440,N,12215.0529380,W,1,0,0.0,96.2051,M,0.0000,M,0.0000,0000*5f
$GPRMC,205228.00,A,3726.5048440,N,12215.0529380,W,44.0415,313.7710,190721,,,,A*5a
$GPGGA,205229.00,3726.5133580,N,12215.0640680,W,1,0,0.0,97.2461,M,0.0000,M,0.0000,0000*51
$GPRMC,205229.00,A,3726.5133580,N,12215.0640680,W,44.3440,313.8899,190721,,,,A*50
$GPGGA,205230.00,3726.5218780,N,12215.0752460,W,1,0,0.0,98.3001,M,0.0000,M,0.0000,0000*53
$GPRMC,205230.00,A,3726.5218780,N,12215.0752460,W,44.2671,313.6033,190721,,,,A*59
$GPGGA,205231.00,3726.5302720,N,12215.0864960,W,1,0,0.0,99.2791,M,0.0000,M,0.0000,0000*5b
$GPRMC,205231.00,A,3726.5302720,N,12215.0864960,W,44.0877,312.5775,190721,,,,A*52
$GPGGA,205232.00,3726.5384320,N,12215.0979560,W,1,0,0.0,100.2202,M,0.0000,M,0.0000,0000*6d
$GPRMC,205232.00,A,3726.5384320,N,12215.0979560,W,43.9736,311.0997,190721,,,,A*5a
$GPGGA,205233.00,3726.5463220,N,12215.1096620,W,1,0,0.0,101.1152,M,0.0000,M,0.0000,0000*69
$GPRMC,205233.00,A,3726.5463220,N,12215.1096620,W,43.9168,309.6122,190721,,,,A*5e
$GPGGA,205234.00,3726.5539840,N,12215.1215780,W,1,0,0.0,102.0272,M,0.0000,M,0.0000,0000*6d
$GPRMC,205234.00,A,3726.5539840,N,12215.1215780,W,43.8119,308.2953,190721,,,,A*55
$GPGGA,205235.00,3726.5613580,N,12215.1337160,W,1,0,0.0,102.9112,M,0.0000,M,0.0000,0000*63
$GPRMC,205235.00,A,3726.5613580,N,12215.1337160,W,43.6750,306.5851,190721,,,,A*58
$GPGGA,205236.00,3726.5684440,N,12215.1460760,W,1,0,0.0,103.7972,M,0.0000,M,0.0000,0000*61
$GPRMC,205236.00,A,3726.5684440,N,12215.1460760,W,43.5723,305.0026,190721,,,,A*52
$GPGGA,205237.00,3726.5752540,N,12215.1586340,W,1,0,0.0,104.6542,M,0.0000,M,0.0000,0000*6d
$GPRMC,205237.00,A,3726.5752540,N,12215.1586340,W,43.4800,303.5854,190721,,,,A*56
$GPGGA,205238.00,3726.5817880,N,12215.1713720,W,1,0,0.0,105.5432,M,0.0000,M,0.0000,0000*65
$GPRMC,205238.00,A,3726.5817880,N,12215.1713720,W,43.3883,302.1661,190721,,,,A*5b
$GPGGA,205239.00,3726.5880700,N,12215.1842900,W,1,0,0.0,106.4132,M,0.0000,M,0.0000,0000*6d
$GPRMC,205239.00,A,3726.5880700,N,12215.1842900,W,43.2958,300.7534,190721,,,,A*55
$GPGGA,205240.00,3726.5941000,N,12215.1973460,W,1,0,0.0,107.2852,M,0.0000,M,0.0000,0000*68
$GPRMC,205240.00,A,3726.5941000,N,12215.1973460,W,43.2715,299.6089,190721,,,,A*5c
$GPGGA,205241.00,3726.5999260,N,12215.2105640,W,1,0,0.0,108.1472,M,0.0000,M,0.0000,0000*60
$GPRMC,205241.00,A,3726.5999260,N,12215.2105640,W,43.2744,298.4223,190721,,,,A*53
$GPGGA,205242.00,3726.6055120,N,12215.2239380,W,1,0,0.0,109.0271,M,0.0000,M,0.0000,0000*6e
$GPRMC,205242.00,A,3726.6055120,N,12215.2239380,W,43.2834,297.0441,190721,,,,A*59
$GPGGA,205243.00,3726.6108400,N,12215.2374860,W,1,0,0.0,109.9151,M,0.0000,M,0.0000,0000*64
$GPRMC,205243.00,A,3726.6108400,N,12215.2374860,W,43.2769,295.6072,190721,,,,A*5c
$GPGGA,205244.00,3726.6158800,N,12215.2511660,W,1,0,0.0,110.7982,M,0.0000,M,0.0000,0000*61
$GPRMC,205244.00,A,3726.6158800,N,12215.2511660,W,43.0920,294.2477,190721,,,,A*5c
$GPGGA,205245.00,3726.6206380,N,12215.2649240,W,1,0,0.0,111.6732,M,0.0000,M,0.0000,0000*66
$GPRMC,205245.00,A,3726.6206380,N,12215.2649240,W,42.8874,292.7781,190721,,,,A*5e
$GPGGA,205246.00,3726.6250960,N,12215.2787720,W,1,0,0.0,112.5332,M,0.0000,M,0.0000,0000*66
$GPRMC,205246.00,A,3726.6250960,N,12215.2787720,W,42.7394,291.3052,190721,,,,A*5e
$GPGGA,205247.00,3726.6292600,N,12215.2927580,W,1,0,0.0,113.3952,M,0.0000,M,0.0000,0000*67
$GPRMC,205247.00,A,3726.6292600,N,12215.2927580,W,42.7230,289.8953,190721,,,,A*51
$GPGGA,205248.00,3726.6331300,N,12215.3066900,W,1,0,0.0,114.2402,M,0.0000,M,0.0000,0000*62
$GPRMC,205248.00,A,3726.6331300,N,12215.3066900,W,41.8936,288.7546,190721,,,,A*5d
$GPGGA,205249.00,3726.6367540,N,12215.3205740,W,1,0,0.0,115.1072,M,0.0000,M,0.0000,0000*6e
$GPRMC,205249.00,A,3726.6367540,N,12215.3205740,W,41.9103,287.6292,190721,,,,A*5f
$GPGGA,205250.00,3726.6401440,N,12215.3345540,W,1,0,0.0,115.9462,M,0.0000,M,0.0000,0000*6a
$GPRMC,205250.00,A,3726.6401440,N,12215.3345540,W,41.8140,286.3712,190721,,,,A*59
$GPGGA,205251.00,3726.6432640,N,12215.3485760,W,1,0,0.0,116.8002,M,0.0000,M,0.0000,0000*62
$GPRMC,205251.00,A,3726.6432640,N,12215.3485760,W,41.6353,284.9727,190721,,,,A*51
$GPGGA,205252.00,3726.6460900,N,12215.3626220,W,1,0,0.0,117.6442,M,0.0000,M,0.0000,0000*68
$GPRMC,205252.00,A,3726.6460900,N,12215.3626220,W,41.4452,283.5664,190721,,,,A*5d
$GPGGA,205253.00,3726.6486400,N,12215.3767040,W,1,0,0.0,118.4512,M,0.0000,M,0.0000,0000*65
$GPRMC,205253.00,A,3726.6486400,N,12215.3767040,W,41.2818,282.1739,190721,,,,A*51
$GPGGA,205254.00,3726.6509020,N,12215.3907980,W,1,0,0.0,119.2432,M,0.0000,M,0.0000,0000*6b
$GPRMC,205254.00,A,3726.6509020,N,12215.3907980,W,41.1381,280.8898,190721,,,,A*5c
$GPGGA,205255.00,3726.6529180,N,12215.4048980,W,1,0,0.0,119.9692,M,0.0000,M,0.0000,0000*65
$GPRMC,205255.00,A,3726.6529180,N,12215.4048980,W,41.0072,279.6976,190721,,,,A*56
$GPGGA,205256.00,3726.6547120,N,12215.4190160,W,1,0,0.0,120.6532,M,0.0000,M,0.0000,0000*6a
$GPRMC,205256.00,A,3726.6547120,N,12215.4190160,W,40.9514,278.6000,190721,,,,A*51
$GPGGA,205257.00,3726.6562780,N,12215.4331820,W,1,0,0.0,121.3172,M,0.0000,M,0.0000,0000*60
$GPRMC,205257.00,A,3726.6562780,N,12215.4331820,W,40.9916,277.3214,190721,,,,A*5c
$GPGGA,205258.00,3726.6575560,N,12215.4473840,W,1,0,0.0,121.9532,M,0.0000,M,0.0000,0000*68
$GPRMC,205258.00,A,3726.6575560,N,12215.4473840,W,40.9586,275.8715,190721,,,,A*56
$GPGGA,205259.00,3726.6585580,N,12215.4616220,W,1,0,0.0,122.5702,M,0.0000,M,0.0000,0000*6b
$GPRMC,205259.00,A,3726.6585580,N,12215.4616220,W,40.9666,274.4135,190721,,,,A*5f
$GPGGA,205300.00,3726.6592780,N,12215.4759020,W,1,0,0.0,123.1262,M,0.0000,M,0.0000,0000*6c
$GPRMC,205300.00,A,3726.6592780,N,12215.4759020,W,41.0699,273.0423,190721,,,,A*57
$GPGGA,205301.00,3726.6597340,N,12215.4902420,W,1,0,0.0,123.6452,M,0.0000,M,0.0000,0000*66
$GPRMC,205301.00,A,3726.6597340,N,12215.4902420,W,41.1863,271.7172,190721,,,,A*51
$GPGGA,205302.00,3726.6599380,N,12215.5046300,W,1,0,0.0,124.1422,M,0.0000,M,0.0000,0000*6d
$GPRMC,205302.00,A,3726.6599380,N,12215.5046300,W,41.3259,270.4621,190721,,,,A*5f
$GPGGA,205303.00,3726.6598660,N,12215.5190900,W,1,0,0.0,124.6103,M,0.0000,M,0.0000,0000*67
$GPRMC,205303.00,A,3726.6598660,N,12215.5190900,W,41.5659,269.0411,190721,,,,A*5b
$GPGGA,205304.00,3726.6595060,N,12215.5336400,W,1,0,0.0,125.0133,M,0.0000,M,0.0000,0000*6c
$GPRMC,205304.00,A,3726.6595060,N,12215.5336400,W,41.8938,267.6495,190721,,,,A*55
$GPGGA,205305.00,3726.6589000,N,12215.5483040,W,1,0,0.0,125.3623,M,0.0000,M,0.0000,0000*6a
$GPRMC,205305.00,A,3726.6589000,N,12215.5483040,W,42.2987,266.5022,190721,,,,A*51
$GPGGA,205306.00,3726.6580540,N,12215.5631120,W,1,0,0.0,125.6343,M,0.0000,M,0.0000,0000*6b
$GPRMC,205306.00,A,3726.6580540,N,12215.5631120,W,42.7913,265.4714,190721,,,,A*5e
$GPGGA,205307.00,3726.6570040,N,12215.5780820,W,1,0,0.0,125.8693,M,0.0000,M,0.0000,0000*64
$GPRMC,205307.00,A,3726.6570040,N,12215.5780820,W,43.4727,264.5432,190721,,,,A*5b
$GPGGA,205308.00,3726.6557980,N,12215.5933220,W,1,0,0.0,126.0683,M,0.0000,M,0.0000,0000*6d
$GPRMC,205308.00,A,3726.6557980,N,12215.5933220,W,44.2300,264.3083,190721,,,,A*50
$GPGGA,205309.00,3726.6545800,N,12215.6087540,W,1,0,0.0,126.2213,M,0.0000,M,0.0000,0000*6d
$GPRMC,205309.00,A,3726.6545800,N,12215.6087540,W,44.6730,264.4182,190721,,,,A*5b
$GPGGA,205310.00,3726.6533680,N,12215.6243480,W,1,0,0.0,126.3393,M,0.0000,M,0.0000,0000*6d
$GPRMC,205310.00,A,3726.6533680,N,12215.6243480,W,45.1536,264.3586,190721,,,,A*56
$GPGGA,205311.00,3726.6521200,N,12215.6401640,W,1,0,0.0,126.4213,M,0.0000,M,0.0000,0000*63
$GPRMC,205311.00,A,3726.6521200,N,12215.6401640,W,46.0495,264.2013,190721,,,,A*54
$GPGGA,205312.00,3726.6508180,N,12215.6561840,W,1,0,0.0,126.5383,M,0.0000,M,0.0000,0000*60
$GPRMC,205312.00,A,3726.6508180,N,12215.6561840,W,45.9937,264.1670,190721,,,,A*51
$GPGGA,205313.00,3726.6495220,N,12215.6720360,W,1,0,0.0,126.6933,M,0.0000,M,0.0000,0000*61
$GPRMC,205313.00,A,3726.6495220,N,12215.6720360,W,45.3503,264.0443,190721,,,,A*50
$GPGGA,205314.00,3726.6482200,N,12215.6876420,W,1,0,0.0,126.8703,M,0.0000,M,0.0000,0000*6e
$GPRMC,205314.00,A,3726.6482200,N,12215.6876420,W,44.6216,263.9526,190721,,,,A*57
$GPGGA,205315.00,3726.6469240,N,12215.7029900,W,1,0,0.0,127.0433,M,0.0000,M,0.0000,0000*6b
$GPRMC,205315.00,A,3726.6469240,N,12215.7029900,W,43.8935,263.9452,190721,,,,A*5a
$GPGGA,205316.00,3726.6456880,N,12215.7181040,W,1,0,0.0,127.1473,M,0.0000,M,0.0000,0000*69
$GPRMC,205316.00,A,3726.6456880,N,12215.7181040,W,43.2053,264.2778,190721,,,,A*59
$GPGGA,205317.00,3726.6445240,N,12215.7329780,W,1,0,0.0,127.2943,M,0.0000,M,0.0000,0000*6a
$GPRMC,205317.00,A,3726.6445240,N,12215.7329780,W,42.5067,264.3291,190721,,,,A*55
$GPGGA,205318.00,3726.6433720,N,12215.7476120,W,1,0,0.0,127.4153,M,0.0000,M,0.0000,0000*69
$GPRMC,205318.00,A,3726.6433720,N,12215.7476120,W,41.8254,264.3419,190721,,,,A*53
$GPGGA,205319.00,3726.6422680,N,12215.7620180,W,1,0,0.0,127.5083,M,0.0000,M,0.0000,0000*65
$GPRMC,205319.00,A,3726.6422680,N,12215.7620180,W,41.1721,264.5863,190721,,,,A*5b
$GPGGA,205320.00,3726.6412180,N,12215.7762140,W,1,0,0.0,127.5583,M,0.0000,M,0.0000,0000*65
$GPRMC,205320.00,A,3726.6412180,N,12215.7762140,W,40.5512,264.7587,190721,,,,A*5c
$GPGGA,205321.00,3726.6402040,N,12215.7901880,W,1,0,0.0,127.6543,M,0.0000,M,0.0000,0000*69
$GPRMC,205321.00,A,3726.6402040,N,12215.7901880,W,39.9155,264.7642,190721,,,,A*50
$GPGGA,205322.00,3726.6391960,N,12215.8039400,W,1,0,0.0,127.7483,M,0.0000,M,0.0000,0000*69
$GPRMC,205322.00,A,3726.6391960,N,12215.8039400,W,39.2982,264.5900,190721,,,,A*5e
$GPGGA,205323.00,3726.6381520,N,12215.8175000,W,1,0,0.0,127.8063,M,0.0000,M,0.0000,0000*69
$GPRMC,205323.00,A,3726.6381520,N,12215.8175000,W,38.8092,264.3610,190721,,,,A*50
$GPGGA,205324.00,3726.6371260,N,12215.8308680,W,1,0,0.0,127.8733,M,0.0000,M,0.0000,0000*66
$GPRMC,205324.00,A,3726.6371260,N,12215.8308680,W,38.3663,264.6108,190721,,,,A*55
$GPGGA,205325.00,3726.6361960,N,12215.8442900,W,1,0,0.0,127.9103,M,0.0000,M,0.0000,0000*67
$GPRMC,205325.00,A,3726.6361960,N,12215.8442900,W,39.0551,265.3263,190721,,,,A*5a
$GPGGA,205326.00,3726.6354520,N,12215.8580180,W,1,0,0.0,127.9104,M,0.0000,M,0.0000,0000*62
$GPRMC,205326.00,A,3726.6354520,N,12215.8580180,W,39.8804,266.7529,190721,,,,A*53
$GPGGA,205327.00,3726.6350260,N,12215.8720580,W,1,0,0.0,127.8804,M,0.0000,M,0.0000,0000*60
$GPRMC,205327.00,A,3726.6350260,N,12215.8720580,W,40.7020,268.5905,190721,,,,A*58
$GPGGA,205328.00,3726.6348580,N,12215.8863380,W,1,0,0.0,127.8624,M,0.0000,M,0.0000,0000*6d
$GPRMC,205328.00,A,3726.6348580,N,12215.8863380,W,41.0262,269.5877,190721,,,,A*5e
$GPGGA,205329.00,3726.6349240,N,12215.9007080,W,1,0,0.0,127.7914,M,0.0000,M,0.0000,0000*6d
$GPRMC,205329.00,A,3726.6349240,N,12215.9007080,W,41.5278,270.7844,190721,,,,A*59
$GPGGA,205330.00,3726.6352180,N,12215.9153300,W,1,0,0.0,127.7134,M,0.0000,M,0.0000,0000*61
$GPRMC,205330.00,A,3726.6352180,N,12215.9153300,W,42.3616,271.8771,190721,,,,A*51
$GPGGA,205331.00,3726.6357460,N,12215.9302340,W,1,0,0.0,127.5924,M,0.0000,M,0.0000,0000*67
$GPRMC,205331.00,A,3726.6357460,N,12215.9302340,W,43.2124,273.0269,190721,,,,A*5c
$GPGGA,205332.00,3726.6365560,N,12215.9454080,W,1,0,0.0,127.4494,M,0.0000,M,0.0000,0000*68
$GPRMC,205332.00,A,3726.6365560,N,12215.9454080,W,44.0134,274.4593,190721,,,,A*51
$GPGGA,205333.00,3726.6376960,N,12215.9608280,W,1,0,0.0,127.2514,M,0.0000,M,0.0000,0000*61
$GPRMC,205333.00,A,3726.6376960,N,12215.9608280,W,44.8337,275.8756,190721,,,,A*58
$GPGGA,205334.00,3726.6391540,N,12215.9765120,W,1,0,0.0,127.0284,M,0.0000,M,0.0000,0000*6e
$GPRMC,205334.00,A,3726.6391540,N,12215.9765120,W,45.7233,277.2363,190721,,,,A*5a
$GPGGA,205335.00,3726.6409480,N,12215.9924600,W,1,0,0.0,126.7324,M,0.0000,M,0.0000,0000*67
$GPRMC,205335.00,A,3726.6409480,N,12215.9924600,W,46.7643,278.5049,190721,,,,A*5d
$GPGGA,205336.00,3726.6430360,N,12216.0087800,W,1,0,0.0,126.4274,M,0.0000,M,0.0000,0000*64
$GPRMC,205336.00,A,3726.6430360,N,12216.0087800,W,47.9430,279.5665,190721,,,,A*59
$GPGGA,205337.00,3726.6454360,N,12216.0254000,W,1,0,0.0,126.0814,M,0.0000,M,0.0000,0000*6b
$GPRMC,205337.00,A,3726.6454360,N,12216.0254000,W,48.9054,280.8362,190721,,,,A*5e
$GPGGA,205338.00,3726.6482080,N,12216.0422360,W,1,0,0.0,125.7344,M,0.0000,M,0.0000,0000*6a
$GPRMC,205338.00,A,3726.6482080,N,12216.0422360,W,49.7078,282.3895,190721,,,,A*5e
$GPGGA,205339.00,3726.6514120,N,12216.0592100,W,1,0,0.0,125.3714,M,0.0000,M,0.0000,0000*65
$GPRMC,205339.00,A,3726.6514120,N,12216.0592100,W,50.1987,284.1989,190721,,,,A*5b
$GPGGA,205340.00,3726.6550420,N,12216.0760700,W,1,0,0.0,125.0164,M,0.0000,M,0.0000,0000*65
$GPRMC,205340.00,A,3726.6550420,N,12216.0760700,W,49.9495,285.8408,190721,,,,A*5b
$GPGGA,205341.00,3726.6590140,N,12216.0926960,W,1,0,0.0,124.6325,M,0.0000,M,0.0000,0000*6f
$GPRMC,205341.00,A,3726.6590140,N,12216.0926960,W,49.5802,287.3595,190721,,,,A*53
$GPGGA,205342.00,3726.6633100,N,12216.1090580,W,1,0,0.0,124.2684,M,0.0000,M,0.0000,0000*6f
$GPRMC,205342.00,A,3726.6633100,N,12216.1090580,W,49.2181,288.8874,190721,,,,A*5a
$GPGGA,205343.00,3726.6679060,N,12216.1251500,W,1,0,0.0,123.8974,M,0.0000,M,0.0000,0000*6d
$GPRMC,205343.00,A,3726.6679060,N,12216.1251500,W,48.8476,290.3537,190721,,,,A*5b
$GPGGA,205344.00,3726.6727960,N,12216.1409840,W,1,0,0.0,123.5324,M,0.0000,M,0.0000,0000*69
$GPRMC,205344.00,A,3726.6727960,N,12216.1409840,W,48.5611,291.8246,190721,,,,A*58
$GPGGA,205345.00,3726.6779980,N,12216.1566560,W,1,0,0.0,123.1045,M,0.0000,M,0.0000,0000*6a
$GPRMC,205345.00,A,3726.6779980,N,12216.1566560,W,48.9298,293.2516,190721,,,,A*58
$GPGGA,205346.00,3726.6835360,N,12216.1723640,W,1,0,0.0,122.7054,M,0.0000,M,0.0000,0000*6f
$GPRMC,205346.00,A,3726.6835360,N,12216.1723640,W,49.5078,294.2817,190721,,,,A*50
$GPGGA,205347.00,3726.6893620,N,12216.1880600,W,1,0,0.0,122.3804,M,0.0000,M,0.0000,0000*68
$GPRMC,205347.00,A,3726.6893620,N,12216.1880600,W,49.7826,295.5308,190721,,,,A*5c
$GPGGA,205348.00,3726.6955060,N,12216.2036840,W,1,0,0.0,122.0254,M,0.0000,M,0.0000,0000*6e
$GPRMC,205348.00,A,3726.6955060,N,12216.2036840,W,50.1352,296.8314,190721,,,,A*53
$GPGGA,205349.00,3726.7019860,N,12216.2192360,W,1,0,0.0,121.7125,M,0.0000,M,0.0000,0000*60
$GPRMC,205349.00,A,3726.7019860,N,12216.2192360,W,50.5258,298.1613,190721,,,,A*56
$GPGGA,205350.00,3726.7088200,N,12216.2347040,W,1,0,0.0,121.3944,M,0.0000,M,0.0000,0000*6c
$GPRMC,205350.00,A,3726.7088200,N,12216.2347040,W,50.9096,299.7891,190721,,,,A*5e
$GPGGA,205351.00,3726.7160920,N,12216.2499800,W,1,0,0.0,121.1494,M,0.0000,M,0.0000,0000*69
$GPRMC,205351.00,A,3726.7160920,N,12216.2499800,W,51.1554,301.5321,190721,,,,A*59
$GPGGA,205352.00,3726.7237180,N,12216.2651000,W,1,0,0.0,120.9814,M,0.0000,M,0.0000,0000*6a
$GPRMC,205352.00,A,3726.7237180,N,12216.2651000,W,51.4494,303.0589,190721,,,,A*5c
$GPGGA,205353.00,3726.7317340,N,12216.2800160,W,1,0,0.0,120.8644,M,0.0000,M,0.0000,0000*61
$GPRMC,205353.00,A,3726.7317340,N,12216.2800160,W,51.7269,304.7381,190721,,,,A*54
$GPGGA,205354.00,3726.7401400,N,12216.2947100,W,1,0,0.0,120.7893,M,0.0000,M,0.0000,0000*6a
$GPRMC,205354.00,A,3726.7401400,N,12216.2947100,W,51.9579,306.4131,190721,,,,A*54
$GPGGA,205355.00,3726.7488880,N,12216.3091580,W,1,0,0.0,120.8083,M,0.0000,M,0.0000,0000*67
$GPRMC,205355.00,A,3726.7488880,N,12216.3091580,W,52.1150,307.8501,190721,,,,A*51
$GPGGA,205356.00,3726.7579120,N,12216.3233900,W,1,0,0.0,120.9453,M,0.0000,M,0.0000,0000*6e
$GPRMC,205356.00,A,3726.7579120,N,12216.3233900,W,52.1935,309.0927,190721,,,,A*55
$GPGGA,205357.00,3726.7672000,N,12216.3373880,W,1,0,0.0,121.1693,M,0.0000,M,0.0000,0000*6f
$GPRMC,205357.00,A,3726.7672000,N,12216.3373880,W,52.1633,310.2844,190721,,,,A*54
$GPGGA,205358.00,3726.7766560,N,12216.3511340,W,1,0,0.0,121.4383,M,0.0000,M,0.0000,0000*63
$GPRMC,205358.00,A,3726.7766560,N,12216.3511340,W,52.0183,311.1860,190721,,,,A*50
$GPGGA,205359.00,3726.7861780,N,12216.3647780,W,1,0,0.0,121.7933,M,0.0000,M,0.0000,0000*6c
$GPRMC,205359.00,A,3726.7861780,N,12216.3647780,W,51.8979,311.0559,190721,,,,A*5d
$GPGGA,205400.00,3726.7956580,N,12216.3783920,W,1,0,0.0,122.1673,M,0.0000,M,0.0000,0000*63
$GPRMC,205400.00,A,3726.7956580,N,12216.3783920,W,51.7570,311.1350,190721,,,,A*58
$GPGGA,205401.00,3726.8051380,N,12216.3919520,W,1,0,0.0,122.5462,M,0.0000,M,0.0000,0000*62
$GPRMC,205401.00,A,3726.8051380,N,12216.3919520,W,51.6056,311.2134,190721,,,,A*5c
$GPGGA,205402.00,3726.8145880,N,12216.4054520,W,1,0,0.0,123.0112,M,0.0000,M,0.0000,0000*6f
$GPRMC,205402.00,A,3726.8145880,N,12216.4054520,W,51.4236,311.2974,190721,,,,A*5d
$GPGGA,205403.00,3726.8240080,N,12216.4188920,W,1,0,0.0,123.5302,M,0.0000,M,0.0000,0000*6a
$GPRMC,205403.00,A,3726.8240080,N,12216.4188920,W,51.1763,311.1650,190721,,,,A*54
$GPGGA,205404.00,3726.8333440,N,12216.4323140,W,1,0,0.0,124.0902,M,0.0000,M,0.0000,0000*65
$GPRMC,205404.00,A,3726.8333440,N,12216.4323140,W,50.9125,310.9722,190721,,,,A*53
$GPGGA,205405.00,3726.8426200,N,12216.4456700,W,1,0,0.0,124.7202,M,0.0000,M,0.0000,0000*6e
$GPRMC,205405.00,A,3726.8426200,N,12216.4456700,W,50.6346,311.0970,190721,,,,A*5d
$GPGGA,205406.00,3726.8518660,N,12216.4589240,W,1,0,0.0,125.4132,M,0.0000,M,0.0000,0000*63
$GPRMC,205406.00,A,3726.8518660,N,12216.4589240,W,50.3727,311.1767,190721,,,,A*5d
$GPGGA,205407.00,3726.8610820,N,12216.4721000,W,1,0,0.0,126.1402,M,0.0000,M,0.0000,0000*65
$GPRMC,205407.00,A,3726.8610820,N,12216.4721000,W,50.1049,311.2178,190721,,,,A*5d
$GPGGA,205408.00,3726.8702500,N,12216.4852040,W,1,0,0.0,126.8542,M,0.0000,M,0.0000,0000*64
$GPRMC,205408.00,A,3726.8702500,N,12216.4852040,W,49.8623,311.2349,190721,,,,A*5b
$GPGGA,205409.00,3726.8793760,N,12216.4982420,W,1,0,0.0,127.5872,M,0.0000,M,0.0000,0000*65
$GPRMC,205409.00,A,3726.8793760,N,12216.4982420,W,49.5767,311.2352,190721,,,,A*5e
$GPGGA,205410.00,3726.8884540,N,12216.5111960,W,1,0,0.0,128.3252,M,0.0000,M,0.0000,0000*6f
$GPRMC,205410.00,A,3726.8884540,N,12216.5111960,W,49.4438,311.3562,190721,,,,A*59
$GPGGA,205411.00,3726.8975560,N,12216.5241380,W,1,0,0.0,129.0822,M,0.0000,M,0.0000,0000*6e
$GPRMC,205411.00,A,3726.8975560,N,12216.5241380,W,49.5194,311.3693,190721,,,,A*58
$GPGGA,205412.00,3726.9067180,N,12216.5370860,W,1,0,0.0,129.8082,M,0.0000,M,0.0000,0000*60
$GPRMC,205412.00,A,3726.9067180,N,12216.5370860,W,49.8251,311.7267,190721,,,,A*50
$GPGGA,205413.00,3726.9160060,N,12216.5500880,W,1,0,0.0,130.5201,M,0.0000,M,0.0000,0000*6b
$GPRMC,205413.00,A,3726.9160060,N,12216.5500880,W,50.2518,311.8296,190721,,,,A*5e
$GPGGA,205414.00,3726.9253600,N,12216.5631800,W,1,0,0.0,131.2542,M,0.0000,M,0.0000,0000*60
$GPRMC,205414.00,A,3726.9253600,N,12216.5631800,W,50.5010,311.7636,190721,,,,A*58
$GPGGA,205415.00,3726.9346720,N,12216.5763440,W,1,0,0.0,131.9992,M,0.0000,M,0.0000,0000*63
$GPRMC,205415.00,A,3726.9346720,N,12216.5763440,W,50.3373,311.0652,190721,,,,A*54
$GPGGA,205416.00,3726.9438100,N,12216.5896100,W,1,0,0.0,132.7382,M,0.0000,M,0.0000,0000*68
$GPRMC,205416.00,A,3726.9438100,N,12216.5896100,W,50.2071,310.4442,190721,,,,A*5f
$GPGGA,205417.00,3726.9528280,N,12216.6029900,W,1,0,0.0,133.4382,M,0.0000,M,0.0000,0000*67
$GPRMC,205417.00,A,3726.9528280,N,12216.6029900,W,50.3075,309.8888,190721,,,,A*59
$GPGGA,205418.00,3726.9618400,N,12216.6164720,W,1,0,0.0,134.1242,M,0.0000,M,0.0000,0000*6d
$GPRMC,205418.00,A,3726.9618400,N,12216.6164720,W,50.5396,309.9483,190721,,,,A*52
$GPGGA,205419.00,3726.9708640,N,12216.6299540,W,1,0,0.0,134.7722,M,0.0000,M,0.0000,0000*6a
$GPRMC,205419.00,A,3726.9708640,N,12216.6299540,W,50.1768,310.0004,190721,,,,A*5b
$GPGGA,205420.00,3726.9797320,N,12216.6432680,W,1,0,0.0,135.3432,M,0.0000,M,0.0000,0000*6a
$GPRMC,205420.00,A,3726.9797320,N,12216.6432680,W,49.3388,309.5708,190721,,,,A*5a
$GPGGA,205421.00,3726.9883900,N,12216.6564500,W,1,0,0.0,135.7722,M,0.0000,M,0.0000,0000*66
$GPRMC,205421.00,A,3726.9883900,N,12216.6564500,W,48.5703,309.4243,190721,,,,A*5b
$GPGGA,205422.00,3726.9969100,N,12216.6694520,W,1,0,0.0,136.2452,M,0.0000,M,0.0000,0000*64
$GPRMC,205422.00,A,3726.9969100,N,12216.6694520,W,47.9745,309.4274,190721,,,,A*5e
$GPGGA,205423.00,3727.0053760,N,12216.6823580,W,1,0,0.0,136.6502,M,0.0000,M,0.0000,0000*65
$GPRMC,205423.00,A,3727.0053760,N,12216.6823580,W,47.9190,309.4037,190721,,,,A*54
$GPGGA,205424.00,3727.0138540,N,12216.6953000,W,1,0,0.0,137.0193,M,0.0000,M,0.0000,0000*6e
$GPRMC,205424.00,A,3727.0138540,N,12216.6953000,W,48.0995,309.4323,190721,,,,A*59
$GPGGA,205425.00,3727.0223620,N,12216.7082120,W,1,0,0.0,137.4661,M,0.0000,M,0.0000,0000*6a
$GPRMC,205425.00,A,3727.0223620,N,12216.7082120,W,47.8922,309.5868,190721,,,,A*5d
$GPGGA,205426.00,3727.0308760,N,12216.7210220,W,1,0,0.0,137.7683,M,0.0000,M,0.0000,0000*61
$GPRMC,205426.00,A,3727.0308760,N,12216.7210220,W,47.7063,309.7835,190721,,,,A*50
$GPGGA,205427.00,3727.0393660,N,12216.7338080,W,1,0,0.0,138.0223,M,0.0000,M,0.0000,0000*66
$GPRMC,205427.00,A,3727.0393660,N,12216.7338080,W,47.7906,309.7870,190721,,,,A*5a
$GPGGA,205428.00,3727.0479040,N,12216.7466720,W,1,0,0.0,138.1933,M,0.0000,M,0.0000,0000*64
$GPRMC,205428.00,A,3727.0479040,N,12216.7466720,W,48.1320,309.5383,190721,,,,A*51
$GPGGA,205429.00,3727.0564540,N,12216.7596620,W,1,0,0.0,138.3353,M,0.0000,M,0.0000,0000*6c
$GPRMC,205429.00,A,3727.0564540,N,12216.7596620,W,48.4661,309.4982,190721,,,,A*58
$GPGGA,205430.00,3727.0650820,N,12216.7727240,W,1,0,0.0,138.3883,M,0.0000,M,0.0000,0000*67
$GPRMC,205430.00,A,3727.0650820,N,12216.7727240,W,48.8021,309.7413,190721,,,,A*5d
$GPGGA,205431.00,3727.0738000,N,12216.7858280,W,1,0,0.0,138.4073,M,0.0000,M,0.0000,0000*68
$GPRMC,205431.00,A,3727.0738000,N,12216.7858280,W,49.0338,309.7792,190721,,,,A*5a
$GPGGA,205432.00,3727.0825240,N,12216.7990160,W,1,0,0.0,138.4233,M,0.0000,M,0.0000,0000*60
$GPRMC,205432.00,A,3727.0825240,N,12216.7990160,W,49.1932,309.4439,190721,,,,A*54
$GPGGA,205433.00,3727.0912480,N,12216.8122760,W,1,0,0.0,138.4184,M,0.0000,M,0.0000,0000*69
$GPRMC,205433.00,A,3727.0912480,N,12216.8122760,W,49.3764,309.4184,190721,,,,A*5e
$GPGGA,205434.00,3727.0999600,N,12216.8256380,W,1,0,0.0,138.3834,M,0.0000,M,0.0000,0000*68
$GPRMC,205434.00,A,3727.0999600,N,12216.8256380,W,49.5777,308.9875,190721,,,,A*55
$GPGGA,205435.00,3727.1086000,N,12216.8390840,W,1,0,0.0,138.2704,M,0.0000,M,0.0000,0000*68
$GPRMC,205435.00,A,3727.1086000,N,12216.8390840,W,49.4180,308.7478,190721,,,,A*58
$GPGGA,205436.00,3727.1172400,N,12216.8525120,W,1,0,0.0,138.1574,M,0.0000,M,0.0000,0000*64
$GPRMC,205436.00,A,3727.1172400,N,12216.8525120,W,49.4957,308.9894,190721,,,,A*50
$GPGGA,205437.00,3727.1259640,N,12216.8658740,W,1,0,0.0,137.9764,M,0.0000,M,0.0000,0000*64
$GPRMC,205437.00,A,3727.1259640,N,12216.8658740,W,49.5667,309.4119,190721,,,,A*59
$GPGGA,205438.00,3727.1347780,N,12216.8792180,W,1,0,0.0,137.7164,M,0.0000,M,0.0000,0000*6d
$GPRMC,205438.00,A,3727.1347780,N,12216.8792180,W,49.8285,309.7581,190721,,,,A*5b
$GPGGA,205439.00,3727.1436820,N,12216.8926220,W,1,0,0.0,137.4424,M,0.0000,M,0.0000,0000*62
$GPRMC,205439.00,A,3727.1436820,N,12216.8926220,W,50.2062,309.6645,190721,,,,A*55
$GPGGA,205440.00,3727.1526220,N,12216.9062000,W,1,0,0.0,137.0884,M,0.0000,M,0.0000,0000*6c
$GPRMC,205440.00,A,3727.1526220,N,12216.9062000,W,50.7401,309.3506,190721,,,,A*5c
$GPGGA,205441.00,3727.1616220,N,12216.9199760,W,1,0,0.0,136.7194,M,0.0000,M,0.0000,0000*67
$GPRMC,205441.00,A,3727.1616220,N,12216.9199760,W,51.3292,309.1950,190721,,,,A*5d
$GPGGA,205442.00,3727.1707180,N,12216.9339260,W,1,0,0.0,136.3115,M,0.0000,M,0.0000,0000*6c
$GPRMC,205442.00,A,3727.1707180,N,12216.9339260,W,52.0447,309.3267,190721,,,,A*58
$GPGGA,205443.00,3727.1799880,N,12216.9480620,W,1,0,0.0,135.8245,M,0.0000,M,0.0000,0000*68
$GPRMC,205443.00,A,3727.1799880,N,12216.9480620,W,52.8635,309.4820,190721,,,,A*53
$GPGGA,205444.00,3727.1894320,N,12216.9623780,W,1,0,0.0,135.2745,M,0.0000,M,0.0000,0000*63
$GPRMC,205444.00,A,3727.1894320,N,12216.9623780,W,53.7498,309.5860,190721,,,,A*59
$GPGGA,205445.00,3727.1990680,N,12216.9769340,W,1,0,0.0,134.6765,M,0.0000,M,0.0000,0000*68
$GPRMC,205445.00,A,3727.1990680,N,12216.9769340,W,54.7202,309.6874,190721,,,,A*51
$GPGGA,205446.00,3727.2088780,N,12216.9917300,W,1,0,0.0,134.0575,M,0.0000,M,0.0000,0000*6f
$GPRMC,205446.00,A,3727.2088780,N,12216.9917300,W,55.5788,309.6753,190721,,,,A*5d
$GPGGA,205447.00,3727.2188080,N,12217.0067900,W,1,0,0.0,133.4285,M,0.0000,M,0.0000,0000*6f
$GPRMC,205447.00,A,3727.2188080,N,12217.0067900,W,56.4467,309.2808,190721,,,,A*53
$GPGGA,205448.00,3727.2288160,N,12217.0221380,W,1,0,0.0,132.7825,M,0.0000,M,0.0000,0000*6c
$GPRMC,205448.00,A,3727.2288160,N,12217.0221380,W,57.2400,309.2306,190721,,,,A*51
$GPGGA,205449.00,3727.2389320,N,12217.0376120,W,1,0,0.0,132.1545,M,0.0000,M,0.0000,0000*6d
$GPRMC,205449.00,A,3727.2389320,N,12217.0376120,W,57.2961,309.3393,190721,,,,A*5a
$GPGGA,205450.00,3727.2490060,N,12217.0530320,W,1,0,0.0,131.5055,M,0.0000,M,0.0000,0000*68
$GPRMC,205450.00,A,3727.2490060,N,12217.0530320,W,57.0170,309.4237,190721,,,,A*5e
$GPGGA,205451.00,3727.2591100,N,12217.0683320,W,1,0,0.0,130.8505,M,0.0000,M,0.0000,0000*69
$GPRMC,205451.00,A,3727.2591100,N,12217.0683320,W,56.9119,309.7132,190721,,,,A*51
$GPGGA,205452.00,3727.2692380,N,12217.0835900,W,1,0,0.0,130.2065,M,0.0000,M,0.0000,0000*62
$GPRMC,205452.00,A,3727.2692380,N,12217.0835900,W,56.9252,309.6980,190721,,,,A*5f
$GPGGA,205453.00,3727.2793720,N,12217.0988540,W,1,0,0.0,129.5485,M,0.0000,M,0.0000,0000*67
$GPRMC,205453.00,A,3727.2793720,N,12217.0988540,W,56.9650,309.6999,190721,,,,A*51
$GPGGA,205454.00,3727.2894760,N,12217.1141600,W,1,0,0.0,128.9185,M,0.0000,M,0.0000,0000*6f
$GPRMC,205454.00,A,3727.2894760,N,12217.1141600,W,56.9843,309.4153,190721,,,,A*51
$GPGGA,205455.00,3727.2995380,N,12217.1295440,W,1,0,0.0,128.2565,M,0.0000,M,0.0000,0000*69
$GPRMC,205455.00,A,3727.2995380,N,12217.1295440,W,57.0591,309.2648,190721,,,,A*57
$GPGGA,205456.00,3727.3096000,N,12217.1449640,W,1,0,0.0,127.6065,M,0.0000,M,0.0000,0000*61
$GPRMC,205456.00,A,3727.3096000,N,12217.1449640,W,57.1699,309.2520,190721,,,,A*56
$GPGGA,205457.00,3727.3197160,N,12217.1603780,W,1,0,0.0,126.9355,M,0.0000,M,0.0000,0000*68
$GPRMC,205457.00,A,3727.3197160,N,12217.1603780,W,57.2712,309.5342,190721,,,,A*55
$GPGGA,205458.00,3727.3298560,N,12217.1757920,W,1,0,0.0,126.2525,M,0.0000,M,0.0000,0000*61
$GPRMC,205458.00,A,3727.3298560,N,12217.1757920,W,57.3352,309.3138,190721,,,,A*5e
$GPGGA,205459.00,3727.3399720,N,12217.1912780,W,1,0,0.0,125.5206,M,0.0000,M,0.0000,0000*6f
$GPRMC,205459.00,A,3727.3399720,N,12217.1912780,W,57.4845,309.2971,190721,,,,A*5c
$GPGGA,205500.00,3727.3501840,N,12217.2067700,W,1,0,0.0,124.7356,M,0.0000,M,0.0000,0000*6b
$GPRMC,205500.00,A,3727.3501840,N,12217.2067700,W,57.7492,309.8651,190721,,,,A*5d
$GPGGA,205501.00,3727.3605940,N,12217.2221600,W,1,0,0.0,124.0075,M,0.0000,M,0.0000,0000*68
$GPRMC,205501.00,A,3727.3605940,N,12217.2221600,W,57.9901,310.6557,190721,,,,A*51
$GPGGA,205502.00,3727.3712680,N,12217.2373520,W,1,0,0.0,123.4645,M,0.0000,M,0.0000,0000*6e
$GPRMC,205502.00,A,3727.3712680,N,12217.2373520,W,58.0786,312.1735,190721,,,,A*55
$GPGGA,205503.00,3727.3823140,N,12217.2521240,W,1,0,0.0,123.0544,M,0.0000,M,0.0000,0000*6f
$GPRMC,205503.00,A,3727.3823140,N,12217.2521240,W,58.1680,314.1102,190721,,,,A*50
$GPGGA,205504.00,3727.3938400,N,12217.2663980,W,1,0,0.0,122.7774,M,0.0000,M,0.0000,0000*67
$GPRMC,205504.00,A,3727.3938400,N,12217.2663980,W,58.4046,316.4422,190721,,,,A*56
$GPGGA,205505.00,3727.4058460,N,12217.2801800,W,1,0,0.0,122.6184,M,0.0000,M,0.0000,0000*63
$GPRMC,205505.00,A,3727.4058460,N,12217.2801800,W,58.6427,318.5696,190721,,,,A*59
$GPGGA,205506.00,3727.4182480,N,12217.2935000,W,1,0,0.0,122.5743,M,0.0000,M,0.0000,0000*68
$GPRMC,205506.00,A,3727.4182480,N,12217.2935000,W,58.8479,320.2409,190721,,,,A*51
$GPGGA,205507.00,3727.4310100,N,12217.3063880,W,1,0,0.0,122.6803,M,0.0000,M,0.0000,0000*6e
$GPRMC,205507.00,A,3727.4310100,N,12217.3063880,W,58.8669,322.0333,190721,,,,A*52
$GPGGA,205508.00,3727.4440360,N,12217.3186580,W,1,0,0.0,122.9053,M,0.0000,M,0.0000,0000*62
$GPRMC,205508.00,A,3727.4440360,N,12217.3186580,W,58.3948,324.1864,190721,,,,A*55
$GPGGA,205509.00,3727.4573140,N,12217.3302860,W,1,0,0.0,123.2952,M,0.0000,M,0.0000,0000*6d
$GPRMC,205509.00,A,3727.4573140,N,12217.3302860,W,58.1243,325.9627,190721,,,,A*5a
