$GPGGA,003412.45,3725.6973400,N,12204.3516200,W,1,0,0.0,-28.2088,M,0.0000,M,0.0000,0000*7a
$GPRMC,003412.45,A,3725.6973400,N,12204.3516200,W,0.0156,238.6408,250620,,,,A*6d
$GPGGA,003413.45,3725.6973340,N,12204.3516200,W,1,0,0.0,-28.2088,M,0.0000,M,0.0000,0000*78
$GPRMC,003413.45,A,3725.6973340,N,12204.3516200,W,0.0263,238.6410,250620,,,,A*63
$GPGGA,003414.45,3725.6973280,N,12204.3516200,W,1,0,0.0,-28.2098,M,0.0000,M,0.0000,0000*73
$GPRMC,003414.45,A,3725.6973280,N,12204.3516200,W,0.0402,238.6422,250620,,,,A*69
$GPGGA,003415.45,3725.6972920,N,12204.3516680,W,1,0,0.0,-28.2218,M,0.0000,M,0.0000,0000*74
$GPRMC,003415.45,A,3725.6972920,N,12204.3516680,W,0.9379,238.2980,250620,,,,A*67
$GPGGA,003416.45,3725.6968720,N,12204.3521840,W,1,0,0.0,-28.2079,M,0.0000,M,0.0000,0000*71
$GPRMC,003416.45,A,3725.6968720,N,12204.3521840,W,3.0278,232.9659,250620,,,,A*67
$GPGGA,003417.45,3725.6962180,N,12204.3532340,W,1,0,0.0,-28.1902,M,0.0000,M,0.0000,0000*79
$GPRMC,003417.45,A,3725.6962180,N,12204.3532340,W,4.5126,233.9973,250620,,,,A*65
$GPGGA,003418.45,3725.6959420,N,12204.3550280,W,1,0,0.0,-28.2394,M,0.0000,M,0.0000,0000*7e
$GPRMC,003418.45,A,3725.6959420,N,12204.3550280,W,5.8737,255.8043,250620,,,,A*65
$GPGGA,003419.45,3725.6965600,N,12204.3573260,W,1,0,0.0,-28.1834,M,0.0000,M,0.0000,0000*7d
$GPRMC,003419.45,A,3725.6965600,N,12204.3573260,W,7.9093,286.7732,250620,,,,A*6e
$GPGGA,003420.45,3725.6981860,N,12204.3600920,W,1,0,0.0,-28.2321,M,0.0000,M,0.0000,0000*71
$GPRMC,003420.45,A,3725.6981860,N,12204.3600920,W,11.8386,306.0996,250620,,,,A*51
$GPGGA,003421.45,3725.7002860,N,12204.3641060,W,1,0,0.0,-28.3137,M,0.0000,M,0.0000,0000*7f
$GPRMC,003421.45,A,3725.7002860,N,12204.3641060,W,15.5712,301.1989,250620,,,,A*53
$GPGGA,003422.45,3725.7020500,N,12204.3695240,W,1,0,0.0,-28.4021,M,0.0000,M,0.0000,0000*7f
$GPRMC,003422.45,A,3725.7020500,N,12204.3695240,W,18.0126,288.4796,250620,,,,A*5e
$GPGGA,003423.45,3725.7029200,N,12204.3761240,W,1,0,0.0,-28.4727,M,0.0000,M,0.0000,0000*7b
$GPRMC,003423.45,A,3725.7029200,N,12204.3761240,W,20.2921,275.8338,250620,,,,A*53
$GPGGA,003424.45,3725.7031360,N,12204.3835400,W,1,0,0.0,-28.4405,M,0.0000,M,0.0000,0000*7d
$GPRMC,003424.45,A,3725.7031360,N,12204.3835400,W,22.3237,270.4199,250620,,,,A*59
$GPGGA,003425.45,3725.7030340,N,12204.3916820,W,1,0,0.0,-28.3462,M,0.0000,M,0.0000,0000*77
$GPRMC,003425.45,A,3725.7030340,N,12204.3916820,W,24.3202,268.8172,250620,,,,A*55
$GPGGA,003426.45,3725.7028840,N,12204.4004300,W,1,0,0.0,-28.1831,M,0.0000,M,0.0000,0000*7a
$GPRMC,003426.45,A,3725.7028840,N,12204.4004300,W,25.9014,269.0754,250620,,,,A*55
$GPGGA,003427.45,3725.7028240,N,12204.4097900,W,1,0,0.0,-28.0731,M,0.0000,M,0.0000,0000*7f
$GPRMC,003427.45,A,3725.7028240,N,12204.4097900,W,27.7642,269.5223,250620,,,,A*57
$GPGGA,003428.45,3725.7027820,N,12204.4197620,W,1,0,0.0,-28.0203,M,0.0000,M,0.0000,0000*7b
$GPRMC,003428.45,A,3725.7027820,N,12204.4197620,W,29.0665,269.7549,250620,,,,A*52
$GPGGA,003429.45,3725.7027520,N,12204.4298840,W,1,0,0.0,-28.0752,M,0.0000,M,0.0000,0000*72
$GPRMC,003429.45,A,3725.7027520,N,12204.4298840,W,28.9013,269.8267,250620,,,,A*51
$GPGGA,003430.45,3725.7027220,N,12204.4399820,W,1,0,0.0,-28.1955,M,0.0000,M,0.0000,0000*73
$GPRMC,003430.45,A,3725.7027220,N,12204.4399820,W,29.2983,269.7177,250620,,,,A*5f
$GPGGA,003431.45,3725.7026620,N,12204.4504280,W,1,0,0.0,-28.2822,M,0.0000,M,0.0000,0000*77
$GPRMC,003431.45,A,3725.7026620,N,12204.4504280,W,30.4510,269.5107,250620,,,,A*54
$GPGGA,003432.45,3725.7026020,N,12204.4611320,W,1,0,0.0,-28.3610,M,0.0000,M,0.0000,0000*70
$GPRMC,003432.45,A,3725.7026020,N,12204.4611320,W,30.9809,269.6495,250620,,,,A*58
$GPGGA,003433.45,3725.7025600,N,12204.4721060,W,1,0,0.0,-28.4900,M,0.0000,M,0.0000,0000*7a
$GPRMC,003433.45,A,3725.7025600,N,12204.4721060,W,31.9746,269.9168,250620,,,,A*56
$GPGGA,003434.45,3725.7025780,N,12204.4834820,W,1,0,0.0,-28.7511,M,0.0000,M,0.0000,0000*7c
$GPRMC,003434.45,A,3725.7025780,N,12204.4834820,W,33.2608,270.3384,250620,,,,A*5f
$GPGGA,003435.45,3725.7026680,N,12204.4952840,W,1,0,0.0,-29.1556,M,0.0000,M,0.0000,0000*7c
$GPRMC,003435.45,A,3725.7026680,N,12204.4952840,W,34.4129,270.5688,250620,,,,A*51
$GPGGA,003436.45,3725.7027520,N,12204.5074280,W,1,0,0.0,-29.6117,M,0.0000,M,0.0000,0000*7b
$GPRMC,003436.45,A,3725.7027520,N,12204.5074280,W,35.0950,270.3575,250620,,,,A*54
$GPGGA,003437.45,3725.7028060,N,12204.5196800,W,1,0,0.0,-29.9343,M,0.0000,M,0.0000,0000*77
$GPRMC,003437.45,A,3725.7028060,N,12204.5196800,W,35.0767,270.4063,250620,,,,A*5b
$GPGGA,003438.45,3725.7028720,N,12204.5318600,W,1,0,0.0,-30.0783,M,0.0000,M,0.0000,0000*78
$GPRMC,003438.45,A,3725.7028720,N,12204.5318600,W,34.8112,270.3513,250620,,,,A*55
$GPGGA,003439.45,3725.7029140,N,12204.5439740,W,1,0,0.0,-30.1312,M,0.0000,M,0.0000,0000*74
$GPRMC,003439.45,A,3725.7029140,N,12204.5439740,W,34.6025,270.1652,250620,,,,A*5b
$GPGGA,003440.45,3725.7029380,N,12204.5559620,W,1,0,0.0,-30.1896,M,0.0000,M,0.0000,0000*73
$GPRMC,003440.45,A,3725.7029380,N,12204.5559620,W,34.1578,270.2867,250620,,,,A*5a
$GPGGA,003441.45,3725.7029020,N,12204.5677940,W,1,0,0.0,-30.2394,M,0.0000,M,0.0000,0000*77
$GPRMC,003441.45,A,3725.7029020,N,12204.5677940,W,33.7080,268.9762,250620,,,,A*5f
$GPGGA,003442.45,3725.7024580,N,12204.5795000,W,1,0,0.0,-30.2996,M,0.0000,M,0.0000,0000*7e
$GPRMC,003442.45,A,3725.7024580,N,12204.5795000,W,33.6133,265.4651,250620,,,,A*57
$GPGGA,003443.45,3725.7012760,N,12204.5911280,W,1,0,0.0,-30.2550,M,0.0000,M,0.0000,0000*78
$GPRMC,003443.45,A,3725.7012760,N,12204.5911280,W,33.6662,260.4128,250620,,,,A*58
$GPGGA,003444.45,3725.6992840,N,12204.6026120,W,1,0,0.0,-30.1869,M,0.0000,M,0.0000,0000*71
$GPRMC,003444.45,A,3725.6992840,N,12204.6026120,W,33.7230,255.8179,250620,,,,A*59
$GPGGA,003445.45,3725.6967040,N,12204.6138260,W,1,0,0.0,-30.1305,M,0.0000,M,0.0000,0000*7a
$GPRMC,003445.45,A,3725.6967040,N,12204.6138260,W,33.1312,252.8688,250620,,,,A*5a
$GPGGA,003446.45,3725.6939620,N,12204.6246680,W,1,0,0.0,-30.0484,M,0.0000,M,0.0000,0000*7d
$GPRMC,003446.45,A,3725.6939620,N,12204.6246680,W,31.9038,252.2672,250620,,,,A*5c
$GPGGA,003447.45,3725.6913820,N,12204.6349520,W,1,0,0.0,-30.0119,M,0.0000,M,0.0000,0000*7c
$GPRMC,003447.45,A,3725.6913820,N,12204.6349520,W,29.9780,253.2721,250620,,,,A*57
$GPGGA,003448.45,3725.6894020,N,12204.6447500,W,1,0,0.0,-30.0362,M,0.0000,M,0.0000,0000*70
$GPRMC,003448.45,A,3725.6894020,N,12204.6447500,W,27.9040,258.0451,250620,,,,A*5d
$GPGGA,003449.45,3725.6882440,N,12204.6539480,W,1,0,0.0,-30.0936,M,0.0000,M,0.0000,0000*7e
$GPRMC,003449.45,A,3725.6882440,N,12204.6539480,W,25.3484,263.0320,250620,,,,A*55
$GPGGA,003450.45,3725.6877340,N,12204.6621380,W,1,0,0.0,-30.1592,M,0.0000,M,0.0000,0000*75
$GPRMC,003450.45,A,3725.6877340,N,12204.6621380,W,21.5858,266.6934,250620,,,,A*5e
$GPGGA,003451.45,3725.6875600,N,12204.6688580,W,1,0,0.0,-30.2357,M,0.0000,M,0.0000,0000*7e
$GPRMC,003451.45,A,3725.6875600,N,12204.6688580,W,16.8915,268.6916,250620,,,,A*56
$GPGGA,003452.45,3725.6875300,N,12204.6738860,W,1,0,0.0,-30.2732,M,0.0000,M,0.0000,0000*76
$GPRMC,003452.45,A,3725.6875300,N,12204.6738860,W,12.0978,269.7668,250620,,,,A*58
$GPGGA,003453.45,3725.6875120,N,12204.6777680,W,1,0,0.0,-30.3666,M,0.0000,M,0.0000,0000*7d
$GPRMC,003453.45,A,3725.6875120,N,12204.6777680,W,10.8537,269.3654,250620,,,,A*54
$GPGGA,003454.45,3725.6870980,N,12204.6815540,W,1,0,0.0,-30.5411,M,0.0000,M,0.0000,0000*7d
$GPRMC,003454.45,A,3725.6870980,N,12204.6815540,W,11.4732,259.1510,250620,,,,A*58
$GPGGA,003455.45,3725.6855980,N,12204.6852920,W,1,0,0.0,-30.5882,M,0.0000,M,0.0000,0000*74
$GPRMC,003455.45,A,3725.6855980,N,12204.6852920,W,12.6072,238.9585,250620,,,,A*56
$GPGGA,003456.45,3725.6828620,N,12204.6884540,W,1,0,0.0,-30.5746,M,0.0000,M,0.0000,0000*7e
$GPRMC,003456.45,A,3725.6828620,N,12204.6884540,W,14.5070,217.5827,250620,,,,A*58
$GPGGA,003457.45,3725.6789080,N,12204.6906860,W,1,0,0.0,-30.6527,M,0.0000,M,0.0000,0000*75
$GPRMC,003457.45,A,3725.6789080,N,12204.6906860,W,16.9503,199.2853,250620,,,,A*5b
$GPGGA,003458.45,3725.6738200,N,12204.6918620,W,1,0,0.0,-30.7090,M,0.0000,M,0.0000,0000*77
$GPRMC,003458.45,A,3725.6738200,N,12204.6918620,W,20.2980,186.6859,250620,,,,A*58
$GPGGA,003459.45,3725.6677600,N,12204.6921080,W,1,0,0.0,-30.7635,M,0.0000,M,0.0000,0000*77
$GPRMC,003459.45,A,3725.6677600,N,12204.6921080,W,23.2889,180.1480,250620,,,,A*53
$GPGGA,003500.45,3725.6608720,N,12204.6918920,W,1,0,0.0,-30.7864,M,0.0000,M,0.0000,0000*72
$GPRMC,003500.45,A,3725.6608720,N,12204.6918920,W,26.1208,177.7607,250620,,,,A*5a
$GPGGA,003501.45,3725.6533120,N,12204.6913460,W,1,0,0.0,-30.7797,M,0.0000,M,0.0000,0000*7f
$GPRMC,003501.45,A,3725.6533120,N,12204.6913460,W,28.1532,175.9466,250620,,,,A*5d
$GPGGA,003502.45,3725.6453620,N,12204.6904520,W,1,0,0.0,-30.7024,M,0.0000,M,0.0000,0000*70
$GPRMC,003502.45,A,3725.6453620,N,12204.6904520,W,29.1702,173.9995,250620,,,,A*5a
$GPGGA,003503.45,3725.6371900,N,12204.6892160,W,1,0,0.0,-30.6498,M,0.0000,M,0.0000,0000*77
$GPRMC,003503.45,A,3725.6371900,N,12204.6892160,W,30.0018,172.8318,250620,,,,A*55
$GPGGA,003504.45,3725.6287240,N,12204.6879440,W,1,0,0.0,-30.6109,M,0.0000,M,0.0000,0000*78
$GPRMC,003504.45,A,3725.6287240,N,12204.6879440,W,31.4210,173.6819,250620,,,,A*5d
$GPGGA,003505.45,3725.6198080,N,12204.6868340,W,1,0,0.0,-30.5739,M,0.0000,M,0.0000,0000*7b
$GPRMC,003505.45,A,3725.6198080,N,12204.6868340,W,33.0618,174.9277,250620,,,,A*58
$GPGGA,003506.45,3725.6104480,N,12204.6859280,W,1,0,0.0,-30.5214,M,0.0000,M,0.0000,0000*7c
$GPRMC,003506.45,A,3725.6104480,N,12204.6859280,W,34.3641,176.2041,250620,,,,A*53
$GPGGA,003507.45,3725.6007760,N,12204.6853040,W,1,0,0.0,-30.4380,M,0.0000,M,0.0000,0000*7b
$GPRMC,003507.45,A,3725.6007760,N,12204.6853040,W,35.2543,177.7737,250620,,,,A*5a
$GPGGA,003508.45,3725.5908760,N,12204.6850040,W,1,0,0.0,-30.4063,M,0.0000,M,0.0000,0000*7c
$GPRMC,003508.45,A,3725.5908760,N,12204.6850040,W,35.9363,179.2705,250620,,,,A*56
$GPGGA,003509.45,3725.5808080,N,12204.6849500,W,1,0,0.0,-30.3420,M,0.0000,M,0.0000,0000*78
$GPRMC,003509.45,A,3725.5808080,N,12204.6849500,W,36.4653,180.1978,250620,,,,A*5f
$GPGGA,003510.45,3725.5705720,N,12204.6851240,W,1,0,0.0,-30.2941,M,0.0000,M,0.0000,0000*7e
$GPRMC,003510.45,A,3725.5705720,N,12204.6851240,W,37.2014,181.3338,250620,,,,A*5d
$GPGGA,003511.45,3725.5601380,N,12204.6855680,W,1,0,0.0,-30.2375,M,0.0000,M,0.0000,0000*75
$GPRMC,003511.45,A,3725.5601380,N,12204.6855680,W,37.8212,182.5198,250620,,,,A*58
$GPGGA,003512.45,3725.5496260,N,12204.6862880,W,1,0,0.0,-30.1579,M,0.0000,M,0.0000,0000*76
$GPRMC,003512.45,A,3725.5496260,N,12204.6862880,W,37.6986,183.6178,250620,,,,A*56
$GPGGA,003513.45,3725.5393120,N,12204.6871520,W,1,0,0.0,-30.0919,M,0.0000,M,0.0000,0000*7c
$GPRMC,003513.45,A,3725.5393120,N,12204.6871520,W,36.3462,183.9858,250620,,,,A*50
$GPGGA,003514.45,3725.5296820,N,12204.6879080,W,1,0,0.0,-30.0433,M,0.0000,M,0.0000,0000*74
$GPRMC,003514.45,A,3725.5296820,N,12204.6879080,W,32.7049,183.2028,250620,,,,A*54
$GPGGA,003515.45,3725.5212640,N,12204.6884060,W,1,0,0.0,-29.9743,M,0.0000,M,0.0000,0000*78
$GPRMC,003515.45,A,3725.5212640,N,12204.6884060,W,27.8341,182.2994,250620,,,,A*52
$GPGGA,003516.45,3725.5142200,N,12204.6887300,W,1,0,0.0,-29.9289,M,0.0000,M,0.0000,0000*78
$GPRMC,003516.45,A,3725.5142200,N,12204.6887300,W,22.7310,182.1274,250620,,,,A*59
$GPGGA,003517.45,3725.5086160,N,12204.6889640,W,1,0,0.0,-29.8973,M,0.0000,M,0.0000,0000*75
$GPRMC,003517.45,A,3725.5086160,N,12204.6889640,W,17.6612,181.7227,250620,,,,A*58
$GPGGA,003518.45,3725.5043560,N,12204.6890840,W,1,0,0.0,-29.8684,M,0.0000,M,0.0000,0000*76
$GPRMC,003518.45,A,3725.5043560,N,12204.6890840,W,13.3988,181.1052,250620,,,,A*57
$GPGGA,003519.45,3725.5011340,N,12204.6891200,W,1,0,0.0,-29.8673,M,0.0000,M,0.0000,0000*73
$GPRMC,003519.45,A,3725.5011340,N,12204.6891200,W,9.5803,180.4104,250620,,,,A*63
$GPGGA,003520.45,3725.4990400,N,12204.6891080,W,1,0,0.0,-29.8613,M,0.0000,M,0.0000,0000*77
$GPRMC,003520.45,A,3725.4990400,N,12204.6891080,W,5.4796,179.8230,250620,,,,A*61
$GPGGA,003521.45,3725.4979180,N,12204.6891020,W,1,0,0.0,-29.8713,M,0.0000,M,0.0000,0000*77
$GPRMC,003521.45,A,3725.4979180,N,12204.6891020,W,2.9171,179.5896,250620,,,,A*6e
$GPGGA,003522.45,3725.4973780,N,12204.6890960,W,1,0,0.0,-29.8683,M,0.0000,M,0.0000,0000*7c
$GPRMC,003522.45,A,3725.4973780,N,12204.6890960,W,0.9473,179.5331,250620,,,,A*6e
$GPGGA,003523.45,3725.4972940,N,12204.6890960,W,1,0,0.0,-29.8748,M,0.0000,M,0.0000,0000*78
$GPRMC,003523.45,A,3725.4972940,N,12204.6890960,W,0.0284,179.5281,250620,,,,A*61
$GPGGA,003524.45,3725.4972940,N,12204.6890960,W,1,0,0.0,-29.8748,M,0.0000,M,0.0000,0000*7f
$GPRMC,003524.45,A,3725.4972940,N,12204.6890960,W,0.0041,179.5281,250620,,,,A*6d
$GPGGA,003525.45,3725.4972940,N,12204.6890960,W,1,0,0.0,-29.8748,M,0.0000,M,0.0000,0000*7e
$GPRMC,003525.45,A,3725.4972940,N,12204.6890960,W,0.0019,179.5263,250620,,,,A*6d
$GPGGA,003526.45,3725.4972940,N,12204.6890960,W,1,0,0.0,-29.8748,M,0.0000,M,0.0000,0000*7d
$GPRMC,003526.45,A,3725.4972940,N,12204.6890960,W,0.0019,179.5267,250620,,,,A*6a
$GPGGA,003527.45,3725.4972940,N,12204.6890960,W,1,0,0.0,-29.8748,M,0.0000,M,0.0000,0000*7c
$GPRMC,003527.45,A,3725.4972940,N,12204.6890960,W,0.0063,179.5276,250620,,,,A*66
$GPGGA,003528.45,3725.4972880,N,12204.6890960,W,1,0,0.0,-29.8758,M,0.0000,M,0.0000,0000*7f
$GPRMC,003528.45,A,3725.4972880,N,12204.6890960,W,0.1131,179.5310,250620,,,,A*62
$GPGGA,003529.45,3725.4971380,N,12204.6890900,W,1,0,0.0,-29.8738,M,0.0000,M,0.0000,0000*76
$GPRMC,003529.45,A,3725.4971380,N,12204.6890900,W,0.5290,179.5107,250620,,,,A*65
$GPGGA,003530.45,3725.4970660,N,12204.6890840,W,1,0,0.0,-29.8728,M,0.0000,M,0.0000,0000*70
$GPRMC,003530.45,A,3725.4970660,N,12204.6890840,W,0.0559,179.5062,250620,,,,A*67
$GPGGA,003531.45,3725.4970300,N,12204.6890840,W,1,0,0.0,-29.8738,M,0.0000,M,0.0000,0000*73
$GPRMC,003531.45,A,3725.4970300,N,12204.6890840,W,0.2309,179.5033,250620,,,,A*60
$GPGGA,003532.45,3725.4969700,N,12204.6890840,W,1,0,0.0,-29.8718,M,0.0000,M,0.0000,0000*7e
$GPRMC,003532.45,A,3725.4969700,N,12204.6890840,W,0.0554,179.4902,250620,,,,A*69
$GPGGA,003533.45,3725.4969040,N,12204.6890840,W,1,0,0.0,-29.8733,M,0.0000,M,0.0000,0000*75
$GPRMC,003533.45,A,3725.4969040,N,12204.6890840,W,0.5932,179.4832,250620,,,,A*60
$GPGGA,003534.45,3725.4965560,N,12204.6890840,W,1,0,0.0,-29.8713,M,0.0000,M,0.0000,0000*7b
$GPRMC,003534.45,A,3725.4965560,N,12204.6890840,W,1.9757,179.3500,250620,,,,A*67
$GPGGA,003535.45,3725.4955840,N,12204.6890180,W,1,0,0.0,-29.8528,M,0.0000,M,0.0000,0000*79
$GPRMC,003535.45,A,3725.4955840,N,12204.6890180,W,5.2789,177.9810,250620,,,,A*6b
$GPGGA,003536.45,3725.4936040,N,12204.6888980,W,1,0,0.0,-29.8344,M,0.0000,M,0.0000,0000*7a
$GPRMC,003536.45,A,3725.4936040,N,12204.6888980,W,8.8827,177.3791,250620,,,,A*64
$GPGGA,003537.45,3725.4905500,N,12204.6887660,W,1,0,0.0,-29.8284,M,0.0000,M,0.0000,0000*79
$GPRMC,003537.45,A,3725.4905500,N,12204.6887660,W,13.6653,178.2374,250620,,,,A*52
$GPGGA,003538.45,3725.4860560,N,12204.6886760,W,1,0,0.0,-29.7998,M,0.0000,M,0.0000,0000*7b
$GPRMC,003538.45,A,3725.4860560,N,12204.6886760,W,18.4451,179.3151,250620,,,,A*55
$GPGGA,003539.45,3725.4804760,N,12204.6886040,W,1,0,0.0,-29.7687,M,0.0000,M,0.0000,0000*7e
$GPRMC,003539.45,A,3725.4804760,N,12204.6886040,W,21.4019,179.3116,250620,,,,A*50
$GPGGA,003540.45,3725.4740920,N,12204.6884240,W,1,0,0.0,-29.7404,M,0.0000,M,0.0000,0000*7c
$GPRMC,003540.45,A,3725.4740920,N,12204.6884240,W,24.2750,178.3377,250620,,,,A*56
$GPGGA,003541.45,3725.4670840,N,12204.6880400,W,1,0,0.0,-29.7039,M,0.0000,M,0.0000,0000*74
$GPRMC,003541.45,A,3725.4670840,N,12204.6880400,W,26.0296,177.2129,250620,,,,A*5c
$GPGGA,003542.45,3725.4596740,N,12204.6875240,W,1,0,0.0,-29.6264,M,0.0000,M,0.0000,0000*70
$GPRMC,003542.45,A,3725.4596740,N,12204.6875240,W,27.2812,176.6190,250620,,,,A*51
$GPGGA,003543.45,3725.4520240,N,12204.6868400,W,1,0,0.0,-29.5934,M,0.0000,M,0.0000,0000*7a
$GPRMC,003543.45,A,3725.4520240,N,12204.6868400,W,27.6238,175.4337,250620,,,,A*5e
$GPGGA,003544.45,3725.4444400,N,12204.6860060,W,1,0,0.0,-29.5701,M,0.0000,M,0.0000,0000*7e
$GPRMC,003544.45,A,3725.4444400,N,12204.6860060,W,27.1320,174.9128,250620,,,,A*5d
$GPGGA,003545.45,3725.4370720,N,12204.6852020,W,1,0,0.0,-29.5022,M,0.0000,M,0.0000,0000*7d
$GPRMC,003545.45,A,3725.4370720,N,12204.6852020,W,25.9285,175.2095,250620,,,,A*51
$GPGGA,003546.45,3725.4300760,N,12204.6845060,W,1,0,0.0,-29.4810,M,0.0000,M,0.0000,0000*77
$GPRMC,003546.45,A,3725.4300760,N,12204.6845060,W,24.3281,175.8648,250620,,,,A*50
$GPGGA,003547.45,3725.4236440,N,12204.6839540,W,1,0,0.0,-29.4522,M,0.0000,M,0.0000,0000*73
$GPRMC,003547.45,A,3725.4236440,N,12204.6839540,W,21.9201,176.4010,250620,,,,A*5b
$GPGGA,003548.45,3725.4180640,N,12204.6836180,W,1,0,0.0,-29.4159,M,0.0000,M,0.0000,0000*7f
$GPRMC,003548.45,A,3725.4180640,N,12204.6836180,W,18.3033,178.7087,250620,,,,A*5f
$GPGGA,003549.45,3725.4133300,N,12204.6840200,W,1,0,0.0,-29.4408,M,0.0000,M,0.0000,0000*7c
$GPRMC,003549.45,A,3725.4133300,N,12204.6840200,W,15.9352,187.3450,250620,,,,A*54
$GPGGA,003550.45,3725.4093280,N,12204.6857780,W,1,0,0.0,-29.4972,M,0.0000,M,0.0000,0000*7d
$GPRMC,003550.45,A,3725.4093280,N,12204.6857780,W,14.9865,205.9406,250620,,,,A*5b
$GPGGA,003551.45,3725.4064480,N,12204.6894140,W,1,0,0.0,-29.5312,M,0.0000,M,0.0000,0000*7a
$GPRMC,003551.45,A,3725.4064480,N,12204.6894140,W,14.8290,233.0552,250620,,,,A*5c
$GPGGA,003552.45,3725.4051100,N,12204.6944780,W,1,0,0.0,-29.5859,M,0.0000,M,0.0000,0000*70
$GPRMC,003552.45,A,3725.4051100,N,12204.6944780,W,16.1935,257.7508,250620,,,,A*57
$GPGGA,003553.45,3725.4048160,N,12204.7006100,W,1,0,0.0,-29.5274,M,0.0000,M,0.0000,0000*7a
$GPRMC,003553.45,A,3725.4048160,N,12204.7006100,W,19.2745,268.2625,250620,,,,A*58
$GPGGA,003554.45,3725.4046600,N,12204.7079240,W,1,0,0.0,-29.4426,M,0.0000,M,0.0000,0000*7d
$GPRMC,003554.45,A,3725.4046600,N,12204.7079240,W,22.6914,268.4937,250620,,,,A*53
$GPGGA,003555.45,3725.4044140,N,12204.7164080,W,1,0,0.0,-29.3566,M,0.0000,M,0.0000,0000*7c
$GPRMC,003555.45,A,3725.4044140,N,12204.7164080,W,25.9540,267.7670,250620,,,,A*55
$GPGGA,003556.45,3725.4040780,N,12204.7260140,W,1,0,0.0,-29.2360,M,0.0000,M,0.0000,0000*7a
$GPRMC,003556.45,A,3725.4040780,N,12204.7260140,W,29.1514,267.4772,250620,,,,A*57
$GPGGA,003557.45,3725.4036580,N,12204.7366340,W,1,0,0.0,-29.0995,M,0.0000,M,0.0000,0000*7f
$GPRMC,003557.45,A,3725.4036580,N,12204.7366340,W,31.5637,267.1909,250620,,,,A*58
$GPGGA,003558.45,3725.4032020,N,12204.7479620,W,1,0,0.0,-28.9346,M,0.0000,M,0.0000,0000*7d
$GPRMC,003558.45,A,3725.4032020,N,12204.7479620,W,33.3140,267.0589,250620,,,,A*50
$GPGGA,003559.45,3725.4026980,N,12204.7597820,W,1,0,0.0,-28.8021,M,0.0000,M,0.0000,0000*76
$GPRMC,003559.45,A,3725.4026980,N,12204.7597820,W,34.5461,266.7862,250620,,,,A*51
$GPGGA,003600.45,3725.4020620,N,12204.7719200,W,1,0,0.0,-28.6517,M,0.0000,M,0.0000,0000*78
$GPRMC,003600.45,A,3725.4020620,N,12204.7719200,W,35.0597,265.8733,250620,,,,A*5a
$GPGGA,003601.45,3725.4012400,N,12204.7841660,W,1,0,0.0,-28.5030,M,0.0000,M,0.0000,0000*7b
$GPRMC,003601.45,A,3725.4012400,N,12204.7841660,W,35.5283,264.8060,250620,,,,A*5d
$GPGGA,003602.45,3725.4002440,N,12204.7966100,W,1,0,0.0,-28.3655,M,0.0000,M,0.0000,0000*7b
$GPRMC,003602.45,A,3725.4002440,N,12204.7966100,W,36.0982,263.9686,250620,,,,A*5a
$GPGGA,003603.45,3725.3991280,N,12204.8090720,W,1,0,0.0,-28.2886,M,0.0000,M,0.0000,0000*7e
$GPRMC,003603.45,A,3725.3991280,N,12204.8090720,W,35.7081,263.4265,250620,,,,A*54
$GPGGA,003604.45,3725.3979580,N,12204.8213300,W,1,0,0.0,-28.1828,M,0.0000,M,0.0000,0000*70
$GPRMC,003604.45,A,3725.3979580,N,12204.8213300,W,35.0502,263.0271,250620,,,,A*55
$GPGGA,003605.45,3725.3966980,N,12204.8333360,W,1,0,0.0,-28.2030,M,0.0000,M,0.0000,0000*74
$GPRMC,003605.45,A,3725.3966980,N,12204.8333360,W,34.4213,262.3779,250620,,,,A*5e
$GPGGA,003606.45,3725.3956000,N,12204.8451440,W,1,0,0.0,-28.3005,M,0.0000,M,0.0000,0000*74
$GPRMC,003606.45,A,3725.3956000,N,12204.8451440,W,33.7600,263.9973,250620,,,,A*54
$GPGGA,003607.45,3725.3947240,N,12204.8567540,W,1,0,0.0,-28.3874,M,0.0000,M,0.0000,0000*78
$GPRMC,003607.45,A,3725.3947240,N,12204.8567540,W,33.1542,264.9092,250620,,,,A*54
$GPGGA,003608.45,3725.3938720,N,12204.8681780,W,1,0,0.0,-28.5160,M,0.0000,M,0.0000,0000*73
$GPRMC,003608.45,A,3725.3938720,N,12204.8681780,W,32.6344,264.4755,250620,,,,A*52
$GPGGA,003609.45,3725.3929660,N,12204.8794160,W,1,0,0.0,-28.6571,M,0.0000,M,0.0000,0000*7d
$GPRMC,003609.45,A,3725.3929660,N,12204.8794160,W,32.1592,264.0894,250620,,,,A*57
$GPGGA,003610.45,3725.3920060,N,12204.8904860,W,1,0,0.0,-28.7904,M,0.0000,M,0.0000,0000*7b
$GPRMC,003610.45,A,3725.3920060,N,12204.8904860,W,31.7056,263.7074,250620,,,,A*50
$GPGGA,003611.45,3725.3910760,N,12204.9013940,W,1,0,0.0,-28.9420,M,0.0000,M,0.0000,0000*76
$GPRMC,003611.45,A,3725.3910760,N,12204.9013940,W,31.2406,264.1824,250620,,,,A*50
$GPGGA,003612.45,3725.3901940,N,12204.9121520,W,1,0,0.0,-29.0630,M,0.0000,M,0.0000,0000*78
$GPRMC,003612.45,A,3725.3901940,N,12204.9121520,W,30.7859,263.8119,250620,,,,A*5e
$GPGGA,003613.45,3725.3892100,N,12204.9227420,W,1,0,0.0,-29.1998,M,0.0000,M,0.0000,0000*76
$GPRMC,003613.45,A,3725.3892100,N,12204.9227420,W,30.3359,263.1585,250620,,,,A*5b
$GPGGA,003614.45,3725.3882080,N,12204.9332120,W,1,0,0.0,-29.3276,M,0.0000,M,0.0000,0000*70
$GPRMC,003614.45,A,3725.3882080,N,12204.9332120,W,30.3246,263.3098,250620,,,,A*50
$GPGGA,003615.45,3725.3872420,N,12204.9437000,W,1,0,0.0,-29.4406,M,0.0000,M,0.0000,0000*77
$GPRMC,003615.45,A,3725.3872420,N,12204.9437000,W,30.1330,263.7936,250620,,,,A*5a
$GPGGA,003616.45,3725.3864500,N,12204.9540920,W,1,0,0.0,-29.5661,M,0.0000,M,0.0000,0000*78
$GPRMC,003616.45,A,3725.3864500,N,12204.9540920,W,29.7073,265.3652,250620,,,,A*52
$GPGGA,003617.45,3725.3859040,N,12204.9643400,W,1,0,0.0,-29.6926,M,0.0000,M,0.0000,0000*76
$GPRMC,003617.45,A,3725.3859040,N,12204.9643400,W,29.1871,266.7941,250620,,,,A*55
$GPGGA,003618.45,3725.3855200,N,12204.9744140,W,1,0,0.0,-29.7817,M,0.0000,M,0.0000,0000*76
$GPRMC,003618.45,A,3725.3855200,N,12204.9744140,W,28.6645,267.6628,250620,,,,A*58
$GPGGA,003619.45,3725.3852920,N,12204.9843080,W,1,0,0.0,-29.8442,M,0.0000,M,0.0000,0000*7f
$GPRMC,003619.45,A,3725.3852920,N,12204.9843080,W,28.0963,269.1350,250620,,,,A*5c
$GPGGA,003620.45,3725.3852500,N,12204.9940340,W,1,0,0.0,-29.8882,M,0.0000,M,0.0000,0000*76
$GPRMC,003620.45,A,3725.3852500,N,12204.9940340,W,27.9312,269.9475,250620,,,,A*57
$GPGGA,003621.45,3725.3852620,N,12205.0039220,W,1,0,0.0,-29.9286,M,0.0000,M,0.0000,0000*71
$GPRMC,003621.45,A,3725.3852620,N,12205.0039220,W,28.7829,270.3828,250620,,,,A*5b
$GPGGA,003622.45,3725.3853880,N,12205.0141460,W,1,0,0.0,-29.9818,M,0.0000,M,0.0000,0000*76
$GPRMC,003622.45,A,3725.3853880,N,12205.0141460,W,30.0488,271.4347,250620,,,,A*5c
$GPGGA,003623.45,3725.3857540,N,12205.0248620,W,1,0,0.0,-29.9554,M,0.0000,M,0.0000,0000*7b
$GPRMC,003623.45,A,3725.3857540,N,12205.0248620,W,31.3354,273.2314,250620,,,,A*52
$GPGGA,003624.45,3725.3863480,N,12205.0359620,W,1,0,0.0,-29.8898,M,0.0000,M,0.0000,0000*7b
$GPRMC,003624.45,A,3725.3863480,N,12205.0359620,W,32.4867,274.3326,250620,,,,A*56
$GPGGA,003625.45,3725.3871040,N,12205.0475000,W,1,0,0.0,-29.8602,M,0.0000,M,0.0000,0000*71
$GPRMC,003625.45,A,3725.3871040,N,12205.0475000,W,33.9652,275.2435,250620,,,,A*50
$GPGGA,003626.45,3725.3881000,N,12205.0594820,W,1,0,0.0,-29.8034,M,0.0000,M,0.0000,0000*7e
$GPRMC,003626.45,A,3725.3881000,N,12205.0594820,W,35.0778,276.5323,250620,,,,A*5e
$GPGGA,003627.45,3725.3893060,N,12205.0717400,W,1,0,0.0,-29.7409,M,0.0000,M,0.0000,0000*78
$GPRMC,003627.45,A,3725.3893060,N,12205.0717400,W,35.6549,277.5262,250620,,,,A*5e
$GPGGA,003628.45,3725.3906740,N,12205.0841180,W,1,0,0.0,-29.6754,M,0.0000,M,0.0000,0000*74
$GPRMC,003628.45,A,3725.3906740,N,12205.0841180,W,36.0495,278.1555,250620,,,,A*55
$GPGGA,003629.45,3725.3921560,N,12205.0966040,W,1,0,0.0,-29.4744,M,0.0000,M,0.0000,0000*7a
$GPRMC,003629.45,A,3725.3921560,N,12205.0966040,W,36.2745,278.9090,250620,,,,A*50
$GPGGA,003630.45,3725.3938060,N,12205.1090600,W,1,0,0.0,-29.0819,M,0.0000,M,0.0000,0000*7f
$GPRMC,003630.45,A,3725.3938060,N,12205.1090600,W,36.1056,279.9387,250620,,,,A*54
$GPGGA,003631.45,3725.3955700,N,12205.1213660,W,1,0,0.0,-28.4447,M,0.0000,M,0.0000,0000*79
$GPRMC,003631.45,A,3725.3955700,N,12205.1213660,W,35.4742,280.4120,250620,,,,A*50
$GPGGA,003632.45,3725.3973580,N,12205.1333720,W,1,0,0.0,-27.7526,M,0.0000,M,0.0000,0000*78
$GPRMC,003632.45,A,3725.3973580,N,12205.1333720,W,34.6682,281.0981,250620,,,,A*53
$GPGGA,003633.45,3725.3993980,N,12205.1451500,W,1,0,0.0,-27.0841,M,0.0000,M,0.0000,0000*73
$GPRMC,003633.45,A,3725.3993980,N,12205.1451500,W,34.4831,283.2584,250620,,,,A*5e
$GPGGA,003634.45,3725.4016780,N,12205.1567780,W,1,0,0.0,-26.5467,M,0.0000,M,0.0000,0000*7b
$GPRMC,003634.45,A,3725.4016780,N,12205.1567780,W,34.1628,284.2275,250620,,,,A*57
$GPGGA,003635.45,3725.4040240,N,12205.1682680,W,1,0,0.0,-26.2157,M,0.0000,M,0.0000,0000*78
$GPRMC,003635.45,A,3725.4040240,N,12205.1682680,W,33.8783,284.5042,250620,,,,A*5a
$GPGGA,003636.45,3725.4063880,N,12205.1796800,W,1,0,0.0,-25.9985,M,0.0000,M,0.0000,0000*71
$GPRMC,003636.45,A,3725.4063880,N,12205.1796800,W,33.8688,284.7356,250620,,,,A*52
$GPGGA,003637.45,3725.4088000,N,12205.1911700,W,1,0,0.0,-25.9590,M,0.0000,M,0.0000,0000*73
$GPRMC,003637.45,A,3725.4088000,N,12205.1911700,W,34.2962,284.7602,250620,,,,A*5a
$GPGGA,003638.45,3725.4112360,N,12205.2028220,W,1,0,0.0,-26.0575,M,0.0000,M,0.0000,0000*7d
$GPRMC,003638.45,A,3725.4112360,N,12205.2028220,W,34.7715,284.6992,250620,,,,A*59
$GPGGA,003639.45,3725.4136840,N,12205.2146360,W,1,0,0.0,-26.2330,M,0.0000,M,0.0000,0000*7a
$GPRMC,003639.45,A,3725.4136840,N,12205.2146360,W,35.2896,284.5849,250620,,,,A*5f
$GPGGA,003640.45,3725.4161620,N,12205.2266660,W,1,0,0.0,-26.6623,M,0.0000,M,0.0000,0000*79
$GPRMC,003640.45,A,3725.4161620,N,12205.2266660,W,35.9720,284.4876,250620,,,,A*5b
$GPGGA,003641.45,3725.4186820,N,12205.2389420,W,1,0,0.0,-27.2064,M,0.0000,M,0.0000,0000*79
$GPRMC,003641.45,A,3725.4186820,N,12205.2389420,W,36.7485,284.4578,250620,,,,A*59
$GPGGA,003642.45,3725.4212560,N,12205.2515000,W,1,0,0.0,-27.9058,M,0.0000,M,0.0000,0000*7c
$GPRMC,003642.45,A,3725.4212560,N,12205.2515000,W,37.6121,284.4460,250620,,,,A*5b
$GPGGA,003643.45,3725.4238780,N,12205.2643280,W,1,0,0.0,-28.6228,M,0.0000,M,0.0000,0000*76
$GPRMC,003643.45,A,3725.4238780,N,12205.2643280,W,38.2664,284.4963,250620,,,,A*57
$GPGGA,003644.45,3725.4265540,N,12205.2772640,W,1,0,0.0,-29.2601,M,0.0000,M,0.0000,0000*76
$GPRMC,003644.45,A,3725.4265540,N,12205.2772640,W,38.3170,284.6216,250620,,,,A*55
$GPGGA,003645.45,3725.4291940,N,12205.2901580,W,1,0,0.0,-29.6232,M,0.0000,M,0.0000,0000*75
$GPRMC,003645.45,A,3725.4291940,N,12205.2901580,W,37.9817,284.0928,250620,,,,A*5b
$GPGGA,003646.45,3725.4316840,N,12205.3029380,W,1,0,0.0,-29.8592,M,0.0000,M,0.0000,0000*7e
$GPRMC,003646.45,A,3725.4316840,N,12205.3029380,W,37.3756,283.5656,250620,,,,A*57
$GPGGA,003647.45,3725.4340360,N,12205.3154120,W,1,0,0.0,-29.9168,M,0.0000,M,0.0000,0000*76
$GPRMC,003647.45,A,3725.4340360,N,12205.3154120,W,35.9745,283.1722,250620,,,,A*53
$GPGGA,003648.45,3725.4362500,N,12205.3273280,W,1,0,0.0,-29.9616,M,0.0000,M,0.0000,0000*78
$GPRMC,003648.45,A,3725.4362500,N,12205.3273280,W,34.2009,282.8292,250620,,,,A*50
$GPGGA,003649.45,3725.4380860,N,12205.3386140,W,1,0,0.0,-30.0168,M,0.0000,M,0.0000,0000*75
$GPRMC,003649.45,A,3725.4380860,N,12205.3386140,W,31.7346,280.2085,250620,,,,A*56
$GPGGA,003650.45,3725.4392200,N,12205.3491020,W,1,0,0.0,-30.0802,M,0.0000,M,0.0000,0000*71
$GPRMC,003650.45,A,3725.4392200,N,12205.3491020,W,28.9949,275.6179,250620,,,,A*58
$GPGGA,003651.45,3725.4395560,N,12205.3586900,W,1,0,0.0,-30.1227,M,0.0000,M,0.0000,0000*76
$GPRMC,003651.45,A,3725.4395560,N,12205.3586900,W,25.9572,270.5504,250620,,,,A*52
$GPGGA,003652.45,3725.4394060,N,12205.3671920,W,1,0,0.0,-30.1463,M,0.0000,M,0.0000,0000*7e
$GPRMC,003652.45,A,3725.4394060,N,12205.3671920,W,22.7821,267.2372,250620,,,,A*58
$GPGGA,003653.45,3725.4388300,N,12205.3747580,W,1,0,0.0,-30.1135,M,0.0000,M,0.0000,0000*73
$GPRMC,003653.45,A,3725.4388300,N,12205.3747580,W,21.2950,262.7863,250620,,,,A*59
$GPGGA,003654.45,3725.4376840,N,12205.3818500,W,1,0,0.0,-30.0066,M,0.0000,M,0.0000,0000*71
$GPRMC,003654.45,A,3725.4376840,N,12205.3818500,W,20.1303,256.3981,250620,,,,A*5d
$GPGGA,003655.45,3725.4361840,N,12205.3883240,W,1,0,0.0,-29.8829,M,0.0000,M,0.0000,0000*74
$GPRMC,003655.45,A,3725.4361840,N,12205.3883240,W,18.3556,253.6583,250620,,,,A*5a
$GPGGA,003656.45,3725.4350620,N,12205.3940780,W,1,0,0.0,-29.7684,M,0.0000,M,0.0000,0000*7c
$GPRMC,003656.45,A,3725.4350620,N,12205.3940780,W,15.6921,259.7433,250620,,,,A*51
$GPGGA,003657.45,3725.4351640,N,12205.3992260,W,1,0,0.0,-29.6732,M,0.0000,M,0.0000,0000*73
$GPRMC,003657.45,A,3725.4351640,N,12205.3992260,W,14.1428,277.0683,250620,,,,A*53
$GPGGA,003658.45,3725.4367000,N,12205.4035640,W,1,0,0.0,-29.4361,M,0.0000,M,0.0000,0000*7e
$GPRMC,003658.45,A,3725.4367000,N,12205.4035640,W,13.3129,300.1848,250620,,,,A*56
$GPGGA,003659.45,3725.4395020,N,12205.4067920,W,1,0,0.0,-29.3448,M,0.0000,M,0.0000,0000*75
$GPRMC,003659.45,A,3725.4395020,N,12205.4067920,W,14.5094,322.3357,250620,,,,A*57
$GPGGA,003700.45,3725.4432040,N,12205.4096600,W,1,0,0.0,-29.3004,M,0.0000,M,0.0000,0000*7b
$GPRMC,003700.45,A,3725.4432040,N,12205.4096600,W,16.7421,328.5059,250620,,,,A*5e
$GPGGA,003701.45,3725.4474220,N,12205.4130080,W,1,0,0.0,-29.2825,M,0.0000,M,0.0000,0000*75
$GPRMC,003701.45,A,3725.4474220,N,12205.4130080,W,19.2999,327.2431,250620,,,,A*5c
$GPGGA,003702.45,3725.4521560,N,12205.4171480,W,1,0,0.0,-29.2289,M,0.0000,M,0.0000,0000*79
$GPRMC,003702.45,A,3725.4521560,N,12205.4171480,W,22.1632,323.9348,250620,,,,A*5f
$GPGGA,003703.45,3725.4571960,N,12205.4222120,W,1,0,0.0,-29.1734,M,0.0000,M,0.0000,0000*7b
$GPRMC,003703.45,A,3725.4571960,N,12205.4222120,W,24.1481,319.9362,250620,,,,A*50
$GPGGA,003704.45,3725.4622960,N,12205.4280860,W,1,0,0.0,-29.1259,M,0.0000,M,0.0000,0000*72
$GPRMC,003704.45,A,3725.4622960,N,12205.4280860,W,25.6903,315.5556,250620,,,,A*57
$GPGGA,003705.45,3725.4672040,N,12205.4348900,W,1,0,0.0,-29.1338,M,0.0000,M,0.0000,0000*79
$GPRMC,003705.45,A,3725.4672040,N,12205.4348900,W,26.8605,310.0895,250620,,,,A*5c
$GPGGA,003706.45,3725.4717820,N,12205.4424560,W,1,0,0.0,-29.1694,M,0.0000,M,0.0000,0000*72
$GPRMC,003706.45,A,3725.4717820,N,12205.4424560,W,27.5402,305.1067,250620,,,,A*5d
$GPGGA,003707.45,3725.4758620,N,12205.4505560,W,1,0,0.0,-29.2022,M,0.0000,M,0.0000,0000*7c
$GPRMC,003707.45,A,3725.4758620,N,12205.4505560,W,27.5301,300.1523,250620,,,,A*5f
$GPGGA,003708.45,3725.4793660,N,12205.4591780,W,1,0,0.0,-29.2462,M,0.0000,M,0.0000,0000*71
$GPRMC,003708.45,A,3725.4793660,N,12205.4591780,W,27.9784,294.6248,250620,,,,A*56
$GPGGA,003709.45,3725.4822400,N,12205.4683040,W,1,0,0.0,-29.2902,M,0.0000,M,0.0000,0000*71
$GPRMC,003709.45,A,3725.4822400,N,12205.4683040,W,28.1434,289.4641,250620,,,,A*51
$GPGGA,003710.45,3725.4845260,N,12205.4776040,W,1,0,0.0,-29.3253,M,0.0000,M,0.0000,0000*7d
$GPRMC,003710.45,A,3725.4845260,N,12205.4776040,W,27.6685,285.6562,250620,,,,A*5f
$GPGGA,003711.45,3725.4864760,N,12205.4868440,W,1,0,0.0,-29.2714,M,0.0000,M,0.0000,0000*79
$GPRMC,003711.45,A,3725.4864760,N,12205.4868440,W,27.0938,284.3161,250620,,,,A*50
$GPGGA,003712.45,3725.4882940,N,12205.4959040,W,1,0,0.0,-29.2648,M,0.0000,M,0.0000,0000*71
$GPRMC,003712.45,A,3725.4882940,N,12205.4959040,W,26.6292,284.1805,250620,,,,A*55
$GPGGA,003713.45,3725.4901660,N,12205.5050000,W,1,0,0.0,-29.1894,M,0.0000,M,0.0000,0000*7e
$GPRMC,003713.45,A,3725.4901660,N,12205.5050000,W,27.3963,284.6648,250620,,,,A*57
$GPGGA,003714.45,3725.4922300,N,12205.5144140,W,1,0,0.0,-29.1474,M,0.0000,M,0.0000,0000*78
$GPRMC,003714.45,A,3725.4922300,N,12205.5144140,W,28.5820,286.1089,250620,,,,A*52
$GPGGA,003715.45,3725.4946480,N,12205.5240980,W,1,0,0.0,-29.1640,M,0.0000,M,0.0000,0000*72
$GPRMC,003715.45,A,3725.4946480,N,12205.5240980,W,29.5804,288.2711,250620,,,,A*51
$GPGGA,003716.45,3725.4973840,N,12205.5338960,W,1,0,0.0,-29.2341,M,0.0000,M,0.0000,0000*70
$GPRMC,003716.45,A,3725.4973840,N,12205.5338960,W,29.6949,290.0970,250620,,,,A*5d
$GPGGA,003717.45,3725.5003660,N,12205.5435020,W,1,0,0.0,-29.2600,M,0.0000,M,0.0000,0000*75
$GPRMC,003717.45,A,3725.5003660,N,12205.5435020,W,29.4662,292.2999,250620,,,,A*5b
$GPGGA,003718.45,3725.5036300,N,12205.5528920,W,1,0,0.0,-29.3207,M,0.0000,M,0.0000,0000*79
$GPRMC,003718.45,A,3725.5036300,N,12205.5528920,W,29.2262,294.5038,250620,,,,A*54
$GPGGA,003719.45,3725.5071160,N,12205.5620420,W,1,0,0.0,-29.3548,M,0.0000,M,0.0000,0000*75
$GPRMC,003719.45,A,3725.5071160,N,12205.5620420,W,28.9612,296.4166,250620,,,,A*54
$GPGGA,003720.45,3725.5107880,N,12205.5709820,W,1,0,0.0,-29.3185,M,0.0000,M,0.0000,0000*7b
$GPRMC,003720.45,A,3725.5107880,N,12205.5709820,W,28.7997,297.9814,250620,,,,A*53
$GPGGA,003721.45,3725.5147120,N,12205.5797600,W,1,0,0.0,-29.2413,M,0.0000,M,0.0000,0000*7d
$GPRMC,003721.45,A,3725.5147120,N,12205.5797600,W,28.9551,300.2806,250620,,,,A*51
$GPGGA,003722.45,3725.5189480,N,12205.5884480,W,1,0,0.0,-29.1809,M,0.0000,M,0.0000,0000*70
$GPRMC,003722.45,A,3725.5189480,N,12205.5884480,W,29.4401,302.5637,250620,,,,A*59
$GPGGA,003723.45,3725.5235260,N,12205.5969080,W,1,0,0.0,-29.2277,M,0.0000,M,0.0000,0000*7b
$GPRMC,003723.45,A,3725.5235260,N,12205.5969080,W,29.1226,305.2774,250620,,,,A*52
$GPGGA,003724.45,3725.5282480,N,12205.6050680,W,1,0,0.0,-29.2823,M,0.0000,M,0.0000,0000*75
$GPRMC,003724.45,A,3725.5282480,N,12205.6050680,W,28.6326,306.3957,250620,,,,A*5d
$GPGGA,003725.45,3725.5329880,N,12205.6129700,W,1,0,0.0,-29.3192,M,0.0000,M,0.0000,0000*7c
$GPRMC,003725.45,A,3725.5329880,N,12205.6129700,W,28.0399,307.7663,250620,,,,A*59
$GPGGA,003726.45,3725.5378780,N,12205.6205120,W,1,0,0.0,-29.3763,M,0.0000,M,0.0000,0000*75
$GPRMC,003726.45,A,3725.5378780,N,12205.6205120,W,27.7182,310.1245,250620,,,,A*58
$GPGGA,003727.45,3725.5428460,N,12205.6277420,W,1,0,0.0,-29.3710,M,0.0000,M,0.0000,0000*7f
$GPRMC,003727.45,A,3725.5428460,N,12205.6277420,W,26.7192,311.0979,250620,,,,A*52
$GPGGA,003728.45,3725.5476460,N,12205.6345280,W,1,0,0.0,-29.3169,M,0.0000,M,0.0000,0000*7f
$GPRMC,003728.45,A,3725.5476460,N,12205.6345280,W,25.4473,312.2093,250620,,,,A*5c
$GPGGA,003729.45,3725.5524400,N,12205.6409060,W,1,0,0.0,-29.2830,M,0.0000,M,0.0000,0000*79
$GPRMC,003729.45,A,3725.5524400,N,12205.6409060,W,25.0097,314.0829,250620,,,,A*59
$GPGGA,003730.45,3725.5574500,N,12205.6471220,W,1,0,0.0,-29.2224,M,0.0000,M,0.0000,0000*73
$GPRMC,003730.45,A,3725.5574500,N,12205.6471220,W,25.8827,316.2469,250620,,,,A*5f
$GPGGA,003731.45,3725.5628980,N,12205.6533320,W,1,0,0.0,-29.1873,M,0.0000,M,0.0000,0000*71
$GPRMC,003731.45,A,3725.5628980,N,12205.6533320,W,26.9826,319.0221,250620,,,,A*52
$GPGGA,003732.45,3725.5688020,N,12205.6594280,W,1,0,0.0,-29.2181,M,0.0000,M,0.0000,0000*7a
$GPRMC,003732.45,A,3725.5688020,N,12205.6594280,W,28.0728,321.4500,250620,,,,A*53
$GPGGA,003733.45,3725.5750840,N,12205.6655000,W,1,0,0.0,-29.2821,M,0.0000,M,0.0000,0000*76
$GPRMC,003733.45,A,3725.5750840,N,12205.6655000,W,28.8365,322.9229,250620,,,,A*5b
$GPGGA,003734.45,3725.5815640,N,12205.6715600,W,1,0,0.0,-29.3332,M,0.0000,M,0.0000,0000*7a
$GPRMC,003734.45,A,3725.5815640,N,12205.6715600,W,29.1763,323.6459,250620,,,,A*5a
$GPGGA,003735.45,3725.5881340,N,12205.6775420,W,1,0,0.0,-29.3922,M,0.0000,M,0.0000,0000*7e
$GPRMC,003735.45,A,3725.5881340,N,12205.6775420,W,29.3459,324.4158,250620,,,,A*5c
$GPGGA,003736.45,3725.5949440,N,12205.6832720,W,1,0,0.0,-29.3633,M,0.0000,M,0.0000,0000*7f
$GPRMC,003736.45,A,3725.5949440,N,12205.6832720,W,29.3933,327.9560,250620,,,,A*52
$GPGGA,003737.45,3725.6019100,N,12205.6883000,W,1,0,0.0,-29.3154,M,0.0000,M,0.0000,0000*79
$GPRMC,003737.45,A,3725.6019100,N,12205.6883000,W,28.2515,331.3912,250620,,,,A*5e
$GPGGA,003738.45,3725.6086420,N,12205.6926980,W,1,0,0.0,-29.2550,M,0.0000,M,0.0000,0000*79
$GPRMC,003738.45,A,3725.6086420,N,12205.6926980,W,26.5036,333.2119,250620,,,,A*52
$GPGGA,003739.45,3725.6151160,N,12205.6967720,W,1,0,0.0,-29.2178,M,0.0000,M,0.0000,0000*7d
$GPRMC,003739.45,A,3725.6151160,N,12205.6967720,W,25.5014,333.2786,250620,,,,A*5b
$GPGGA,003740.45,3725.6211880,N,12205.7007860,W,1,0,0.0,-29.2062,M,0.0000,M,0.0000,0000*7c
$GPRMC,003740.45,A,3725.6211880,N,12205.7007860,W,23.6902,331.0318,250620,,,,A*58
$GPGGA,003741.45,3725.6267560,N,12205.7049740,W,1,0,0.0,-29.2232,M,0.0000,M,0.0000,0000*7f
$GPRMC,003741.45,A,3725.6267560,N,12205.7049740,W,23.1755,327.8104,250620,,,,A*57
$GPGGA,003742.45,3725.6321740,N,12205.7095280,W,1,0,0.0,-29.2782,M,0.0000,M,0.0000,0000*79
$GPRMC,003742.45,A,3725.6321740,N,12205.7095280,W,24.0032,325.0937,250620,,,,A*5d
$GPGGA,003743.45,3725.6376820,N,12205.7147420,W,1,0,0.0,-29.3053,M,0.0000,M,0.0000,0000*7b
$GPRMC,003743.45,A,3725.6376820,N,12205.7147420,W,25.6157,321.6017,250620,,,,A*59
$GPGGA,003744.45,3725.6431720,N,12205.7206760,W,1,0,0.0,-29.3361,M,0.0000,M,0.0000,0000*74
$GPRMC,003744.45,A,3725.6431720,N,12205.7206760,W,26.4226,317.5318,250620,,,,A*5a
$GPGGA,003745.45,3725.6484100,N,12205.7272880,W,1,0,0.0,-29.3568,M,0.0000,M,0.0000,0000*72
$GPRMC,003745.45,A,3725.6484100,N,12205.7272880,W,27.0321,312.8554,250620,,,,A*56
$GPGGA,003746.45,3725.6532460,N,12205.7344580,W,1,0,0.0,-29.3434,M,0.0000,M,0.0000,0000*7f
$GPRMC,003746.45,A,3725.6532460,N,12205.7344580,W,26.7195,308.4390,250620,,,,A*51
$GPGGA,003747.45,3725.6575780,N,12205.7419100,W,1,0,0.0,-29.2850,M,0.0000,M,0.0000,0000*7c
$GPRMC,003747.45,A,3725.6575780,N,12205.7419100,W,26.1252,304.5465,250620,,,,A*53
$GPGGA,003748.45,3725.6614660,N,12205.7494940,W,1,0,0.0,-29.2452,M,0.0000,M,0.0000,0000*7f
$GPRMC,003748.45,A,3725.6614660,N,12205.7494940,W,25.8016,301.0749,250620,,,,A*5b
$GPGGA,003749.45,3725.6648920,N,12205.7574740,W,1,0,0.0,-29.2044,M,0.0000,M,0.0000,0000*7e
$GPRMC,003749.45,A,3725.6648920,N,12205.7574740,W,26.1193,296.2763,250620,,,,A*5a
$GPGGA,003750.45,3725.6678380,N,12205.7657840,W,1,0,0.0,-29.1918,M,0.0000,M,0.0000,0000*7b
$GPRMC,003750.45,A,3725.6678380,N,12205.7657840,W,26.0057,292.2811,250620,,,,A*5a
$GPGGA,003751.45,3725.6703220,N,12205.7743700,W,1,0,0.0,-29.2442,M,0.0000,M,0.0000,0000*72
$GPRMC,003751.45,A,3725.6703220,N,12205.7743700,W,26.6108,288.1559,250620,,,,A*56
$GPGGA,003752.45,3725.6723200,N,12205.7833700,W,1,0,0.0,-29.3252,M,0.0000,M,0.0000,0000*7f
$GPRMC,003752.45,A,3725.6723200,N,12205.7833700,W,26.8221,283.7671,250620,,,,A*5f
$GPGGA,003753.45,3725.6738080,N,12205.7924660,W,1,0,0.0,-29.3576,M,0.0000,M,0.0000,0000*7f
$GPRMC,003753.45,A,3725.6738080,N,12205.7924660,W,26.4258,279.8386,250620,,,,A*5b
$GPGGA,003754.45,3725.6747500,N,12205.8016220,W,1,0,0.0,-29.4144,M,0.0000,M,0.0000,0000*78
$GPRMC,003754.45,A,3725.6747500,N,12205.8016220,W,26.5457,275.4989,250620,,,,A*53
$GPGGA,003755.45,3725.6751460,N,12205.8108020,W,1,0,0.0,-29.4717,M,0.0000,M,0.0000,0000*75
$GPRMC,003755.45,A,3725.6751460,N,12205.8108020,W,26.1603,271.3274,250620,,,,A*53
$GPGGA,003756.45,3725.6750200,N,12205.8198260,W,1,0,0.0,-29.5203,M,0.0000,M,0.0000,0000*79
$GPRMC,003756.45,A,3725.6750200,N,12205.8198260,W,25.6155,267.3856,250620,,,,A*53
$GPGGA,003757.45,3725.6743720,N,12205.8286340,W,1,0,0.0,-29.5910,M,0.0000,M,0.0000,0000*7b
$GPRMC,003757.45,A,3725.6743720,N,12205.8286340,W,25.2117,262.7359,250620,,,,A*5f
$GPGGA,003758.45,3725.6732320,N,12205.8368660,W,1,0,0.0,-29.6314,M,0.0000,M,0.0000,0000*7d
$GPRMC,003758.45,A,3725.6732320,N,12205.8368660,W,22.2720,258.8939,250620,,,,A*5b
$GPGGA,003759.45,3725.6720260,N,12205.8439400,W,1,0,0.0,-29.6435,M,0.0000,M,0.0000,0000*79
$GPRMC,003759.45,A,3725.6720260,N,12205.8439400,W,19.6597,257.4271,250620,,,,A*5d
$GPGGA,003800.45,3725.6708980,N,12205.8502040,W,1,0,0.0,-29.5947,M,0.0000,M,0.0000,0000*77
$GPRMC,003800.45,A,3725.6708980,N,12205.8502040,W,16.9912,257.5253,250620,,,,A*58
$GPGGA,003801.45,3725.6699740,N,12205.8557000,W,1,0,0.0,-29.6771,M,0.0000,M,0.0000,0000*71
$GPRMC,003801.45,A,3725.6699740,N,12205.8557000,W,15.6543,258.1058,250620,,,,A*50
$GPGGA,003802.45,3725.6690560,N,12205.8609920,W,1,0,0.0,-29.7394,M,0.0000,M,0.0000,0000*76
$GPRMC,003802.45,A,3725.6690560,N,12205.8609920,W,15.4323,257.4504,250620,,,,A*5d
$GPGGA,003803.45,3725.6681080,N,12205.8662360,W,1,0,0.0,-29.7478,M,0.0000,M,0.0000,0000*7a
$GPRMC,003803.45,A,3725.6681080,N,12205.8662360,W,15.4696,256.9437,250620,,,,A*52
$GPGGA,003804.45,3725.6671240,N,12205.8715700,W,1,0,0.0,-29.7702,M,0.0000,M,0.0000,0000*71
$GPRMC,003804.45,A,3725.6671240,N,12205.8715700,W,16.0579,256.9761,250620,,,,A*52
$GPGGA,003805.45,3725.6660920,N,12205.8771920,W,1,0,0.0,-29.7918,M,0.0000,M,0.0000,0000*76
$GPRMC,003805.45,A,3725.6660920,N,12205.8771920,W,17.0206,257.2313,250620,,,,A*55
$GPGGA,003806.45,3725.6650720,N,12205.8831560,W,1,0,0.0,-29.7322,M,0.0000,M,0.0000,0000*78
$GPRMC,003806.45,A,3725.6650720,N,12205.8831560,W,17.9807,259.0037,250620,,,,A*53
$GPGGA,003807.45,3725.6641960,N,12205.8895220,W,1,0,0.0,-29.7746,M,0.0000,M,0.0000,0000*78
$GPRMC,003807.45,A,3725.6641960,N,12205.8895220,W,19.1067,260.1766,250620,,,,A*55
$GPGGA,003808.45,3725.6631880,N,12205.8963740,W,1,0,0.0,-29.8199,M,0.0000,M,0.0000,0000*7f
$GPRMC,003808.45,A,3725.6631880,N,12205.8963740,W,20.9299,259.2744,250620,,,,A*51
$GPGGA,003809.45,3725.6620540,N,12205.9037840,W,1,0,0.0,-29.7889,M,0.0000,M,0.0000,0000*7e
$GPRMC,003809.45,A,3725.6620540,N,12205.9037840,W,22.2694,259.0665,250620,,,,A*57
$GPGGA,003810.45,3725.6608180,N,12205.9115600,W,1,0,0.0,-29.7688,M,0.0000,M,0.0000,0000*70
$GPRMC,003810.45,A,3725.6608180,N,12205.9115600,W,23.0589,258.4778,250620,,,,A*52
$GPGGA,003811.45,3725.6594980,N,12205.9194740,W,1,0,0.0,-29.7957,M,0.0000,M,0.0000,0000*7e
$GPRMC,003811.45,A,3725.6594980,N,12205.9194740,W,23.1380,258.0904,250620,,,,A*5e
$GPGGA,003812.45,3725.6582020,N,12205.9271480,W,1,0,0.0,-29.8352,M,0.0000,M,0.0000,0000*7e
$GPRMC,003812.45,A,3725.6582020,N,12205.9271480,W,21.6173,258.0058,250620,,,,A*55
$GPGGA,003813.45,3725.6569660,N,12205.9341800,W,1,0,0.0,-29.8692,M,0.0000,M,0.0000,0000*77
$GPRMC,003813.45,A,3725.6569660,N,12205.9341800,W,19.5878,257.3865,250620,,,,A*55
$GPGGA,003814.45,3725.6558620,N,12205.9403240,W,1,0,0.0,-29.8962,M,0.0000,M,0.0000,0000*79
$GPRMC,003814.45,A,3725.6558620,N,12205.9403240,W,16.5169,257.2930,250620,,,,A*5d
$GPGGA,003815.45,3725.6548900,N,12205.9455740,W,1,0,0.0,-29.9132,M,0.0000,M,0.0000,0000*7e
$GPRMC,003815.45,A,3725.6548900,N,12205.9455740,W,14.2830,256.9068,250620,,,,A*58
$GPGGA,003816.45,3725.6540980,N,12205.9497440,W,1,0,0.0,-29.9258,M,0.0000,M,0.0000,0000*7f
$GPRMC,003816.45,A,3725.6540980,N,12205.9497440,W,9.9243,256.8775,250620,,,,A*65
$GPGGA,003817.45,3725.6536180,N,12205.9523660,W,1,0,0.0,-29.9388,M,0.0000,M,0.0000,0000*75
$GPRMC,003817.45,A,3725.6536180,N,12205.9523660,W,6.3184,257.3759,250620,,,,A*6a
$GPGGA,003818.45,3725.6532700,N,12205.9542920,W,1,0,0.0,-29.9572,M,0.0000,M,0.0000,0000*7f
$GPRMC,003818.45,A,3725.6532700,N,12205.9542920,W,5.3344,257.6777,250620,,,,A*67
$GPGGA,003819.45,3725.6529460,N,12205.9561880,W,1,0,0.0,-29.9967,M,0.0000,M,0.0000,0000*73
$GPRMC,003819.45,A,3725.6529460,N,12205.9561880,W,5.8681,258.5835,250620,,,,A*61
$GPGGA,003820.45,3725.6527720,N,12205.9584260,W,1,0,0.0,-30.0442,M,0.0000,M,0.0000,0000*74
$GPRMC,003820.45,A,3725.6527720,N,12205.9584260,W,7.1535,265.3933,250620,,,,A*65
$GPGGA,003821.45,3725.6531980,N,12205.9612040,W,1,0,0.0,-30.1416,M,0.0000,M,0.0000,0000*7a
$GPRMC,003821.45,A,3725.6531980,N,12205.9612040,W,9.1672,282.2847,250620,,,,A*6f
$GPGGA,003822.45,3725.6547280,N,12205.9642160,W,1,0,0.0,-30.2512,M,0.0000,M,0.0000,0000*73
$GPRMC,003822.45,A,3725.6547280,N,12205.9642160,W,11.2735,306.1291,250620,,,,A*57
$GPGGA,003823.45,3725.6575420,N,12205.9666880,W,1,0,0.0,-30.3191,M,0.0000,M,0.0000,0000*70
$GPRMC,003823.45,A,3725.6575420,N,12205.9666880,W,13.6360,329.3134,250620,,,,A*5b
$GPGGA,003824.45,3725.6615740,N,12205.9685000,W,1,0,0.0,-30.2868,M,0.0000,M,0.0000,0000*74
$GPRMC,003824.45,A,3725.6615740,N,12205.9685000,W,17.0056,341.8739,250620,,,,A*5b
$GPGGA,003825.45,3725.6663920,N,12205.9705040,W,1,0,0.0,-30.2998,M,0.0000,M,0.0000,0000*7f
$GPRMC,003825.45,A,3725.6663920,N,12205.9705040,W,19.7817,341.5761,250620,,,,A*5a
$GPGGA,003826.45,3725.6719660,N,12205.9730240,W,1,0,0.0,-30.2823,M,0.0000,M,0.0000,0000*7e
$GPRMC,003826.45,A,3725.6719660,N,12205.9730240,W,22.7262,340.0164,250620,,,,A*5d
$GPGGA,003827.45,3725.6782600,N,12205.9759400,W,1,0,0.0,-30.2758,M,0.0000,M,0.0000,0000*75
$GPRMC,003827.45,A,3725.6782600,N,12205.9759400,W,25.5287,339.7831,250620,,,,A*5b
$GPGGA,003828.45,3725.6852260,N,12205.9791380,W,1,0,0.0,-30.3147,M,0.0000,M,0.0000,0000*78
$GPRMC,003828.45,A,3725.6852260,N,12205.9791380,W,27.7898,340.0816,250620,,,,A*57
$GPGGA,003829.45,3725.6927980,N,12205.9825460,W,1,0,0.0,-30.3457,M,0.0000,M,0.0000,0000*72
$GPRMC,003829.45,A,3725.6927980,N,12205.9825460,W,29.8738,340.4050,250620,,,,A*53
$GPGGA,003830.45,3725.7008560,N,12205.9861580,W,1,0,0.0,-30.3892,M,0.0000,M,0.0000,0000*77
$GPRMC,003830.45,A,3725.7008560,N,12205.9861580,W,31.5251,340.3117,250620,,,,A*58
$GPGGA,003831.45,3725.7092200,N,12205.9898720,W,1,0,0.0,-30.4178,M,0.0000,M,0.0000,0000*70
$GPRMC,003831.45,A,3725.7092200,N,12205.9898720,W,31.9296,340.8156,250620,,,,A*5c
$GPGGA,003832.45,3725.7175900,N,12205.9934660,W,1,0,0.0,-30.4452,M,0.0000,M,0.0000,0000*7f
$GPRMC,003832.45,A,3725.7175900,N,12205.9934660,W,31.8089,341.3621,250620,,,,A*5e
$GPGGA,003833.45,3725.7260800,N,12205.9970060,W,1,0,0.0,-30.4724,M,0.0000,M,0.0000,0000*7c
$GPRMC,003833.45,A,3725.7260800,N,12205.9970060,W,32.5607,341.8454,250620,,,,A*5a
$GPGGA,003834.45,3725.7347680,N,12206.0005760,W,1,0,0.0,-30.4908,M,0.0000,M,0.0000,0000*7f
$GPRMC,003834.45,A,3725.7347680,N,12206.0005760,W,33.1195,341.9197,250620,,,,A*5b
$GPGGA,003835.45,3725.7435820,N,12206.0042180,W,1,0,0.0,-30.4913,M,0.0000,M,0.0000,0000*79
$GPRMC,003835.45,A,3725.7435820,N,12206.0042180,W,33.5598,341.7322,250620,,,,A*58
$GPGGA,003836.45,3725.7523900,N,12206.0079020,W,1,0,0.0,-30.5237,M,0.0000,M,0.0000,0000*70
$GPRMC,003836.45,A,3725.7523900,N,12206.0079020,W,33.1758,341.4362,250620,,,,A*50
$GPGGA,003837.45,3725.7609880,N,12206.0115980,W,1,0,0.0,-30.5407,M,0.0000,M,0.0000,0000*7e
$GPRMC,003837.45,A,3725.7609880,N,12206.0115980,W,31.9182,340.8268,250620,,,,A*56
$GPGGA,003838.45,3725.7690940,N,12206.0151320,W,1,0,0.0,-30.5877,M,0.0000,M,0.0000,0000*77
$GPRMC,003838.45,A,3725.7690940,N,12206.0151320,W,29.7709,340.9308,250620,,,,A*50
$GPGGA,003839.45,3725.7766900,N,12206.0182520,W,1,0,0.0,-30.6088,M,0.0000,M,0.0000,0000*79
$GPRMC,003839.45,A,3725.7766900,N,12206.0182520,W,27.6881,342.6034,250620,,,,A*54
$GPGGA,003840.45,3725.7839080,N,12206.0208440,W,1,0,0.0,-30.6841,M,0.0000,M,0.0000,0000*78
$GPRMC,003840.45,A,3725.7839080,N,12206.0208440,W,26.5262,345.2325,250620,,,,A*5d
$GPGGA,003841.45,3725.7910360,N,12206.0225360,W,1,0,0.0,-30.7892,M,0.0000,M,0.0000,0000*7b
$GPRMC,003841.45,A,3725.7910360,N,12206.0225360,W,25.7437,352.5437,250620,,,,A*53
$GPGGA,003842.45,3725.7979840,N,12206.0227580,W,1,0,0.0,-30.7684,M,0.0000,M,0.0000,0000*7d
$GPRMC,003842.45,A,3725.7979840,N,12206.0227580,W,24.1947,2.3510,250620,,,,A*55
$GPGGA,003843.45,3725.8044700,N,12206.0215760,W,1,0,0.0,-30.6560,M,0.0000,M,0.0000,0000*7a
$GPRMC,003843.45,A,3725.8044700,N,12206.0215760,W,23.1439,11.9377,250620,,,,A*66
$GPGGA,003844.45,3725.8106260,N,12206.0192900,W,1,0,0.0,-30.6009,M,0.0000,M,0.0000,0000*77
$GPRMC,003844.45,A,3725.8106260,N,12206.0192900,W,23.3434,18.2084,250620,,,,A*63
$GPGGA,003845.45,3725.8169020,N,12206.0164700,W,1,0,0.0,-30.5385,M,0.0000,M,0.0000,0000*7a
$GPRMC,003845.45,A,3725.8169020,N,12206.0164700,W,24.5446,20.5104,250620,,,,A*6b
$GPGGA,003846.45,3725.8232560,N,12206.0134100,W,1,0,0.0,-30.4920,M,0.0000,M,0.0000,0000*72
$GPRMC,003846.45,A,3725.8232560,N,12206.0134100,W,24.0574,21.6042,250620,,,,A*63
$GPGGA,003847.45,3725.8292380,N,12206.0104280,W,1,0,0.0,-30.4384,M,0.0000,M,0.0000,0000*7d
$GPRMC,003847.45,A,3725.8292380,N,12206.0104280,W,22.0989,21.0708,250620,,,,A*6f
$GPGGA,003848.45,3725.8348000,N,12206.0086040,W,1,0,0.0,-30.3908,M,0.0000,M,0.0000,0000*73
$GPRMC,003848.45,A,3725.8348000,N,12206.0086040,W,19.6271,9.5781,250620,,,,A*54
$GPGGA,003849.45,3725.8400200,N,12206.0087420,W,1,0,0.0,-30.3652,M,0.0000,M,0.0000,0000*78
$GPRMC,003849.45,A,3725.8400200,N,12206.0087420,W,17.9734,353.2179,250620,,,,A*50
$GPGGA,003850.45,3725.8445440,N,12206.0107040,W,1,0,0.0,-30.3283,M,0.0000,M,0.0000,0000*70
$GPRMC,003850.45,A,3725.8445440,N,12206.0107040,W,16.1574,334.6961,250620,,,,A*5b
$GPGGA,003851.45,3725.8477840,N,12206.0138780,W,1,0,0.0,-30.4036,M,0.0000,M,0.0000,0000*70
$GPRMC,003851.45,A,3725.8477840,N,12206.0138780,W,13.7063,318.2449,250620,,,,A*5d
$GPGGA,003852.45,3725.8504720,N,12206.0172140,W,1,0,0.0,-30.4352,M,0.0000,M,0.0000,0000*7a
$GPRMC,003852.45,A,3725.8504720,N,12206.0172140,W,13.5509,315.2828,250620,,,,A*5b
$GPGGA,003853.45,3725.8532680,N,12206.0204480,W,1,0,0.0,-30.5790,M,0.0000,M,0.0000,0000*75
$GPRMC,003853.45,A,3725.8532680,N,12206.0204480,W,13.9931,319.4147,250620,,,,A*5e
$GPGGA,003854.45,3725.8567600,N,12206.0227640,W,1,0,0.0,-30.7551,M,0.0000,M,0.0000,0000*78
$GPRMC,003854.45,A,3725.8567600,N,12206.0227640,W,14.4202,337.2131,250620,,,,A*54
$GPGGA,003855.45,3725.8607440,N,12206.0236340,W,1,0,0.0,-30.8114,M,0.0000,M,0.0000,0000*75
$GPRMC,003855.45,A,3725.8607440,N,12206.0236340,W,14.7160,353.3047,250620,,,,A*54
$GPGGA,003856.45,3725.8650400,N,12206.0236640,W,1,0,0.0,-30.7509,M,0.0000,M,0.0000,0000*72
$GPRMC,003856.45,A,3725.8650400,N,12206.0236640,W,16.4397,1.4364,250620,,,,A*5e
$GPGGA,003857.45,3725.8698880,N,12206.0233040,W,1,0,0.0,-30.7374,M,0.0000,M,0.0000,0000*7c
$GPRMC,003857.45,A,3725.8698880,N,12206.0233040,W,18.5361,3.8405,250620,,,,A*54
$GPGGA,003858.45,3725.8753540,N,12206.0228540,W,1,0,0.0,-30.7236,M,0.0000,M,0.0000,0000*7c
$GPRMC,003858.45,A,3725.8753540,N,12206.0228540,W,20.8041,3.9050,250620,,,,A*51
$GPGGA,003859.45,3725.8813420,N,12206.0223800,W,1,0,0.0,-30.6714,M,0.0000,M,0.0000,0000*77
$GPRMC,003859.45,A,3725.8813420,N,12206.0223800,W,22.3289,3.4942,250620,,,,A*56
$GPGGA,003900.45,3725.8876960,N,12206.0218100,W,1,0,0.0,-30.5929,M,0.0000,M,0.0000,0000*72
$GPRMC,003900.45,A,3725.8876960,N,12206.0218100,W,23.1091,4.8979,250620,,,,A*5b
$GPGGA,003901.45,3725.8940680,N,12206.0209700,W,1,0,0.0,-30.5390,M,0.0000,M,0.0000,0000*78
$GPRMC,003901.45,A,3725.8940680,N,12206.0209700,W,22.8360,6.4003,250620,,,,A*56
$GPGGA,003902.45,3725.9003200,N,12206.0201000,W,1,0,0.0,-30.4556,M,0.0000,M,0.0000,0000*7a
$GPRMC,003902.45,A,3725.9003200,N,12206.0201000,W,22.6949,6.4744,250620,,,,A*52
$GPGGA,003903.45,3725.9067100,N,12206.0192300,W,1,0,0.0,-30.3161,M,0.0000,M,0.0000,0000*77
$GPRMC,003903.45,A,3725.9067100,N,12206.0192300,W,23.4245,6.2138,250620,,,,A*57
$GPGGA,003904.45,3725.9131360,N,12206.0183180,W,1,0,0.0,-30.1326,M,0.0000,M,0.0000,0000*7f
$GPRMC,003904.45,A,3725.9131360,N,12206.0183180,W,22.9192,7.0585,250620,,,,A*58
$GPGGA,003905.45,3725.9192380,N,12206.0173400,W,1,0,0.0,-29.9646,M,0.0000,M,0.0000,0000*78
$GPRMC,003905.45,A,3725.9192380,N,12206.0173400,W,21.1869,7.6741,250620,,,,A*56
$GPGGA,003906.45,3725.9247220,N,12206.0162660,W,1,0,0.0,-29.8114,M,0.0000,M,0.0000,0000*7e
$GPRMC,003906.45,A,3725.9247220,N,12206.0162660,W,18.5366,11.0384,250620,,,,A*67
$GPGGA,003907.45,3725.9291920,N,12206.0142020,W,1,0,0.0,-29.7394,M,0.0000,M,0.0000,0000*7a
$GPRMC,003907.45,A,3725.9291920,N,12206.0142020,W,16.1765,26.3071,250620,,,,A*65
$GPGGA,003908.45,3725.9323960,N,12206.0105420,W,1,0,0.0,-29.6502,M,0.0000,M,0.0000,0000*76
$GPRMC,003908.45,A,3725.9323960,N,12206.0105420,W,15.2249,49.7868,250620,,,,A*67
$GPGGA,003909.45,3725.9340580,N,12206.0056640,W,1,0,0.0,-29.5662,M,0.0000,M,0.0000,0000*75
$GPRMC,003909.45,A,3725.9340580,N,12206.0056640,W,15.8417,73.7484,250620,,,,A*62
$GPGGA,003910.45,3725.9342440,N,12205.9998140,W,1,0,0.0,-29.5628,M,0.0000,M,0.0000,0000*7a
$GPRMC,003910.45,A,3725.9342440,N,12205.9998140,W,18.0077,92.0457,250620,,,,A*62
$GPGGA,003911.45,3725.9335780,N,12205.9931120,W,1,0,0.0,-29.5932,M,0.0000,M,0.0000,0000*75
$GPRMC,003911.45,A,3725.9335780,N,12205.9931120,W,20.6834,98.3664,250620,,,,A*60
$GPGGA,003912.45,3725.9326600,N,12205.9855100,W,1,0,0.0,-29.6643,M,0.0000,M,0.0000,0000*76
$GPRMC,003912.45,A,3725.9326600,N,12205.9855100,W,23.3325,98.7893,250620,,,,A*66
$GPGGA,003913.45,3725.9316940,N,12205.9771040,W,1,0,0.0,-29.6892,M,0.0000,M,0.0000,0000*71
$GPRMC,003913.45,A,3725.9316940,N,12205.9771040,W,25.2082,97.9658,250620,,,,A*62
$GPGGA,003914.45,3725.9308180,N,12205.9680680,W,1,0,0.0,-29.7540,M,0.0000,M,0.0000,0000*7b
$GPRMC,003914.45,A,3725.9308180,N,12205.9680680,W,26.8875,96.4659,250620,,,,A*6f
$GPGGA,003915.45,3725.9300440,N,12205.9585820,W,1,0,0.0,-29.7607,M,0.0000,M,0.0000,0000*79
$GPRMC,003915.45,A,3725.9300440,N,12205.9585820,W,27.5919,95.6951,250620,,,,A*6c
$GPGGA,003916.45,3725.9293300,N,12205.9490540,W,1,0,0.0,-29.8142,M,0.0000,M,0.0000,0000*75
$GPRMC,003916.45,A,3725.9293300,N,12205.9490540,W,27.2615,95.4199,250620,,,,A*63
$GPGGA,003917.45,3725.9286040,N,12205.9396400,W,1,0,0.0,-29.8837,M,0.0000,M,0.0000,0000*78
$GPRMC,003917.45,A,3725.9286040,N,12205.9396400,W,27.0912,95.7249,250620,,,,A*62
$GPGGA,003918.45,3725.9278240,N,12205.9301900,W,1,0,0.0,-29.8243,M,0.0000,M,0.0000,0000*7e
$GPRMC,003918.45,A,3725.9278240,N,12205.9301900,W,27.4101,95.9809,250620,,,,A*63
$GPGGA,003919.45,3725.9270140,N,12205.9206140,W,1,0,0.0,-29.8686,M,0.0000,M,0.0000,0000*73
$GPRMC,003919.45,A,3725.9270140,N,12205.9206140,W,27.8586,96.2148,250620,,,,A*60
$GPGGA,003920.45,3725.9261200,N,12205.9110020,W,1,0,0.0,-29.8393,M,0.0000,M,0.0000,0000*7c
$GPRMC,003920.45,A,3725.9261200,N,12205.9110020,W,27.5290,96.9696,250620,,,,A*6c
$GPGGA,003921.45,3725.9251420,N,12205.9015520,W,1,0,0.0,-29.8053,M,0.0000,M,0.0000,0000*74
$GPRMC,003921.45,A,3725.9251420,N,12205.9015520,W,27.1795,97.6302,250620,,,,A*69
$GPGGA,003922.45,3725.9240920,N,12205.8922760,W,1,0,0.0,-29.8416,M,0.0000,M,0.0000,0000*75
$GPRMC,003922.45,A,3725.9240920,N,12205.8922760,W,26.3653,98.1587,250620,,,,A*66
$GPGGA,003923.45,3725.9231140,N,12205.8835040,W,1,0,0.0,-29.9147,M,0.0000,M,0.0000,0000*7e
$GPRMC,003923.45,A,3725.9231140,N,12205.8835040,W,24.2312,97.2752,250620,,,,A*68
$GPGGA,003924.45,3725.9224480,N,12205.8757040,W,1,0,0.0,-29.9557,M,0.0000,M,0.0000,0000*7a
$GPRMC,003924.45,A,3725.9224480,N,12205.8757040,W,20.7030,94.6148,250620,,,,A*61
$GPGGA,003925.45,3725.9225020,N,12205.8690920,W,1,0,0.0,-29.9598,M,0.0000,M,0.0000,0000*72
$GPRMC,003925.45,A,3725.9225020,N,12205.8690920,W,17.6173,85.4931,250620,,,,A*6d
$GPGGA,003926.45,3725.9236900,N,12205.8634820,W,1,0,0.0,-29.9306,M,0.0000,M,0.0000,0000*76
$GPRMC,003926.45,A,3725.9236900,N,12205.8634820,W,15.8315,69.6616,250620,,,,A*6c
$GPGGA,003927.45,3725.9260000,N,12205.8591680,W,1,0,0.0,-29.9262,M,0.0000,M,0.0000,0000*76
$GPRMC,003927.45,A,3725.9260000,N,12205.8591680,W,14.2572,50.1826,250620,,,,A*63
$GPGGA,003928.45,3725.9291560,N,12205.8564440,W,1,0,0.0,-29.9634,M,0.0000,M,0.0000,0000*77
$GPRMC,003928.45,A,3725.9291560,N,12205.8564440,W,12.9189,27.9115,250620,,,,A*69
$GPGGA,003929.45,3725.9323000,N,12205.8559940,W,1,0,0.0,-29.9828,M,0.0000,M,0.0000,0000*7d
$GPRMC,003929.45,A,3725.9323000,N,12205.8559940,W,10.0431,359.5383,250620,,,,A*56
$GPGGA,003930.45,3725.9345560,N,12205.8574340,W,1,0,0.0,-29.9564,M,0.0000,M,0.0000,0000*76
$GPRMC,003930.45,A,3725.9345560,N,12205.8574340,W,8.1939,328.8890,250620,,,,A*67
$GPGGA,003931.45,3725.9355940,N,12205.8597620,W,1,0,0.0,-30.0071,M,0.0000,M,0.0000,0000*76
$GPRMC,003931.45,A,3725.9355940,N,12205.8597620,W,7.2049,299.1934,250620,,,,A*68
$GPGGA,003932.45,3725.9359720,N,12205.8622700,W,1,0,0.0,-30.1447,M,0.0000,M,0.0000,0000*7f
$GPRMC,003932.45,A,3725.9359720,N,12205.8622700,W,7.0049,281.8950,250620,,,,A*61
$GPGGA,003933.45,3725.9362180,N,12205.8647300,W,1,0,0.0,-30.0240,M,0.0000,M,0.0000,0000*7d
$GPRMC,003933.45,A,3725.9362180,N,12205.8647300,W,7.3394,277.6852,250620,,,,A*67
$GPGGA,003934.45,3725.9365120,N,12205.8676700,W,1,0,0.0,-29.9249,M,0.0000,M,0.0000,0000*79
$GPRMC,003934.45,A,3725.9365120,N,12205.8676700,W,10.2587,276.8373,250620,,,,A*5f
$GPGGA,003935.45,3725.9369620,N,12205.8720380,W,1,0,0.0,-29.8934,M,0.0000,M,0.0000,0000*7d
$GPRMC,003935.45,A,3725.9369620,N,12205.8720380,W,14.9005,277.3087,250620,,,,A*59
$GPGGA,003936.45,3725.9376160,N,12205.8777860,W,1,0,0.0,-29.7890,M,0.0000,M,0.0000,0000*74
$GPRMC,003936.45,A,3725.9376160,N,12205.8777860,W,17.9841,278.1707,250620,,,,A*59
$GPGGA,003937.45,3725.9384080,N,12205.8843080,W,1,0,0.0,-29.6923,M,0.0000,M,0.0000,0000*71
$GPRMC,003937.45,A,3725.9384080,N,12205.8843080,W,19.6014,278.4045,250620,,,,A*59
$GPGGA,003938.45,3725.9391280,N,12205.8910580,W,1,0,0.0,-29.6015,M,0.0000,M,0.0000,0000*76
$GPRMC,003938.45,A,3725.9391280,N,12205.8910580,W,19.0870,276.6737,250620,,,,A*50
$GPGGA,003939.45,3725.9392000,N,12205.8972860,W,1,0,0.0,-29.5378,M,0.0000,M,0.0000,0000*72
$GPRMC,003939.45,A,3725.9392000,N,12205.8972860,W,16.5850,266.3712,250620,,,,A*54
$GPGGA,003940.45,3725.9380180,N,12205.9023380,W,1,0,0.0,-29.5712,M,0.0000,M,0.0000,0000*77
$GPRMC,003940.45,A,3725.9380180,N,12205.9023380,W,13.6106,247.7295,250620,,,,A*58
$GPGGA,003941.45,3725.9360680,N,12205.9057340,W,1,0,0.0,-29.6881,M,0.0000,M,0.0000,0000*76
$GPRMC,003941.45,A,3725.9360680,N,12205.9057340,W,10.5540,230.4600,250620,,,,A*52
$GPGGA,003942.45,3725.9339500,N,12205.9075760,W,1,0,0.0,-29.7101,M,0.0000,M,0.0000,0000*74
$GPRMC,003942.45,A,3725.9339500,N,12205.9075760,W,7.6575,213.0087,250620,,,,A*6f
$GPGGA,003943.45,3725.9323840,N,12205.9083860,W,1,0,0.0,-29.8037,M,0.0000,M,0.0000,0000*7a
$GPRMC,003943.45,A,3725.9323840,N,12205.9083860,W,5.6365,205.0746,250620,,,,A*62
$GPGGA,003944.45,3725.9310820,N,12205.9095740,W,1,0,0.0,-30.0588,M,0.0000,M,0.0000,0000*70
$GPRMC,003944.45,A,3725.9310820,N,12205.9095740,W,6.4343,215.8607,250620,,,,A*61
$GPGGA,003945.45,3725.9300020,N,12205.9119740,W,1,0,0.0,-29.9264,M,0.0000,M,0.0000,0000*79
$GPRMC,003945.45,A,3725.9300020,N,12205.9119740,W,9.5294,241.0622,250620,,,,A*67
$GPGGA,003946.45,3725.9296060,N,12205.9161440,W,1,0,0.0,-29.8873,M,0.0000,M,0.0000,0000*71
$GPRMC,003946.45,A,3725.9296060,N,12205.9161440,W,14.7468,266.2745,250620,,,,A*5e
$GPGGA,003947.45,3725.9299900,N,12205.9222340,W,1,0,0.0,-29.8978,M,0.0000,M,0.0000,0000*79
$GPRMC,003947.45,A,3725.9299900,N,12205.9222340,W,20.1899,276.5966,250620,,,,A*56
$GPGGA,003948.45,3725.9309380,N,12205.9300100,W,1,0,0.0,-29.8442,M,0.0000,M,0.0000,0000*7f
$GPRMC,003948.45,A,3725.9309380,N,12205.9300100,W,24.9261,278.6608,250620,,,,A*5f
$GPGGA,003949.45,3725.9318680,N,12205.9393100,W,1,0,0.0,-29.8831,M,0.0000,M,0.0000,0000*79
$GPRMC,003949.45,A,3725.9318680,N,12205.9393100,W,28.5867,276.4200,250620,,,,A*5d
$GPGGA,003950.45,3725.9326180,N,12205.9497920,W,1,0,0.0,-29.8355,M,0.0000,M,0.0000,0000*7b
$GPRMC,003950.45,A,3725.9326180,N,12205.9497920,W,31.2846,274.5575,250620,,,,A*5c
$GPGGA,003951.45,3725.9332420,N,12205.9607960,W,1,0,0.0,-29.7563,M,0.0000,M,0.0000,0000*73
$GPRMC,003951.45,A,3725.9332420,N,12205.9607960,W,31.6109,274.3341,250620,,,,A*59
$GPGGA,003952.45,3725.9339920,N,12205.9715360,W,1,0,0.0,-29.7104,M,0.0000,M,0.0000,0000*7b
$GPRMC,003952.45,A,3725.9339920,N,12205.9715360,W,29.7425,275.5164,250620,,,,A*55
$GPGGA,003953.45,3725.9348140,N,12205.9813100,W,1,0,0.0,-29.6479,M,0.0000,M,0.0000,0000*71
$GPRMC,003953.45,A,3725.9348140,N,12205.9813100,W,26.5294,276.4362,250620,,,,A*56
$GPGGA,003954.45,3725.9356180,N,12205.9898180,W,1,0,0.0,-29.5990,M,0.0000,M,0.0000,0000*77
$GPRMC,003954.45,A,3725.9356180,N,12205.9898180,W,22.5492,276.6220,250620,,,,A*58
$GPGGA,003955.45,3725.9361940,N,12205.9970600,W,1,0,0.0,-29.5323,M,0.0000,M,0.0000,0000*7c
$GPRMC,003955.45,A,3725.9361940,N,12205.9970600,W,19.0506,275.2864,250620,,,,A*5d
$GPGGA,003956.45,3725.9366200,N,12206.0028320,W,1,0,0.0,-29.5123,M,0.0000,M,0.0000,0000*7c
$GPRMC,003956.45,A,3725.9366200,N,12206.0028320,W,13.9611,275.4811,250620,,,,A*5d
$GPGGA,003957.45,3725.9369260,N,12206.0066900,W,1,0,0.0,-29.4848,M,0.0000,M,0.0000,0000*73
$GPRMC,003957.45,A,3725.9369260,N,12206.0066900,W,8.1738,275.3039,250620,,,,A*6a
$GPGGA,003958.45,3725.9370160,N,12206.0091320,W,1,0,0.0,-29.4854,M,0.0000,M,0.0000,0000*7a
$GPRMC,003958.45,A,3725.9370160,N,12206.0091320,W,6.6877,271.5364,250620,,,,A*6a
