% program   : RTKLIB ver.demo5 gdsc_2022
% inp file  : supplemental\gnss_log.obs
% inp file  : ..\slac2000.21o
% inp file  : ..\BRDM00DLR_S_20212000000_01D_MN.rnx
% obs start : 2021/07/19 20:49:40.0 GPST (week2167 161380.0s)
% obs end   : 2021/07/19 21:21:17.0 GPST (week2167 163277.0s)
% pos mode  : Kinematic
% freqs     : L1+L2/E5b+L5
% solution  : Combined-No Phase Reset
% elev mask : 5.0 deg
% dynamics  : on
% tidecorr  : off
% ionos opt : Broadcast
% tropo opt : Saastamoinen
% ephemeris : Broadcast
% navi sys  : GPS GLONASS Galileo
% amb res   : OFF
% amb glo   : OFF
% val thres : 3.0
% antenna1  :                       ( 0.0000  0.0000  0.0000)
% antenna2  :                       ( 0.0000  0.0000  0.0000)
% ref pos   : 37.416519040-122.204268280   63.7780
%
% (lat/lon/height=WGS84/ellipsoidal,Q=1:fix,2:float,3:sbas,4:dgps,5:single,6:ppp,ns=# of satellites)
%  GPST          latitude(deg) longitude(deg)  height(m)   Q  ns   sdn(m)   sde(m)   sdu(m)  sdne(m)  sdeu(m)  sdun(m) age(s)  ratio
2167 161380.000   37.444044317 -122.232746064    -0.9549   2   8   0.7132   0.5388   1.5399  -0.1907  -0.3597   0.2887  10.00    0.0
2167 161381.000   37.444040457 -122.232740949    -2.4081   2   7   0.6859   0.5381   1.5617  -0.1857  -0.3777   0.3022  11.00    0.0
2167 161382.000   37.444014771 -122.232743653    -4.3037   2   4   0.6869   0.5490   1.5832  -0.1819  -0.3813   0.2308  12.00    0.0
2167 161383.000   37.444021684 -122.232738131    -5.2705   2   5   0.7082   0.5561   1.5825  -0.1321  -0.4024   0.3290  13.00    0.0
2167 161384.000   37.443999218 -122.232697651   -24.9363   2   6   0.6712   0.6921   2.2249   0.1437  -0.5439   0.3809  14.00    0.0
2167 161385.000   37.443973112 -122.232741825   -20.5173   4   3   0.7898   0.6099   2.1706  -0.2865  -0.5838   0.4228  15.00    0.0
2167 161386.000   37.443991095 -122.232796997   -12.6455   4   3   0.7584   0.5298   1.9463  -0.1973  -0.5502   0.2100 -14.00    0.0
2167 161387.000   37.444035985 -122.232830006    -4.1245   4   1   0.8259   0.6415   1.7051   0.1704  -0.4725   0.2611 -13.00    0.0
2167 161388.000   37.444118286 -122.232830301     1.6448   4   3   0.5672   0.5506   1.5220   0.0486  -0.5340  -0.4128 -12.00    0.0
2167 161389.000   37.444116505 -122.232841373    14.8078   2   7   0.4728   0.6776   1.3456  -0.2951  -0.5604   0.2949 -11.00    0.0
2167 161390.000   37.444114566 -122.232825104    15.0732   2   6   0.9937   1.1349   1.0375  -0.5710  -0.4958   0.6395 -10.00    0.0
2167 161391.000   37.444115956 -122.232851121    12.8433   4   1   0.5027   0.8785   0.6480  -0.4500  -0.4411   0.4221  -9.00    0.0
2167 161392.000   37.444117086 -122.232859046    10.9112   4   2   0.2807   0.5512   0.3992  -0.3307  -0.3678   0.2625  -8.00    0.0
2167 161393.000   37.444107050 -122.232883442     9.4985   2   4   0.1761   0.1944   0.2641  -0.0561  -0.1542   0.0984  -7.00    0.0
2167 161394.000   37.444084007 -122.232916889     9.0576   2   9   0.1549   0.1239   0.2393   0.0961  -0.0874   0.0358  -6.00    0.0
2167 161395.000   37.444056041 -122.232942664     8.9672   2   9   0.1557   0.1256   0.2448   0.0952  -0.0921   0.0428  -5.00    0.0
2167 161396.000   37.444036340 -122.232953313     8.7234   2   8   0.1624   0.1190   0.2558   0.0954  -0.0818   0.0768  -4.00    0.0
2167 161397.000   37.444019962 -122.232964326     8.9406   2   6   0.1529   0.1193   0.2252   0.0983  -0.0757  -0.0328  -3.00    0.0
2167 161398.000   37.443995472 -122.232980396     8.9459   2   9   0.1515   0.1190   0.2261   0.0962  -0.0776  -0.0383  -2.00    0.0
2167 161399.000   37.443963802 -122.233000256     8.8612   2   9   0.1524   0.1199   0.2268   0.0961  -0.0777  -0.0432  -1.00    0.0
2167 161400.000   37.443927517 -122.233024334     8.7957   2  12   0.1548   0.1199   0.2263   0.0938  -0.0723  -0.0486  -0.00    0.0
2167 161401.000   37.443895135 -122.233049999     9.1111   2  11   0.1688   0.1237   0.2403   0.0842  -0.0611  -0.0868   1.00    0.0
2167 161402.000   37.443873997 -122.233071221     8.8477   2  10   0.1458   0.1134   0.2157   0.0999  -0.0713  -0.0062   2.00    0.0
2167 161403.000   37.443861745 -122.233087721     8.6344   2  11   0.1454   0.1125   0.2166   0.1000  -0.0716   0.0144   3.00    0.0
2167 161404.000   37.443854828 -122.233111780     8.6348   2  10   0.1466   0.1139   0.2195   0.1017  -0.0727   0.0184   4.00    0.0
2167 161405.000   37.443857501 -122.233146007     8.7207   2   7   0.1489   0.1129   0.2345   0.1007  -0.0720   0.0514   5.00    0.0
2167 161406.000   37.443871547 -122.233194764     9.0541   2  10   0.1450   0.1132   0.2071   0.1011  -0.0729  -0.0292   6.00    0.0
2167 161407.000   37.443897758 -122.233262002     8.9225   2  10   0.1475   0.1136   0.2142   0.1014  -0.0728   0.0264   7.00    0.0
2167 161408.000   37.443935204 -122.233344139     8.6952   2  10   0.1435   0.1136   0.1983   0.1018  -0.0712  -0.0456   8.00    0.0
2167 161409.000   37.443980974 -122.233434952     8.4811   2  12   0.1442   0.1137   0.1970   0.1020  -0.0710  -0.0450   9.00    0.0
2167 161410.000   37.444029512 -122.233534667     8.1428   2  14   0.1450   0.1138   0.1965   0.1021  -0.0707  -0.0467  10.00    0.0
2167 161411.000   37.444080514 -122.233636834     7.8698   2  15   0.1463   0.1142   0.1985   0.1021  -0.0715  -0.0473  11.00    0.0
2167 161412.000   37.444132991 -122.233741599     7.7872   2  15   0.1514   0.1172   0.2042   0.1024  -0.0782  -0.0490  12.00    0.0
2167 161413.000   37.444187566 -122.233843999     8.0839   2  11   0.1622   0.1294   0.2464   0.1070  -0.0899  -0.0361  13.00    0.0
2167 161414.000   37.444245302 -122.233947543     7.9453   2   8   0.1682   0.1472   0.2121   0.1384  -0.0952  -0.0397  14.00    0.0
2167 161415.000   37.444293892 -122.234040352     7.6004   2   5   0.1506   0.1410   0.1675   0.1336  -0.0949  -0.1042  15.00    0.0
2167 161416.000   37.444337444 -122.234118617     7.2763   2   8   0.0666   0.0528   0.1569   0.0152  -0.0454  -0.0616 -14.00    0.0
2167 161417.000   37.444369559 -122.234184450     7.0560   2  13   0.0650   0.0520   0.1548   0.0164  -0.0429  -0.0628 -13.00    0.0
2167 161418.000   37.444387959 -122.234227961     6.9476   2  13   0.0643   0.0519   0.1549   0.0158  -0.0428  -0.0633 -12.00    0.0
2167 161419.000   37.444398677 -122.234254533     6.9250   2  12   0.0641   0.0518   0.1542   0.0157  -0.0424  -0.0627 -11.00    0.0
2167 161420.000   37.444404018 -122.234266362     6.8675   2  15   0.0643   0.0518   0.1540   0.0157  -0.0421  -0.0628 -10.00    0.0
2167 161421.000   37.444404237 -122.234267132     6.8721   2  16   0.0644   0.0519   0.1542   0.0154  -0.0421  -0.0630  -9.00    0.0
2167 161422.000   37.444404343 -122.234267169     6.8768   2  12   0.0648   0.0517   0.1538   0.0160  -0.0429  -0.0626  -8.00    0.0
2167 161423.000   37.444404309 -122.234267293     6.8725   2  12   0.0641   0.0517   0.1537   0.0156  -0.0429  -0.0625  -7.00    0.0
2167 161424.000   37.444404518 -122.234267226     6.8389   2  12   0.0642   0.0518   0.1539   0.0157  -0.0426  -0.0623  -6.00    0.0
2167 161425.000   37.444404421 -122.234267107     6.8445   2  12   0.0642   0.0514   0.1532   0.0150  -0.0434  -0.0629  -5.00    0.0
2167 161426.000   37.444404539 -122.234267056     6.8380   2  14   0.0642   0.0514   0.1532   0.0149  -0.0433  -0.0628  -4.00    0.0
2167 161427.000   37.444404633 -122.234266923     6.8207   2  14   0.0641   0.0514   0.1530   0.0148  -0.0433  -0.0626  -3.00    0.0
2167 161428.000   37.444404706 -122.234267032     6.8319   2  16   0.0641   0.0514   0.1529   0.0149  -0.0432  -0.0627  -2.00    0.0
2167 161429.000   37.444404671 -122.234266892     6.7951   2  15   0.0642   0.0515   0.1531   0.0150  -0.0431  -0.0628  -1.00    0.0
2167 161430.000   37.444404852 -122.234267002     6.7972   2  14   0.0644   0.0514   0.1534   0.0158  -0.0437  -0.0629  -0.00    0.0
2167 161431.000   37.444404848 -122.234266971     6.8056   2  15   0.0645   0.0516   0.1537   0.0164  -0.0441  -0.0630   1.00    0.0
2167 161432.000   37.444404830 -122.234266957     6.7822   2  16   0.0649   0.0519   0.1541   0.0171  -0.0445  -0.0630   2.00    0.0
2167 161433.000   37.444409478 -122.234278400     6.7344   2  13   0.0656   0.0525   0.1554   0.0186  -0.0460  -0.0632   3.00    0.0
2167 161434.000   37.444423840 -122.234319848     6.7038   2  14   0.0664   0.0536   0.1576   0.0216  -0.0488  -0.0649   4.00    0.0
2167 161435.000   37.444436122 -122.234385293     6.8494   2   7   0.0660   0.0534   0.1576   0.0220  -0.0484  -0.0653   5.00    0.0
2167 161436.000   37.444433067 -122.234466877     7.0974   2  11   0.0619   0.0496   0.1493   0.0046  -0.0395  -0.0611   6.00    0.0
2167 161437.000   37.444407364 -122.234550321     6.7383   2   8   0.0615   0.0493   0.1455  -0.0088  -0.0352  -0.0591   7.00    0.0
2167 161438.000   37.444353911 -122.234629180     6.3555   2  10   0.0608   0.0479   0.1412  -0.0136  -0.0286  -0.0561   8.00    0.0
2167 161439.000   37.444277602 -122.234699076     6.5621   2  16   0.0604   0.0472   0.1411  -0.0126  -0.0272  -0.0564   9.00    0.0
2167 161440.000   37.444185426 -122.234770607     6.8953   2  14   0.0604   0.0475   0.1418  -0.0131  -0.0262  -0.0566  10.00    0.0
2167 161441.000   37.444080264 -122.234845213     7.2546   2   8   0.0606   0.0477   0.1426  -0.0124  -0.0267  -0.0566  11.00    0.0
2167 161442.000   37.443965667 -122.234920522     7.7793   2  11   0.0611   0.0471   0.1388  -0.0100  -0.0292  -0.0546  12.00    0.0
2167 161443.000   37.443840791 -122.235000792     8.3332   2  14   0.0598   0.0470   0.1376  -0.0119  -0.0295  -0.0560  13.00    0.0
2167 161444.000   37.443707389 -122.235086678     8.6742   2  16   0.0598   0.0472   0.1374  -0.0116  -0.0299  -0.0563  14.00    0.0
2167 161445.000   37.443566427 -122.235179066     8.7784   2  15   0.0597   0.0470   0.1359  -0.0131  -0.0275  -0.0555  15.00    0.0
2167 161446.000   37.443418162 -122.235277305     8.9376   2  13   0.0594   0.0472   0.1361  -0.0137  -0.0271  -0.0552 -14.00    0.0
2167 161447.000   37.443268414 -122.235377950     9.1307   2  14   0.0594   0.0480   0.1365  -0.0143  -0.0274  -0.0551 -13.00    0.0
2167 161448.000   37.443121565 -122.235477189     9.3611   2  10   0.0594   0.0471   0.1366  -0.0145  -0.0281  -0.0553 -12.00    0.0
2167 161449.000   37.442978190 -122.235573533     9.6031   2  12   0.0595   0.0471   0.1363  -0.0149  -0.0265  -0.0556 -11.00    0.0
2167 161450.000   37.442834689 -122.235669095    10.0439   2  10   0.0600   0.0472   0.1369  -0.0161  -0.0235  -0.0570 -10.00    0.0
2167 161451.000   37.442691059 -122.235763893    10.6779   2  14   0.0594   0.0471   0.1374  -0.0147  -0.0259  -0.0560  -9.00    0.0
2167 161452.000   37.442546639 -122.235858353    11.5063   2  13   0.0591   0.0469   0.1351  -0.0141  -0.0276  -0.0546  -8.00    0.0
2167 161453.000   37.442404731 -122.235950569    12.5019   2  12   0.0591   0.0469   0.1352  -0.0141  -0.0279  -0.0546  -7.00    0.0
2167 161454.000   37.442268406 -122.236040384    13.5585   2  14   0.0583   0.0465   0.1351  -0.0109  -0.0281  -0.0543  -6.00    0.0
2167 161455.000   37.442137602 -122.236127854    14.3823   2  14   0.0583   0.0466   0.1360  -0.0110  -0.0275  -0.0550  -5.00    0.0
2167 161456.000   37.442010875 -122.236214469    15.2272   2  13   0.0586   0.0468   0.1375  -0.0113  -0.0266  -0.0553  -4.00    0.0
2167 161457.000   37.441884838 -122.236302504    15.9891   2  12   0.0590   0.0464   0.1350  -0.0092  -0.0291  -0.0539  -3.00    0.0
2167 161458.000   37.441759395 -122.236391538    16.7175   2  15   0.0583   0.0461   0.1335  -0.0107  -0.0303  -0.0545  -2.00    0.0
2167 161459.000   37.441630202 -122.236482693    17.4158   2  14   0.0581   0.0461   0.1329  -0.0105  -0.0317  -0.0545  -1.00    0.0
2167 161460.000   37.441494969 -122.236580725    18.2276   2  12   0.0575   0.0463   0.1333  -0.0107  -0.0317  -0.0544  -0.00    0.0
2167 161461.000   37.441361295 -122.236693913    19.0038   2  12   0.0569   0.0463   0.1308  -0.0117  -0.0287  -0.0540   1.00    0.0
2167 161462.000   37.441228757 -122.236824928    19.9337   2  11   0.0562   0.0450   0.1298  -0.0091  -0.0270  -0.0536   2.00    0.0
2167 161463.000   37.441097303 -122.236972663    20.9337   2  13   0.0561   0.0446   0.1294  -0.0070  -0.0265  -0.0536   3.00    0.0
2167 161464.000   37.440969246 -122.237138034    22.0896   2  14   0.0558   0.0443   0.1294  -0.0044  -0.0252  -0.0546   4.00    0.0
2167 161465.000   37.440849476 -122.237318952    23.2350   2  13   0.0555   0.0441   0.1292   0.0020  -0.0255  -0.0547   5.00    0.0
2167 161466.000   37.440740465 -122.237511627    24.3940   2  18   0.0554   0.0440   0.1291   0.0033  -0.0255  -0.0545   6.00    0.0
2167 161467.000   37.440635043 -122.237710307    25.7633   2  17   0.0554   0.0441   0.1292   0.0022  -0.0253  -0.0546   7.00    0.0
2167 161468.000   37.440530348 -122.237908382    27.0693   2  16   0.0556   0.0440   0.1293  -0.0011  -0.0251  -0.0547   8.00    0.0
2167 161469.000   37.440419674 -122.238099513    28.4369   2  17   0.0560   0.0440   0.1297  -0.0040  -0.0248  -0.0553   9.00    0.0
2167 161470.000   37.440302759 -122.238285228    29.5218   2  11   0.0563   0.0441   0.1299  -0.0044  -0.0247  -0.0555  10.00    0.0
2167 161471.000   37.440182386 -122.238467775    30.6357   2  13   0.0557   0.0437   0.1291   0.0052  -0.0257  -0.0546  11.00    0.0
2167 161472.000   37.440057849 -122.238648173    31.7560   2  15   0.0559   0.0439   0.1294   0.0043  -0.0259  -0.0548  12.00    0.0
2167 161473.000   37.439926961 -122.238825532    32.8993   2  11   0.0562   0.0437   0.1298   0.0038  -0.0253  -0.0554  13.00    0.0
2167 161474.000   37.439791383 -122.238996654    33.9092   2  12   0.0563   0.0437   0.1294   0.0044  -0.0259  -0.0553  14.00    0.0
2167 161475.000   37.439651513 -122.239161215    34.9956   2  13   0.0542   0.0436   0.1276   0.0099  -0.0280  -0.0519  15.00    0.0
2167 161476.000   37.439509151 -122.239314924    36.4114   2  14   0.0528   0.0435   0.1276   0.0090  -0.0287  -0.0516 -14.00    0.0
2167 161477.000   37.439367190 -122.239456926    37.5839   2  17   0.0523   0.0430   0.1255   0.0068  -0.0256  -0.0506 -13.00    0.0
2167 161478.000   37.439225408 -122.239594442    38.5937   2  14   0.0524   0.0430   0.1253   0.0060  -0.0255  -0.0505 -12.00    0.0
2167 161479.000   37.439081678 -122.239723773    39.5928   2  17   0.0522   0.0428   0.1251   0.0071  -0.0262  -0.0500 -11.00    0.0
2167 161480.000   37.438935982 -122.239846240    40.4920   2  17   0.0521   0.0427   0.1246   0.0074  -0.0259  -0.0503 -10.00    0.0
2167 161481.000   37.438788793 -122.239962290    41.2752   2  17   0.0521   0.0427   0.1246   0.0077  -0.0259  -0.0504  -9.00    0.0
2167 161482.000   37.438638451 -122.240073680    41.7943   2  14   0.0522   0.0428   0.1247   0.0078  -0.0260  -0.0504  -8.00    0.0
2167 161483.000   37.438483212 -122.240180176    42.3051   2  17   0.0521   0.0426   0.1242   0.0065  -0.0249  -0.0499  -7.00    0.0
2167 161484.000   37.438322531 -122.240279992    42.7004   2  16   0.0521   0.0426   0.1242   0.0063  -0.0250  -0.0499  -6.00    0.0
2167 161485.000   37.438157515 -122.240373538    42.9701   2  16   0.0522   0.0426   0.1245   0.0059  -0.0252  -0.0500  -5.00    0.0
2167 161486.000   37.437988082 -122.240462753    43.1571   2  16   0.0522   0.0427   0.1249   0.0057  -0.0252  -0.0500  -4.00    0.0
2167 161487.000   37.437816190 -122.240547211    43.2514   2  18   0.0521   0.0427   0.1245   0.0059  -0.0252  -0.0498  -3.00    0.0
2167 161488.000   37.437642889 -122.240627669    43.3923   2  16   0.0520   0.0426   0.1247   0.0066  -0.0254  -0.0498  -2.00    0.0
2167 161489.000   37.437469071 -122.240709388    43.6612   2  16   0.0522   0.0426   0.1248   0.0065  -0.0253  -0.0498  -1.00    0.0
2167 161490.000   37.437296481 -122.240796247    43.9828   2  18   0.0520   0.0425   0.1246   0.0065  -0.0254  -0.0495  -0.00    0.0
2167 161491.000   37.437126076 -122.240888716    44.4681   2  18   0.0518   0.0425   0.1247   0.0070  -0.0255  -0.0495   1.00    0.0
2167 161492.000   37.436962115 -122.240987878    44.9913   2  18   0.0518   0.0426   0.1249   0.0068  -0.0255  -0.0493   2.00    0.0
2167 161493.000   37.436806927 -122.241097384    45.5695   2  14   0.0520   0.0427   0.1252   0.0068  -0.0256  -0.0493   3.00    0.0
2167 161494.000   37.436664742 -122.241221953    46.2289   2  16   0.0518   0.0424   0.1244   0.0075  -0.0252  -0.0501   4.00    0.0
2167 161495.000   37.436539230 -122.241361786    46.9128   2  15   0.0520   0.0424   0.1245   0.0071  -0.0248  -0.0505   5.00    0.0
2167 161496.000   37.436428179 -122.241509883    47.4488   2  13   0.0522   0.0425   0.1248   0.0075  -0.0251  -0.0505   6.00    0.0
2167 161497.000   37.436326822 -122.241658484    48.0572   2  12   0.0519   0.0426   0.1246   0.0064  -0.0249  -0.0503   7.00    0.0
2167 161498.000   37.436234178 -122.241804624    48.7091   2  15   0.0517   0.0424   0.1240   0.0062  -0.0249  -0.0496   8.00    0.0
2167 161499.000   37.436151772 -122.241945385    49.3629   2  15   0.0517   0.0425   0.1239   0.0064  -0.0250  -0.0494   9.00    0.0
2167 161500.000   37.436082784 -122.242076411    50.0121   2  16   0.0519   0.0426   0.1241   0.0067  -0.0251  -0.0492  10.00    0.0
2167 161501.000   37.436032992 -122.242190467    50.4499   2  13   0.0521   0.0428   0.1247   0.0079  -0.0255  -0.0490  11.00    0.0
2167 161502.000   37.436004303 -122.242281191    50.8478   2  11   0.0516   0.0430   0.1246   0.0066  -0.0270  -0.0498  12.00    0.0
2167 161503.000   37.435990491 -122.242345843    51.2144   2  12   0.0517   0.0435   0.1251   0.0066  -0.0281  -0.0498  13.00    0.0
2167 161504.000   37.435985498 -122.242384386    51.3042   2  12   0.0518   0.0435   0.1257   0.0082  -0.0289  -0.0503  14.00    0.0
2167 161505.000   37.435983562 -122.242405891    51.2476   2  13   0.0516   0.0414   0.1239   0.0072  -0.0236  -0.0496  15.00    0.0
2167 161506.000   37.435981600 -122.242434334    51.3445   2  14   0.0517   0.0409   0.1235   0.0064  -0.0218  -0.0493 -14.00    0.0
2167 161507.000   37.435980375 -122.242489893    51.4974   2  11   0.0519   0.0410   0.1237   0.0063  -0.0219  -0.0490 -13.00    0.0
2167 161508.000   37.435984999 -122.242568016    51.7821   2  14   0.0519   0.0408   0.1240   0.0066  -0.0222  -0.0484 -12.00    0.0
2167 161509.000   37.435998692 -122.242657701    52.2872   2  12   0.0513   0.0407   0.1231   0.0065  -0.0218  -0.0493 -11.00    0.0
2167 161510.000   37.436022684 -122.242755924    52.6245   2  11   0.0514   0.0408   0.1232   0.0071  -0.0218  -0.0494 -10.00    0.0
2167 161511.000   37.436053504 -122.242863838    53.0645   2  15   0.0513   0.0407   0.1230   0.0066  -0.0217  -0.0493  -9.00    0.0
2167 161512.000   37.436090760 -122.242979553    53.6171   2  15   0.0512   0.0407   0.1231   0.0065  -0.0219  -0.0494  -8.00    0.0
2167 161513.000   37.436133239 -122.243099726    54.2291   2  15   0.0513   0.0408   0.1233   0.0068  -0.0222  -0.0495  -7.00    0.0
2167 161514.000   37.436179305 -122.243221102    54.9172   2  14   0.0513   0.0407   0.1232   0.0061  -0.0216  -0.0492  -6.00    0.0
2167 161515.000   37.436225246 -122.243337645    55.6115   2  13   0.0512   0.0407   0.1232   0.0060  -0.0216  -0.0493  -5.00    0.0
2167 161516.000   37.436269238 -122.243448670    56.2729   2  15   0.0514   0.0407   0.1233   0.0061  -0.0216  -0.0492  -4.00    0.0
2167 161517.000   37.436313718 -122.243559218    56.8310   2  16   0.0513   0.0407   0.1234   0.0055  -0.0215  -0.0490  -3.00    0.0
2167 161518.000   37.436361008 -122.243672709    57.5043   2  14   0.0515   0.0406   0.1233   0.0055  -0.0212  -0.0488  -2.00    0.0
2167 161519.000   37.436412889 -122.243790671    58.2224   2  14   0.0516   0.0407   0.1236   0.0056  -0.0212  -0.0485  -1.00    0.0
2167 161520.000   37.436468992 -122.243908961    58.9368   2  13   0.0515   0.0407   0.1235   0.0058  -0.0212  -0.0487  -0.00    0.0
2167 161521.000   37.436529991 -122.244026435    59.6798   2  15   0.0513   0.0406   0.1233   0.0053  -0.0209  -0.0487   1.00    0.0
2167 161522.000   37.436597282 -122.244142630    60.4061   2  15   0.0514   0.0406   0.1233   0.0049  -0.0209  -0.0487   2.00    0.0
2167 161523.000   37.436669491 -122.244258416    61.2268   2  17   0.0512   0.0406   0.1232   0.0051  -0.0209  -0.0491   3.00    0.0
2167 161524.000   37.436746767 -122.244373075    62.0358   2  17   0.0512   0.0405   0.1232   0.0046  -0.0209  -0.0490   4.00    0.0
2167 161525.000   37.436828456 -122.244486971    62.8744   2  18   0.0511   0.0405   0.1228   0.0048  -0.0205  -0.0494   5.00    0.0
2167 161526.000   37.436912764 -122.244602178    63.7516   2  18   0.0511   0.0406   0.1230   0.0045  -0.0205  -0.0494   6.00    0.0
2167 161527.000   37.436998615 -122.244718703    64.5450   2  16   0.0512   0.0405   0.1230   0.0051  -0.0209  -0.0492   7.00    0.0
2167 161528.000   37.437085720 -122.244838731    65.2678   2  16   0.0513   0.0405   0.1231   0.0052  -0.0206  -0.0490   8.00    0.0
2167 161529.000   37.437175428 -122.244962479    65.9671   2  16   0.0511   0.0405   0.1229   0.0043  -0.0207  -0.0495   9.00    0.0
2167 161530.000   37.437268441 -122.245090248    66.7694   2  17   0.0511   0.0405   0.1229   0.0043  -0.0208  -0.0496  10.00    0.0
2167 161531.000   37.437365717 -122.245221680    67.4382   2  19   0.0511   0.0405   0.1229   0.0045  -0.0207  -0.0497  11.00    0.0
2167 161532.000   37.437466948 -122.245358552    68.0924   2  19   0.0511   0.0405   0.1229   0.0044  -0.0206  -0.0497  12.00    0.0
2167 161533.000   37.437573278 -122.245499671    68.7667   2  19   0.0512   0.0405   0.1230   0.0046  -0.0205  -0.0497  13.00    0.0
2167 161534.000   37.437682547 -122.245642429    69.5024   2  15   0.0513   0.0406   0.1234   0.0049  -0.0210  -0.0498  14.00    0.0
2167 161535.000   37.437793168 -122.245784071    70.2438   2  16   0.0514   0.0405   0.1234   0.0047  -0.0208  -0.0496  15.00    0.0
2167 161536.000   37.437903113 -122.245925931    71.0262   2  17   0.0515   0.0405   0.1235   0.0045  -0.0208  -0.0496 -14.00    0.0
2167 161537.000   37.438010298 -122.246072365    71.7698   2  15   0.0514   0.0405   0.1233   0.0045  -0.0203  -0.0496 -13.00    0.0
2167 161538.000   37.438119737 -122.246223294    72.5327   2  17   0.0515   0.0405   0.1231   0.0041  -0.0205  -0.0498 -12.00    0.0
2167 161539.000   37.438235119 -122.246378322    73.2949   2  17   0.0514   0.0404   0.1229   0.0036  -0.0201  -0.0500 -11.00    0.0
2167 161540.000   37.438355721 -122.246534498    74.1003   2  17   0.0513   0.0404   0.1229   0.0035  -0.0200  -0.0500 -10.00    0.0
2167 161541.000   37.438480641 -122.246690568    74.8703   2  17   0.0513   0.0404   0.1230   0.0034  -0.0202  -0.0500  -9.00    0.0
2167 161542.000   37.438606090 -122.246843638    75.6110   2  18   0.0513   0.0404   0.1231   0.0034  -0.0202  -0.0500  -8.00    0.0
2167 161543.000   37.438731310 -122.246995956    76.4277   2  17   0.0513   0.0405   0.1232   0.0031  -0.0202  -0.0500  -7.00    0.0
2167 161544.000   37.438854404 -122.247146340    77.1856   2  19   0.0514   0.0405   0.1232   0.0029  -0.0202  -0.0500  -6.00    0.0
2167 161545.000   37.438975992 -122.247298339    77.9904   2  15   0.0513   0.0405   0.1232   0.0029  -0.0201  -0.0502  -5.00    0.0
2167 161546.000   37.439098229 -122.247452127    78.7636   2  17   0.0514   0.0405   0.1232   0.0026  -0.0201  -0.0502  -4.00    0.0
2167 161547.000   37.439222597 -122.247609692    79.5565   2  18   0.0514   0.0405   0.1232   0.0024  -0.0201  -0.0502  -3.00    0.0
2167 161548.000   37.439349777 -122.247771060    80.3633   2  18   0.0514   0.0404   0.1232   0.0023  -0.0201  -0.0502  -2.00    0.0
2167 161549.000   37.439478581 -122.247935010    81.1829   2  19   0.0514   0.0405   0.1232   0.0020  -0.0201  -0.0502  -1.00    0.0
2167 161550.000   37.439608625 -122.248100393    81.9869   2  19   0.0514   0.0405   0.1232   0.0016  -0.0201  -0.0502  -0.00    0.0
2167 161551.000   37.439739222 -122.248265963    82.8068   2  17   0.0514   0.0405   0.1233   0.0009  -0.0201  -0.0503   1.00    0.0
2167 161552.000   37.439869964 -122.248432686    83.6415   2  18   0.0514   0.0404   0.1232  -0.0008  -0.0199  -0.0503   2.00    0.0
2167 161553.000   37.440000831 -122.248601699    84.4543   2  17   0.0514   0.0404   0.1232  -0.0012  -0.0199  -0.0504   3.00    0.0
2167 161554.000   37.440131795 -122.248771616    85.3418   2  18   0.0515   0.0405   0.1233  -0.0023  -0.0199  -0.0504   4.00    0.0
2167 161555.000   37.440263002 -122.248942866    86.2082   2  17   0.0516   0.0405   0.1233  -0.0033  -0.0197  -0.0505   5.00    0.0
2167 161556.000   37.440394581 -122.249116048    87.0507   2  16   0.0514   0.0404   0.1232  -0.0009  -0.0201  -0.0503   6.00    0.0
2167 161557.000   37.440526220 -122.249289136    87.8907   2  18   0.0515   0.0404   0.1232  -0.0015  -0.0199  -0.0504   7.00    0.0
2167 161558.000   37.440657971 -122.249461400    88.7424   2  18   0.0514   0.0404   0.1232  -0.0010  -0.0200  -0.0503   8.00    0.0
2167 161559.000   37.440789962 -122.249633539    89.5570   2  17   0.0515   0.0404   0.1232  -0.0013  -0.0200  -0.0503   9.00    0.0
2167 161560.000   37.440923240 -122.249806457    90.3836   2  17   0.0514   0.0404   0.1230  -0.0005  -0.0198  -0.0503  10.00    0.0
2167 161561.000   37.441057953 -122.249980715    91.2288   2  18   0.0514   0.0404   0.1230   0.0005  -0.0197  -0.0503  11.00    0.0
2167 161562.000   37.441193946 -122.250157086    92.0890   2  18   0.0514   0.0403   0.1229   0.0011  -0.0196  -0.0503  12.00    0.0
2167 161563.000   37.441331513 -122.250335517    92.9836   2  18   0.0514   0.0403   0.1230   0.0014  -0.0197  -0.0502  13.00    0.0
2167 161564.000   37.441470356 -122.250516062    93.9057   2  17   0.0514   0.0404   0.1231   0.0013  -0.0198  -0.0501  14.00    0.0
2167 161565.000   37.441610027 -122.250698432    94.8842   2  17   0.0516   0.0404   0.1234   0.0010  -0.0199  -0.0499  15.00    0.0
2167 161566.000   37.441750724 -122.250882557    95.9802   2  16   0.0518   0.0404   0.1237   0.0005  -0.0201  -0.0496 -14.00    0.0
2167 161567.000   37.441892533 -122.251068052    97.0010   2  17   0.0515   0.0403   0.1233   0.0016  -0.0204  -0.0499 -13.00    0.0
2167 161568.000   37.442034479 -122.251254392    98.0680   2  18   0.0514   0.0404   0.1232   0.0018  -0.0204  -0.0500 -12.00    0.0
2167 161569.000   37.442174357 -122.251441979    99.0822   2  18   0.0513   0.0404   0.1231   0.0019  -0.0206  -0.0501 -11.00    0.0
2167 161570.000   37.442310397 -122.251633005   100.0078   2  18   0.0512   0.0404   0.1231   0.0018  -0.0207  -0.0502 -10.00    0.0
2167 161571.000   37.442441708 -122.251828298   100.9552   2  19   0.0512   0.0405   0.1231   0.0015  -0.0207  -0.0503  -9.00    0.0
2167 161572.000   37.442569586 -122.252026834   101.8346   2  16   0.0512   0.0406   0.1232   0.0027  -0.0210  -0.0503  -8.00    0.0
2167 161573.000   37.442692314 -122.252229679   102.8183   2  15   0.0515   0.0407   0.1236   0.0040  -0.0213  -0.0502  -7.00    0.0
2167 161574.000   37.442810344 -122.252435619   103.6945   2  12   0.0517   0.0410   0.1239   0.0046  -0.0219  -0.0500  -6.00    0.0
2167 161575.000   37.442923952 -122.252644374   104.4867   2  12   0.0517   0.0416   0.1249   0.0061  -0.0245  -0.0503  -5.00    0.0
2167 161576.000   37.443033149 -122.252856281   105.3040   2  11   0.0516   0.0417   0.1247   0.0071  -0.0246  -0.0507  -4.00    0.0
2167 161577.000   37.443137913 -122.253071508   106.2047   2  15   0.0516   0.0415   0.1246   0.0069  -0.0242  -0.0508  -3.00    0.0
2167 161578.000   37.443238538 -122.253289185   107.0662   2  12   0.0516   0.0416   0.1248   0.0076  -0.0246  -0.0511  -2.00    0.0
2167 161579.000   37.443335717 -122.253509306   107.9202   2  14   0.0514   0.0414   0.1243   0.0073  -0.0236  -0.0509  -1.00    0.0
2167 161580.000   37.443428898 -122.253732345   108.8139   2  17   0.0512   0.0411   0.1238   0.0066  -0.0225  -0.0507  -0.00    0.0
2167 161581.000   37.443517631 -122.253958078   109.6450   2  14   0.0512   0.0411   0.1237   0.0068  -0.0224  -0.0507   1.00    0.0
2167 161582.000   37.443601945 -122.254185986   110.5016   2  16   0.0511   0.0410   0.1237   0.0068  -0.0225  -0.0507   2.00    0.0
2167 161583.000   37.443681285 -122.254415252   111.3522   2  18   0.0510   0.0408   0.1235   0.0062  -0.0219  -0.0505   3.00    0.0
2167 161584.000   37.443755683 -122.254646201   112.1926   2  18   0.0510   0.0408   0.1234   0.0063  -0.0217  -0.0505   4.00    0.0
2167 161585.000   37.443825268 -122.254879398   113.0154   2  12   0.0511   0.0408   0.1233   0.0065  -0.0216  -0.0505   5.00    0.0
2167 161586.000   37.443889637 -122.255111883   113.9282   2  15   0.0512   0.0409   0.1233   0.0067  -0.0215  -0.0505   6.00    0.0
2167 161587.000   37.443949464 -122.255343842   114.8974   2  16   0.0512   0.0408   0.1233   0.0065  -0.0215  -0.0505   7.00    0.0
2167 161588.000   37.444006095 -122.255576819   115.7435   2  15   0.0513   0.0408   0.1233   0.0063  -0.0214  -0.0504   8.00    0.0
2167 161589.000   37.444058129 -122.255810585   116.5527   2  14   0.0515   0.0409   0.1235   0.0066  -0.0213  -0.0501   9.00    0.0
2167 161590.000   37.444105446 -122.256044933   117.3327   2  13   0.0514   0.0409   0.1235   0.0062  -0.0217  -0.0503  10.00    0.0
2167 161591.000   37.444147908 -122.256279343   118.1412   2  15   0.0513   0.0408   0.1233   0.0059  -0.0215  -0.0503  11.00    0.0
2167 161592.000   37.444185653 -122.256514241   118.9159   2  15   0.0513   0.0408   0.1233   0.0056  -0.0216  -0.0503  12.00    0.0
2167 161593.000   37.444219323 -122.256749476   119.6352   2  15   0.0513   0.0408   0.1233   0.0060  -0.0216  -0.0504  13.00    0.0
2167 161594.000   37.444248713 -122.256985455   120.4889   2  16   0.0513   0.0409   0.1233   0.0061  -0.0216  -0.0505  14.00    0.0
2167 161595.000   37.444274690 -122.257221512   121.1340   2  16   0.0513   0.0409   0.1234   0.0062  -0.0217  -0.0506  15.00    0.0
2167 161596.000   37.444295956 -122.257458140   121.7766   2  13   0.0513   0.0409   0.1234   0.0060  -0.0218  -0.0506 -14.00    0.0
2167 161597.000   37.444312615 -122.257695557   122.4244   2  14   0.0515   0.0410   0.1236   0.0057  -0.0220  -0.0505 -13.00    0.0
2167 161598.000   37.444324471 -122.257933693   122.9754   2  13   0.0515   0.0410   0.1237   0.0066  -0.0222  -0.0507 -12.00    0.0
2167 161599.000   37.444332530 -122.258171867   123.2761   2  13   0.0517   0.0415   0.1246   0.0089  -0.0241  -0.0515 -11.00    0.0
2167 161600.000   37.444336356 -122.258411118   123.6044   2  14   0.0517   0.0414   0.1244   0.0087  -0.0238  -0.0514 -10.00    0.0
2167 161601.000   37.444335302 -122.258651905   124.0568   2  12   0.0515   0.0416   0.1244   0.0079  -0.0242  -0.0512  -9.00    0.0
2167 161602.000   37.444329161 -122.258894975   124.5968   2  16   0.0515   0.0415   0.1241   0.0077  -0.0233  -0.0509  -8.00    0.0
2167 161603.000   37.444318936 -122.259139633   124.9659   2  16   0.0514   0.0414   0.1239   0.0074  -0.0230  -0.0509  -7.00    0.0
2167 161604.000   37.444304841 -122.259386450   125.2284   2  13   0.0514   0.0415   0.1241   0.0076  -0.0231  -0.0509  -6.00    0.0
2167 161605.000   37.444286996 -122.259636970   125.6630   2  16   0.0514   0.0414   0.1240   0.0077  -0.0230  -0.0510  -5.00    0.0
2167 161606.000   37.444266777 -122.259892018   125.9571   2  13   0.0514   0.0415   0.1239   0.0076  -0.0228  -0.0510  -4.00    0.0
2167 161607.000   37.444247018 -122.260147916   125.8781   2  15   0.0515   0.0420   0.1244   0.0086  -0.0242  -0.0512  -3.00    0.0
2167 161608.000   37.444226673 -122.260407716   125.9967   2  15   0.0515   0.0417   0.1241   0.0079  -0.0232  -0.0510  -2.00    0.0
2167 161609.000   37.444205871 -122.260671446   126.0758   2  15   0.0515   0.0415   0.1239   0.0075  -0.0227  -0.0510  -1.00    0.0
2167 161610.000   37.444184309 -122.260938328   126.1842   2  14   0.0518   0.0415   0.1242   0.0083  -0.0230  -0.0515  -0.00    0.0
2167 161611.000   37.444162403 -122.261202843   126.4212   2  13   0.0517   0.0415   0.1243   0.0081  -0.0230  -0.0514   1.00    0.0
2167 161612.000   37.444140714 -122.261463113   126.6084   2  13   0.0517   0.0415   0.1243   0.0078  -0.0227  -0.0513   2.00    0.0
2167 161613.000   37.444119057 -122.261718916   126.7881   2  13   0.0516   0.0414   0.1242   0.0078  -0.0226  -0.0512   3.00    0.0
2167 161614.000   37.444098574 -122.261970749   126.8733   2  16   0.0516   0.0414   0.1241   0.0076  -0.0226  -0.0512   4.00    0.0
2167 161615.000   37.444079105 -122.262218630   127.0091   2  16   0.0516   0.0414   0.1241   0.0076  -0.0226  -0.0512   5.00    0.0
2167 161616.000   37.444059890 -122.262462653   127.1443   2  16   0.0516   0.0413   0.1240   0.0074  -0.0224  -0.0511   6.00    0.0
2167 161617.000   37.444041376 -122.262702702   127.2362   2  14   0.0516   0.0413   0.1241   0.0075  -0.0224  -0.0511   7.00    0.0
2167 161618.000   37.444023878 -122.262939287   127.2993   2  14   0.0517   0.0413   0.1241   0.0075  -0.0225  -0.0511   8.00    0.0
2167 161619.000   37.444007132 -122.263172257   127.3937   2  15   0.0516   0.0413   0.1241   0.0074  -0.0225  -0.0511   9.00    0.0
2167 161620.000   37.443990373 -122.263401479   127.4642   2  16   0.0516   0.0413   0.1240   0.0073  -0.0224  -0.0511  10.00    0.0
2167 161621.000   37.443972950 -122.263627541   127.5026   2  15   0.0516   0.0413   0.1239   0.0071  -0.0222  -0.0511  11.00    0.0
2167 161622.000   37.443955776 -122.263850180   127.6021   2  15   0.0516   0.0413   0.1240   0.0073  -0.0224  -0.0512  12.00    0.0
2167 161623.000   37.443940318 -122.264074045   127.6282   2  15   0.0516   0.0414   0.1242   0.0077  -0.0228  -0.0512  13.00    0.0
2167 161624.000   37.443927915 -122.264302833   127.6290   2  14   0.0516   0.0414   0.1241   0.0079  -0.0232  -0.0512  14.00    0.0
2167 161625.000   37.443920768 -122.264536739   127.5918   2  14   0.0519   0.0417   0.1246   0.0086  -0.0242  -0.0516  15.00    0.0
2167 161626.000   37.443917932 -122.264774644   127.5835   2  15   0.0518   0.0415   0.1243   0.0080  -0.0235  -0.0511 -14.00    0.0
2167 161627.000   37.443918891 -122.265014112   127.5348   2  18   0.0517   0.0414   0.1240   0.0074  -0.0231  -0.0510 -13.00    0.0
2167 161628.000   37.443923756 -122.265257847   127.4382   2  16   0.0518   0.0416   0.1242   0.0077  -0.0236  -0.0510 -12.00    0.0
2167 161629.000   37.443932452 -122.265506628   127.3881   2  17   0.0518   0.0418   0.1246   0.0082  -0.0244  -0.0513 -11.00    0.0
2167 161630.000   37.443945867 -122.265759475   127.2410   2  13   0.0524   0.0421   0.1254   0.0098  -0.0257  -0.0520 -10.00    0.0
2167 161631.000   37.443964722 -122.266016581   127.0370   2  14   0.0522   0.0420   0.1254   0.0091  -0.0254  -0.0517  -9.00    0.0
2167 161632.000   37.443989058 -122.266277942   126.8036   2  12   0.0521   0.0420   0.1251   0.0088  -0.0246  -0.0514  -8.00    0.0
2167 161633.000   37.444018960 -122.266543383   126.4593   2  13   0.0521   0.0418   0.1250   0.0084  -0.0245  -0.0516  -7.00    0.0
2167 161634.000   37.444054001 -122.266815487   126.1628   2  13   0.0526   0.0420   0.1250   0.0095  -0.0244  -0.0513  -6.00    0.0
2167 161635.000   37.444094238 -122.267092491   125.8232   2  16   0.0529   0.0424   0.1260   0.0112  -0.0261  -0.0525  -5.00    0.0
2167 161636.000   37.444140346 -122.267373183   125.4728   2  16   0.0527   0.0422   0.1258   0.0109  -0.0258  -0.0523  -4.00    0.0
2167 161637.000   37.444193882 -122.267656029   125.0832   2  14   0.0527   0.0421   0.1256   0.0107  -0.0255  -0.0521  -3.00    0.0
2167 161638.000   37.444254535 -122.267936939   124.7041   2  15   0.0526   0.0421   0.1254   0.0104  -0.0252  -0.0520  -2.00    0.0
2167 161639.000   37.444320732 -122.268213994   124.3301   2  16   0.0524   0.0420   0.1252   0.0099  -0.0247  -0.0518  -1.00    0.0
2167 161640.000   37.444391523 -122.268487522   124.1472   2  18   0.0525   0.0420   0.1253   0.0101  -0.0247  -0.0518  -0.00    0.0
2167 161641.000   37.444468300 -122.268755916   123.7695   2  17   0.0526   0.0422   0.1257   0.0104  -0.0253  -0.0518   1.00    0.0
2167 161642.000   37.444549613 -122.269019426   123.3650   2  12   0.0526   0.0425   0.1259   0.0106  -0.0259  -0.0519   2.00    0.0
2167 161643.000   37.444636666 -122.269280456   122.8223   2  14   0.0534   0.0433   0.1270   0.0131  -0.0283  -0.0531   3.00    0.0
2167 161644.000   37.444729451 -122.269541619   122.3490   2  13   0.0537   0.0437   0.1300   0.0144  -0.0312  -0.0546   4.00    0.0
2167 161645.000   37.444826045 -122.269803671   122.2104   2  16   0.0549   0.0439   0.1327   0.0160  -0.0325  -0.0562   5.00    0.0
2167 161646.000   37.444928430 -122.270064148   121.7602   2   8   0.0565   0.0436   0.1319   0.0135  -0.0285  -0.0498   6.00    0.0
2167 161647.000   37.445035448 -122.270322016   121.0613   2  13   0.0735   0.0473   0.1505  -0.0226  -0.0330  -0.0572   7.00    0.0
2167 161648.000   37.445149563 -122.270580473   120.9389   2  16   0.0644   0.0455   0.1347  -0.0168  -0.0314  -0.0517   8.00    0.0
2167 161649.000   37.445270753 -122.270835318   120.6976   2  15   0.0602   0.0448   0.1336  -0.0128  -0.0310  -0.0517   9.00    0.0
2167 161650.000   37.445397811 -122.271087378   120.5368   2  12   0.0584   0.0446   0.1335  -0.0113  -0.0314  -0.0522  10.00    0.0
2167 161651.000   37.445531358 -122.271336081   120.4136   2  13   0.0581   0.0448   0.1343  -0.0100  -0.0323  -0.0522  11.00    0.0
2167 161652.000   37.445671213 -122.271580794   120.3352   2  14   0.0576   0.0448   0.1342  -0.0097  -0.0324  -0.0525  12.00    0.0
2167 161653.000   37.445817176 -122.271821362   120.3485   2  14   0.0572   0.0444   0.1336  -0.0107  -0.0312  -0.0521  13.00    0.0
2167 161654.000   37.445967665 -122.272058527   120.5070   2  18   0.0571   0.0440   0.1333  -0.0110  -0.0302  -0.0520  14.00    0.0
2167 161655.000   37.446122307 -122.272291799   120.7535   2  16   0.0571   0.0440   0.1333  -0.0112  -0.0300  -0.0520  15.00    0.0
2167 161656.000   37.446279992 -122.272521115   121.0426   2  15   0.0571   0.0439   0.1331  -0.0113  -0.0296  -0.0522 -14.00    0.0
2167 161657.000   37.446438541 -122.272748576   121.4256   2  15   0.0571   0.0439   0.1329  -0.0112  -0.0295  -0.0522 -13.00    0.0
2167 161658.000   37.446596534 -122.272975299   121.7970   2  16   0.0572   0.0440   0.1330  -0.0116  -0.0290  -0.0524 -12.00    0.0
2167 161659.000   37.446754394 -122.273201448   122.1772   2  17   0.0571   0.0440   0.1328  -0.0114  -0.0293  -0.0524 -11.00    0.0
2167 161660.000   37.446911936 -122.273426630   122.7161   2  18   0.0571   0.0441   0.1329  -0.0112  -0.0296  -0.0525 -10.00    0.0
2167 161661.000   37.447068961 -122.273650480   123.2085   2  14   0.0572   0.0443   0.1333  -0.0107  -0.0304  -0.0526  -9.00    0.0
2167 161662.000   37.447224591 -122.273874104   123.7474   2  14   0.0573   0.0446   0.1336  -0.0099  -0.0311  -0.0530  -8.00    0.0
2167 161663.000   37.447379201 -122.274096628   124.3857   2  15   0.0573   0.0446   0.1336  -0.0102  -0.0311  -0.0529  -7.00    0.0
2167 161664.000   37.447533248 -122.274317644   125.0898   2  13   0.0573   0.0447   0.1336  -0.0101  -0.0313  -0.0528  -6.00    0.0
2167 161665.000   37.447686707 -122.274537175   125.8059   2  14   0.0573   0.0449   0.1337  -0.0096  -0.0318  -0.0530  -5.00    0.0
2167 161666.000   37.447839714 -122.274756199   126.4934   2  15   0.0573   0.0452   0.1338  -0.0093  -0.0321  -0.0530  -4.00    0.0
2167 161667.000   37.447991575 -122.274972898   127.2303   2  10   0.0574   0.0466   0.1343  -0.0092  -0.0335  -0.0532  -3.00    0.0
2167 161668.000   37.448143124 -122.275188041   127.9128   2  12   0.0574   0.0461   0.1341  -0.0103  -0.0329  -0.0530  -2.00    0.0
2167 161669.000   37.448294867 -122.275403945   128.6698   2  13   0.0573   0.0453   0.1339  -0.0101  -0.0323  -0.0530  -1.00    0.0
2167 161670.000   37.448447523 -122.275619816   129.3907   2  15   0.0573   0.0450   0.1338  -0.0101  -0.0320  -0.0530  -0.00    0.0
2167 161671.000   37.448602303 -122.275836795   130.1755   2  15   0.0574   0.0449   0.1339  -0.0099  -0.0319  -0.0529   1.00    0.0
2167 161672.000   37.448758160 -122.276054840   130.8676   2  14   0.0573   0.0447   0.1337  -0.0103  -0.0315  -0.0528   2.00    0.0
2167 161673.000   37.448913495 -122.276274569   131.5953   2  16   0.0573   0.0446   0.1335  -0.0106  -0.0312  -0.0526   3.00    0.0
2167 161674.000   37.449065581 -122.276495781   132.3976   2  14   0.0574   0.0447   0.1336  -0.0104  -0.0314  -0.0525   4.00    0.0
2167 161675.000   37.449216097 -122.276719098   133.0647   2  12   0.0574   0.0452   0.1339  -0.0094  -0.0324  -0.0530   5.00    0.0
2167 161676.000   37.449366341 -122.276943693   133.7077   2  12   0.0573   0.0450   0.1338  -0.0100  -0.0321  -0.0528   6.00    0.0
2167 161677.000   37.449516538 -122.277168817   134.3975   2  15   0.0574   0.0450   0.1338  -0.0099  -0.0321  -0.0528   7.00    0.0
2167 161678.000   37.449664570 -122.277390589   134.9182   2  12   0.0573   0.0454   0.1341  -0.0101  -0.0328  -0.0527   8.00    0.0
2167 161679.000   37.449808799 -122.277610278   135.3360   2  15   0.0573   0.0451   0.1339  -0.0103  -0.0322  -0.0527   9.00    0.0
2167 161680.000   37.449950770 -122.277827169   135.8598   2  15   0.0573   0.0450   0.1339  -0.0103  -0.0321  -0.0527  10.00    0.0
2167 161681.000   37.450091859 -122.278042196   136.2743   2  15   0.0574   0.0453   0.1342  -0.0097  -0.0328  -0.0530  11.00    0.0
2167 161682.000   37.450233255 -122.278257597   136.5916   2  11   0.0575   0.0456   0.1348  -0.0091  -0.0337  -0.0532  12.00    0.0
2167 161683.000   37.450375162 -122.278472465   136.9553   2  14   0.0576   0.0453   0.1354  -0.0109  -0.0335  -0.0524  13.00    0.0
2167 161684.000   37.450517000 -122.278686043   137.2800   2  15   0.0574   0.0446   0.1345  -0.0115  -0.0320  -0.0522  14.00    0.0
2167 161685.000   37.450658538 -122.278899041   137.5392   2  17   0.0574   0.0448   0.1340  -0.0122  -0.0315  -0.0522  15.00    0.0
2167 161686.000   37.450800673 -122.279113431   137.7363   2  15   0.0574   0.0449   0.1340  -0.0119  -0.0318  -0.0523 -14.00    0.0
2167 161687.000   37.450943285 -122.279329837   137.8139   2  15   0.0574   0.0451   0.1344  -0.0115  -0.0327  -0.0525 -13.00    0.0
2167 161688.000   37.451087297 -122.279547153   137.7912   2  16   0.0573   0.0452   0.1344  -0.0116  -0.0329  -0.0524 -12.00    0.0
2167 161689.000   37.451232391 -122.279765749   137.8931   2  17   0.0572   0.0448   0.1339  -0.0121  -0.0320  -0.0522 -11.00    0.0
2167 161690.000   37.451377683 -122.279985519   137.9092   2  16   0.0572   0.0447   0.1337  -0.0122  -0.0316  -0.0521 -10.00    0.0
2167 161691.000   37.451523179 -122.280206542   137.9101   2  15   0.0572   0.0446   0.1335  -0.0124  -0.0313  -0.0521  -9.00    0.0
2167 161692.000   37.451668372 -122.280429235   137.8875   2  18   0.0572   0.0445   0.1335  -0.0125  -0.0312  -0.0521  -8.00    0.0
2167 161693.000   37.451812434 -122.280653425   137.7398   2  18   0.0572   0.0445   0.1335  -0.0124  -0.0312  -0.0521  -7.00    0.0
2167 161694.000   37.451956392 -122.280877184   137.6175   2  18   0.0572   0.0445   0.1335  -0.0124  -0.0312  -0.0521  -6.00    0.0
2167 161695.000   37.452101677 -122.281099973   137.4207   2  17   0.0572   0.0444   0.1335  -0.0125  -0.0312  -0.0520  -5.00    0.0
2167 161696.000   37.452248571 -122.281322439   137.1663   2  17   0.0573   0.0444   0.1337  -0.0126  -0.0312  -0.0519  -4.00    0.0
2167 161697.000   37.452396978 -122.281545761   136.8813   2  15   0.0573   0.0444   0.1336  -0.0126  -0.0313  -0.0520  -3.00    0.0
2167 161698.000   37.452545868 -122.281772147   136.5225   2  14   0.0574   0.0444   0.1336  -0.0125  -0.0313  -0.0520  -2.00    0.0
2167 161699.000   37.452695345 -122.282002590   136.3280   2  15   0.0574   0.0446   0.1340  -0.0121  -0.0319  -0.0523  -1.00    0.0
2167 161700.000   37.452847277 -122.282234511   135.8081   2  14   0.0575   0.0447   0.1343  -0.0117  -0.0323  -0.0525  -0.00    0.0
2167 161701.000   37.453001819 -122.282469786   135.2702   2  15   0.0574   0.0446   0.1343  -0.0118  -0.0323  -0.0525   1.00    0.0
2167 161702.000   37.453159219 -122.282708541   134.7165   2  16   0.0573   0.0445   0.1339  -0.0122  -0.0318  -0.0523   2.00    0.0
2167 161703.000   37.453319889 -122.282951158   134.1167   2  15   0.0573   0.0445   0.1337  -0.0124  -0.0316  -0.0522   3.00    0.0
2167 161704.000   37.453483300 -122.283197701   133.5410   2  18   0.0573   0.0445   0.1337  -0.0124  -0.0314  -0.0521   4.00    0.0
2167 161705.000   37.453648855 -122.283448689   132.8806   2  16   0.0574   0.0445   0.1337  -0.0125  -0.0313  -0.0521   5.00    0.0
2167 161706.000   37.453815730 -122.283704577   132.2135   2  18   0.0574   0.0444   0.1337  -0.0126  -0.0312  -0.0521   6.00    0.0
2167 161707.000   37.453984281 -122.283962437   131.5758   2  18   0.0574   0.0444   0.1337  -0.0126  -0.0312  -0.0521   7.00    0.0
2167 161708.000   37.454152255 -122.284219516   130.9226   2  15   0.0574   0.0444   0.1337  -0.0126  -0.0312  -0.0520   8.00    0.0
2167 161709.000   37.454320619 -122.284474496   130.2900   2  17   0.0573   0.0444   0.1337  -0.0126  -0.0312  -0.0521   9.00    0.0
2167 161710.000   37.454489468 -122.284728787   129.6421   2  16   0.0574   0.0444   0.1337  -0.0126  -0.0311  -0.0520  10.00    0.0
2167 161711.000   37.454658358 -122.284983147   128.9706   2  16   0.0575   0.0444   0.1339  -0.0126  -0.0311  -0.0518  11.00    0.0
2167 161712.000   37.454826828 -122.285238369   128.3134   2  16   0.0574   0.0445   0.1338  -0.0127  -0.0311  -0.0518  12.00    0.0
2167 161713.000   37.454994520 -122.285494797   127.6621   2  17   0.0575   0.0445   0.1338  -0.0126  -0.0310  -0.0518  13.00    0.0
2167 161714.000   37.455162266 -122.285751763   127.0200   2  17   0.0575   0.0444   0.1338  -0.0126  -0.0310  -0.0518  14.00    0.0
2167 161715.000   37.455330852 -122.286008732   126.3603   2  18   0.0575   0.0444   0.1338  -0.0127  -0.0310  -0.0518  15.00    0.0
2167 161716.000   37.455500062 -122.286265665   125.6949   2  17   0.0574   0.0444   0.1337  -0.0127  -0.0309  -0.0518 -14.00    0.0
2167 161717.000   37.455668606 -122.286523846   124.9605   2  18   0.0574   0.0444   0.1337  -0.0127  -0.0309  -0.0518 -13.00    0.0
2167 161718.000   37.455838749 -122.286781990   124.1741   2  18   0.0575   0.0444   0.1337  -0.0128  -0.0309  -0.0519 -12.00    0.0
2167 161719.000   37.456012285 -122.287038456   123.4586   2  19   0.0576   0.0444   0.1338  -0.0128  -0.0309  -0.0519 -11.00    0.0
2167 161720.000   37.456190148 -122.287291504   122.9502   2  19   0.0576   0.0444   0.1337  -0.0128  -0.0308  -0.0520 -10.00    0.0
2167 161721.000   37.456374281 -122.287537808   122.5772   2  15   0.0576   0.0444   0.1338  -0.0127  -0.0308  -0.0520  -9.00    0.0
2167 161722.000   37.456566378 -122.287775774   122.3092   2  16   0.0576   0.0445   0.1340  -0.0127  -0.0307  -0.0518  -8.00    0.0
2167 161723.000   37.456766291 -122.288005524   122.1382   2  17   0.0576   0.0445   0.1340  -0.0127  -0.0306  -0.0517  -7.00    0.0
2167 161724.000   37.456973059 -122.288227489   122.1281   2  16   0.0576   0.0445   0.1341  -0.0126  -0.0304  -0.0516  -6.00    0.0
2167 161725.000   37.457185669 -122.288442361   122.2879   2  17   0.0576   0.0445   0.1342  -0.0126  -0.0304  -0.0516  -5.00    0.0
2167 161726.000   37.457402641 -122.288646507   122.4904   2  17   0.0582   0.0445   0.1342  -0.0122  -0.0300  -0.0511  -4.00    0.0
2167 161727.000   37.457623883 -122.288840411   122.8767   2  18   0.0579   0.0445   0.1345  -0.0127  -0.0306  -0.0511  -3.00    0.0
2167 161728.000   37.457849241 -122.289024113   123.3784   2  18   0.0579   0.0445   0.1345  -0.0127  -0.0306  -0.0512  -2.00    0.0
2167 161729.000   37.458078814 -122.289197468   123.9319   2  18   0.0578   0.0445   0.1344  -0.0127  -0.0306  -0.0512  -1.00    0.0
2167 161730.000   37.458311162 -122.289361582   124.5253   2  17   0.0577   0.0444   0.1343  -0.0128  -0.0305  -0.0513  -0.00    0.0
2167 161731.000   37.458546284 -122.289515281   125.1341   2  16   0.0577   0.0444   0.1342  -0.0129  -0.0305  -0.0513   1.00    0.0
2167 161732.000   37.458784286 -122.289657303   125.7696   2  17   0.0577   0.0444   0.1342  -0.0128  -0.0305  -0.0514   2.00    0.0
2167 161733.000   37.459025091 -122.289788225   126.3352   2  16   0.0578   0.0444   0.1342  -0.0128  -0.0304  -0.0513   3.00    0.0
2167 161734.000   37.459267909 -122.289909340   126.9382   2  16   0.0578   0.0444   0.1341  -0.0125  -0.0305  -0.0513   4.00    0.0
2167 161735.000   37.459513004 -122.290019471   127.4511   2  16   0.0577   0.0445   0.1341  -0.0126  -0.0305  -0.0514   5.00    0.0
2167 161736.000   37.459760141 -122.290119632   128.0549   2  16   0.0578   0.0445   0.1342  -0.0128  -0.0304  -0.0513   6.00    0.0
2167 161737.000   37.460008559 -122.290211142   128.6753   2  16   0.0580   0.0445   0.1346  -0.0127  -0.0304  -0.0508   7.00    0.0
2167 161738.000   37.460257805 -122.290293485   129.2108   2  16   0.0580   0.0445   0.1346  -0.0128  -0.0305  -0.0508   8.00    0.0
2167 161739.000   37.460508943 -122.290364117   129.8797   2  16   0.0581   0.0445   0.1346  -0.0128  -0.0306  -0.0509   9.00    0.0
2167 161740.000   37.460763011 -122.290423934   130.4047   2  12   0.0585   0.0447   0.1361  -0.0118  -0.0318  -0.0511  10.00    0.0
2167 161741.000   37.461020394 -122.290473522   130.9359   2  15   0.0604   0.0456   0.1363  -0.0016  -0.0319  -0.0514  11.00    0.0
2167 161742.000   37.461280566 -122.290513288   131.5647   2  11   0.0604   0.0481   0.1451   0.0096  -0.0424  -0.0559  12.00    0.0
2167 161743.000   37.461543032 -122.290541027   131.8290   2   6   0.0602   0.0570   0.1879   0.0111  -0.0736  -0.0576  13.00    0.0
2167 161744.000   37.461806306 -122.290558091   132.5748   2   9   0.0600   0.0559   0.1805   0.0080  -0.0695  -0.0557  14.00    0.0
2167 161745.000   37.462069670 -122.290570903   133.4110   2  11   0.0598   0.0544   0.1737   0.0060  -0.0649  -0.0552  15.00    0.0
2167 161746.000   37.462333073 -122.290582260   134.1825   2  15   0.0597   0.0531   0.1692   0.0038  -0.0614  -0.0547 -14.00    0.0
2167 161747.000   37.462596966 -122.290591615   134.7932   2  14   0.0596   0.0525   0.1671   0.0027  -0.0596  -0.0545 -13.00    0.0
2167 161748.000   37.462861330 -122.290600306   135.3809   2  14   0.0596   0.0521   0.1664   0.0010  -0.0588  -0.0544 -12.00    0.0
2167 161749.000   37.463126424 -122.290608803   135.9159   2  16   0.0596   0.0520   0.1661   0.0024  -0.0585  -0.0546 -11.00    0.0
2167 161750.000   37.463390495 -122.290617218   136.5667   2  18   0.0596   0.0518   0.1658  -0.0006  -0.0583  -0.0546 -10.00    0.0
2167 161751.000   37.463651937 -122.290625612   137.3762   2  17   0.0599   0.0518   0.1658  -0.0017  -0.0581  -0.0543  -9.00    0.0
2167 161752.000   37.463909124 -122.290637048   138.1386   2  17   0.0599   0.0517   0.1658  -0.0020  -0.0579  -0.0545  -8.00    0.0
2167 161753.000   37.464162857 -122.290653748   138.6642   2  15   0.0599   0.0517   0.1661  -0.0026  -0.0580  -0.0546  -7.00    0.0
2167 161754.000   37.464413886 -122.290674488   139.0558   2  15   0.0599   0.0517   0.1662  -0.0018  -0.0579  -0.0545  -6.00    0.0
2167 161755.000   37.464662623 -122.290697814   139.5160   2  16   0.0601   0.0517   0.1664  -0.0020  -0.0579  -0.0542  -5.00    0.0
2167 161756.000   37.464909447 -122.290722396   139.9056   2  16   0.0600   0.0517   0.1662  -0.0025  -0.0578  -0.0543  -4.00    0.0
2167 161757.000   37.465154344 -122.290751343   140.2591   2  15   0.0601   0.0517   0.1662  -0.0019  -0.0577  -0.0541  -3.00    0.0
2167 161758.000   37.465396152 -122.290788693   140.7471   2  14   0.0601   0.0517   0.1662  -0.0016  -0.0577  -0.0542  -2.00    0.0
2167 161759.000   37.465637004 -122.290834940   140.9972   2  16   0.0602   0.0518   0.1662  -0.0016  -0.0577  -0.0542  -1.00    0.0
2167 161760.000   37.465876557 -122.290888109   141.3579   2  13   0.0605   0.0519   0.1666   0.0041  -0.0575  -0.0541  -0.00    0.0
2167 161761.000   37.466116005 -122.290940004   141.5651   2  10   0.0608   0.0523   0.1680   0.0072  -0.0587  -0.0551   1.00    0.0
2167 161762.000   37.466352968 -122.290990803   141.8547   2  13   0.0659   0.0531   0.1679   0.0172  -0.0582  -0.0539   2.00    0.0
2167 161763.000   37.466583121 -122.291043141   142.2554   2  14   0.0645   0.0528   0.1677   0.0150  -0.0581  -0.0541   3.00    0.0
2167 161764.000   37.466803625 -122.291099327   142.4424   2  16   0.0639   0.0530   0.1674   0.0143  -0.0572  -0.0542   4.00    0.0
2167 161765.000   37.467013308 -122.291159948   142.3771   2  16   0.0635   0.0528   0.1671   0.0134  -0.0573  -0.0543   5.00    0.0
2167 161766.000   37.467211719 -122.291222582   142.0678   2  18   0.0634   0.0527   0.1671   0.0133  -0.0575  -0.0544   6.00    0.0
2167 161767.000   37.467397053 -122.291286528   141.7799   2  17   0.0633   0.0527   0.1670   0.0130  -0.0575  -0.0544   7.00    0.0
2167 161768.000   37.467572621 -122.291349843   141.1053   2  14   0.0636   0.0529   0.1675   0.0141  -0.0582  -0.0553   8.00    0.0
2167 161769.000   37.467738936 -122.291413664   140.3997   2  15   0.0638   0.0530   0.1678   0.0148  -0.0586  -0.0558   9.00    0.0
2167 161770.000   37.467894391 -122.291481115   139.6691   2  17   0.0634   0.0528   0.1672   0.0138  -0.0582  -0.0553  10.00    0.0
2167 161771.000   37.468039100 -122.291549694   138.8417   2  17   0.0634   0.0527   0.1670   0.0134  -0.0580  -0.0550  11.00    0.0
2167 161772.000   37.468173562 -122.291612292   138.0200   2  14   0.0638   0.0527   0.1673   0.0135  -0.0578  -0.0541  12.00    0.0
2167 161773.000   37.468300141 -122.291666483   137.2276   2  17   0.0637   0.0526   0.1672   0.0132  -0.0577  -0.0541  13.00    0.0
2167 161774.000   37.468417250 -122.291711411   136.5105   2  17   0.0637   0.0526   0.1673   0.0130  -0.0577  -0.0541  14.00    0.0
2167 161775.000   37.468517959 -122.291748301   136.0095   2  15   0.0636   0.0527   0.1673   0.0128  -0.0577  -0.0541  15.00    0.0
2167 161776.000   37.468599999 -122.291780793   135.7529   2  17   0.0636   0.0526   0.1672   0.0129  -0.0577  -0.0539 -14.00    0.0
2167 161777.000   37.468658016 -122.291811308   135.6889   2  17   0.0633   0.0526   0.1670   0.0128  -0.0578  -0.0544 -13.00    0.0
2167 161778.000   37.468691130 -122.291834498   135.7473   2  15   0.0638   0.0526   0.1675   0.0128  -0.0579  -0.0536 -12.00    0.0
2167 161779.000   37.468704206 -122.291845216   135.7759   2  15   0.0638   0.0526   0.1675   0.0126  -0.0578  -0.0538 -11.00    0.0
2167 161780.000   37.468705730 -122.291846375   135.7694   2  16   0.0636   0.0527   0.1673   0.0123  -0.0578  -0.0540 -10.00    0.0
2167 161781.000   37.468709381 -122.291849397   135.7715   2  17   0.0634   0.0526   0.1672   0.0126  -0.0579  -0.0541  -9.00    0.0
2167 161782.000   37.468722405 -122.291860608   135.7958   2  18   0.0633   0.0527   0.1675   0.0127  -0.0580  -0.0542  -8.00    0.0
2167 161783.000   37.468747144 -122.291884009   135.8494   2  15   0.0632   0.0527   0.1676   0.0126  -0.0581  -0.0543  -7.00    0.0
2167 161784.000   37.468779196 -122.291925561   136.0168   2  15   0.0639   0.0528   0.1681   0.0127  -0.0580  -0.0539  -6.00    0.0
2167 161785.000   37.468800446 -122.291988694   136.2627   2  11   0.0641   0.0532   0.1683   0.0125  -0.0586  -0.0540  -5.00    0.0
2167 161786.000   37.468797640 -122.292071690   136.3512   2  11   0.0663   0.0574   0.1723   0.0148  -0.0640  -0.0549  -4.00    0.0
2167 161787.000   37.468766781 -122.292158633   136.2036   2  11   0.0683   0.0587   0.1757   0.0205  -0.0671  -0.0579  -3.00    0.0
2167 161788.000   37.468715706 -122.292246634   136.0506   2   4   0.0796   0.0822   0.2230   0.0519   0.0575   0.0380  -2.00    0.0
2167 161789.000   37.468648239 -122.292348418   135.3883   2   4   0.1566   0.3491   0.3820   0.1031   0.2612   0.1924  -1.00    0.0
2167 161792.000   37.468370219 -122.292627126   136.5506   4   0   0.5905   0.2996   0.3018  -0.2033   0.1011  -0.3320   2.00    0.0
2167 161793.000   37.468297428 -122.292748035   136.3884   4   3   0.1683   0.0607   0.1817  -0.0476  -0.0091  -0.1206   3.00    0.0
2167 161794.000   37.468217413 -122.292866342   135.9974   2  15   0.0620   0.0547   0.1565   0.0201  -0.0329  -0.0428   4.00    0.0
2167 161795.000   37.468134331 -122.292972359   135.3356   2  18   0.0616   0.0544   0.1546   0.0196  -0.0316  -0.0417   5.00    0.0
2167 161796.000   37.468056947 -122.293067848   134.6445   2  17   0.0617   0.0547   0.1539   0.0198  -0.0320  -0.0417   6.00    0.0
2167 161797.000   37.467993694 -122.293163665   133.8639   2  17   0.0618   0.0553   0.1548   0.0202  -0.0341  -0.0423   7.00    0.0
2167 161798.000   37.467955082 -122.293260720   133.0909   2  14   0.0621   0.0557   0.1558   0.0204  -0.0356  -0.0423   8.00    0.0
2167 161799.000   37.467950489 -122.293361027   132.4142   2  12   0.0627   0.0557   0.1568   0.0200  -0.0357  -0.0411   9.00    0.0
2167 161800.000   37.467984380 -122.293456532   132.2931   2  12   0.0633   0.0525   0.1533   0.0179  -0.0244  -0.0389  10.00    0.0
2167 161801.000   37.468046879 -122.293549159   132.3700   2   9   0.0615   0.0529   0.1521   0.0174  -0.0233  -0.0429  11.00    0.0
2167 161802.000   37.468129301 -122.293647120   132.4926   2  13   0.0606   0.0518   0.1513   0.0201  -0.0235  -0.0429  12.00    0.0
2167 161803.000   37.468220556 -122.293750191   132.6722   2  14   0.0609   0.0518   0.1520   0.0202  -0.0238  -0.0418  13.00    0.0
2167 161804.000   37.468318720 -122.293860561   133.0731   2  13   0.0619   0.0518   0.1535   0.0199  -0.0245  -0.0393  14.00    0.0
2167 161805.000   37.468423219 -122.293977381   133.6059   2  14   0.0598   0.0517   0.1508   0.0204  -0.0239  -0.0440  15.00    0.0
2167 161806.000   37.468530098 -122.294093301   134.2133   2  15   0.0598   0.0517   0.1495   0.0207  -0.0224  -0.0442 -14.00    0.0
2167 161807.000   37.468637585 -122.294193755   134.9014   2  16   0.0598   0.0517   0.1494   0.0208  -0.0225  -0.0441 -13.00    0.0
2167 161808.000   37.468746061 -122.294261575   135.6904   2  15   0.0599   0.0516   0.1497   0.0207  -0.0222  -0.0436 -12.00    0.0
2167 161809.000   37.468857251 -122.294289269   136.4944   2  17   0.0600   0.0512   0.1496   0.0202  -0.0218  -0.0427 -11.00    0.0
2167 161810.000   37.468967231 -122.294276923   137.2740   2  13   0.0608   0.0518   0.1510   0.0210  -0.0192  -0.0405 -10.00    0.0
2167 161811.000   37.469071116 -122.294228110   137.9786   2  13   0.0617   0.0527   0.1542   0.0224  -0.0098  -0.0368  -9.00    0.0
2167 161812.000   37.469163407 -122.294141961   138.9077   2   9   0.0619   0.0518   0.1520   0.0179  -0.0220  -0.0390  -8.00    0.0
2167 161813.000   37.469235454 -122.294025627   139.6131   2   9   0.0641   0.0529   0.1569   0.0218  -0.0100  -0.0298  -7.00    0.0
2167 161814.000   37.469279117 -122.293889058   140.3433   2   8   0.0561   0.0528   0.1447   0.0151  -0.0238  -0.0528  -6.00    0.0
2167 161815.000   37.469289933 -122.293743268   141.1173   2  13   0.0552   0.0506   0.1431   0.0180  -0.0292  -0.0527  -5.00    0.0
2167 161816.000   37.469264952 -122.293597873   142.0061   2  17   0.0549   0.0505   0.1420   0.0185  -0.0287  -0.0534  -4.00    0.0
2167 161817.000   37.469205614 -122.293464326   142.6841   2  15   0.0551   0.0506   0.1421   0.0186  -0.0288  -0.0536  -3.00    0.0
2167 161818.000   37.469119606 -122.293343279   143.2060   2  14   0.0554   0.0506   0.1423   0.0189  -0.0289  -0.0541  -2.00    0.0
2167 161819.000   37.469016417 -122.293223917   143.7534   2  13   0.0548   0.0505   0.1417   0.0181  -0.0284  -0.0531  -1.00    0.0
2167 161820.000   37.468900584 -122.293099925   144.2035   2  15   0.0548   0.0506   0.1417   0.0180  -0.0283  -0.0529  -0.00    0.0
2167 161821.000   37.468771023 -122.292971093   144.6171   2  17   0.0549   0.0506   0.1418   0.0181  -0.0284  -0.0527   1.00    0.0
2167 161822.000   37.468627740 -122.292835557   144.5988   2  14   0.0550   0.0506   0.1418   0.0183  -0.0278  -0.0531   2.00    0.0
2167 161823.000   37.468470720 -122.292697516   144.4754   2  17   0.0550   0.0505   0.1413   0.0183  -0.0285  -0.0534   3.00    0.0
2167 161824.000   37.468302379 -122.292564064   144.2574   2  14   0.0552   0.0504   0.1417   0.0187  -0.0292  -0.0533   4.00    0.0
