$GPGGA,205042.00,3731.4404980,N,12220.9952360,W,1,0,0.0,147.7243,M,0.0000,M,0.0000,0000*63
$GPRMC,205042.00,A,3731.4404980,N,12220.9952360,W,0.0043,83.6317,140721,,,,A*5d
$GPGGA,205043.00,3731.4404980,N,12220.9952360,W,1,0,0.0,147.7243,M,0.0000,M,0.0000,0000*62
$GPRMC,205043.00,A,3731.4404980,N,12220.9952360,W,0.0019,83.6319,140721,,,,A*5d
$GPGGA,205044.00,3731.4404980,N,12220.9952360,W,1,0,0.0,147.7243,M,0.0000,M,0.0000,0000*65
$GPRMC,205044.00,A,3731.4404980,N,12220.9952360,W,0.0000,83.6318,140721,,,,A*53
$GPGGA,205045.00,3731.4404980,N,12220.9952360,W,1,0,0.0,147.7243,M,0.0000,M,0.0000,0000*64
$GPRMC,205045.00,A,3731.4404980,N,12220.9952360,W,0.0027,83.6319,140721,,,,A*56
$GPGGA,205046.00,3731.4404980,N,12220.9952360,W,1,0,0.0,147.7243,M,0.0000,M,0.0000,0000*67
$GPRMC,205046.00,A,3731.4404980,N,12220.9952360,W,0.0027,83.6319,140721,,,,A*55
$GPGGA,205047.00,3731.4404980,N,12220.9952360,W,1,0,0.0,147.7243,M,0.0000,M,0.0000,0000*66
$GPRMC,205047.00,A,3731.4404980,N,12220.9952360,W,0.0019,83.6318,140721,,,,A*58
$GPGGA,205048.00,3731.4404980,N,12220.9952360,W,1,0,0.0,147.7243,M,0.0000,M,0.0000,0000*69
$GPRMC,205048.00,A,3731.4404980,N,12220.9952360,W,0.0028,83.6320,140721,,,,A*5e
$GPGGA,205049.00,3731.4404980,N,12220.9952360,W,1,0,0.0,147.7243,M,0.0000,M,0.0000,0000*68
$GPRMC,205049.00,A,3731.4404980,N,12220.9952360,W,0.0000,83.6322,140721,,,,A*57
$GPGGA,205050.00,3731.4404980,N,12220.9952360,W,1,0,0.0,147.7243,M,0.0000,M,0.0000,0000*60
$GPRMC,205050.00,A,3731.4404980,N,12220.9952360,W,0.0027,83.6320,140721,,,,A*58
$GPGGA,205051.00,3731.4404980,N,12220.9952360,W,1,0,0.0,147.7243,M,0.0000,M,0.0000,0000*61
$GPRMC,205051.00,A,3731.4404980,N,12220.9952360,W,0.0019,83.6316,140721,,,,A*51
$GPGGA,205052.00,3731.4404980,N,12220.9952360,W,1,0,0.0,147.7243,M,0.0000,M,0.0000,0000*62
$GPRMC,205052.00,A,3731.4404980,N,12220.9952360,W,0.0039,83.6312,140721,,,,A*54
$GPGGA,205053.00,3731.4404980,N,12220.9952360,W,1,0,0.0,147.7243,M,0.0000,M,0.0000,0000*63
$GPRMC,205053.00,A,3731.4404980,N,12220.9952360,W,0.0000,83.6322,140721,,,,A*5c
$GPGGA,205054.00,3731.4404980,N,12220.9952360,W,1,0,0.0,147.7243,M,0.0000,M,0.0000,0000*64
$GPRMC,205054.00,A,3731.4404980,N,12220.9952360,W,0.0019,83.6316,140721,,,,A*54
$GPGGA,205055.00,3731.4404980,N,12220.9952360,W,1,0,0.0,147.7243,M,0.0000,M,0.0000,0000*65
$GPRMC,205055.00,A,3731.4404980,N,12220.9952360,W,0.0019,83.6309,140721,,,,A*5b
$GPGGA,205056.00,3731.4404980,N,12220.9952360,W,1,0,0.0,147.7243,M,0.0000,M,0.0000,0000*66
$GPRMC,205056.00,A,3731.4404980,N,12220.9952360,W,0.0000,83.6310,140721,,,,A*58
$GPGGA,205057.00,3731.4404980,N,12220.9952360,W,1,0,0.0,147.7243,M,0.0000,M,0.0000,0000*67
$GPRMC,205057.00,A,3731.4404980,N,12220.9952360,W,0.0000,83.6310,140721,,,,A*59
$GPGGA,205058.00,3731.4404980,N,12220.9952360,W,1,0,0.0,147.7243,M,0.0000,M,0.0000,0000*68
$GPRMC,205058.00,A,3731.4404980,N,12220.9952360,W,0.0019,83.6310,140721,,,,A*5e
$GPGGA,205059.00,3731.4404980,N,12220.9952360,W,1,0,0.0,147.7243,M,0.0000,M,0.0000,0000*69
$GPRMC,205059.00,A,3731.4404980,N,12220.9952360,W,0.0000,83.6309,140721,,,,A*5f
$GPGGA,205100.00,3731.4404980,N,12220.9952360,W,1,0,0.0,147.7243,M,0.0000,M,0.0000,0000*64
$GPRMC,205100.00,A,3731.4404980,N,12220.9952360,W,0.0000,83.6308,140721,,,,A*53
$GPGGA,205101.00,3731.4404980,N,12220.9952360,W,1,0,0.0,147.7243,M,0.0000,M,0.0000,0000*65
$GPRMC,205101.00,A,3731.4404980,N,12220.9952360,W,0.0027,83.6308,140721,,,,A*57
$GPGGA,205102.00,3731.4404980,N,12220.9952360,W,1,0,0.0,147.7243,M,0.0000,M,0.0000,0000*66
$GPRMC,205102.00,A,3731.4404980,N,12220.9952360,W,0.0000,83.6308,140721,,,,A*51
$GPGGA,205103.00,3731.4404980,N,12220.9952360,W,1,0,0.0,147.7243,M,0.0000,M,0.0000,0000*67
$GPRMC,205103.00,A,3731.4404980,N,12220.9952360,W,0.0019,83.6306,140721,,,,A*56
$GPGGA,205104.00,3731.4404980,N,12220.9952360,W,1,0,0.0,147.7243,M,0.0000,M,0.0000,0000*60
$GPRMC,205104.00,A,3731.4404980,N,12220.9952360,W,0.0019,83.6303,140721,,,,A*54
$GPGGA,205105.00,3731.4404980,N,12220.9952360,W,1,0,0.0,147.7233,M,0.0000,M,0.0000,0000*66
$GPRMC,205105.00,A,3731.4404980,N,12220.9952360,W,0.0000,83.6304,140721,,,,A*5a
$GPGGA,205106.00,3731.4404980,N,12220.9952360,W,1,0,0.0,147.7233,M,0.0000,M,0.0000,0000*65
$GPRMC,205106.00,A,3731.4404980,N,12220.9952360,W,0.0000,83.6305,140721,,,,A*58
$GPGGA,205107.00,3731.4404980,N,12220.9952360,W,1,0,0.0,147.7233,M,0.0000,M,0.0000,0000*64
$GPRMC,205107.00,A,3731.4404980,N,12220.9952360,W,0.0019,83.6304,140721,,,,A*50
$GPGGA,205108.00,3731.4404980,N,12220.9952360,W,1,0,0.0,147.7233,M,0.0000,M,0.0000,0000*6b
$GPRMC,205108.00,A,3731.4404980,N,12220.9952360,W,0.0019,83.6307,140721,,,,A*5c
$GPGGA,205109.00,3731.4404980,N,12220.9952360,W,1,0,0.0,147.7233,M,0.0000,M,0.0000,0000*6a
$GPRMC,205109.00,A,3731.4404980,N,12220.9952360,W,0.0450,83.6316,140721,,,,A*54
$GPGGA,205110.00,3731.4405280,N,12220.9949480,W,1,0,0.0,147.7064,M,0.0000,M,0.0000,0000*6b
$GPRMC,205110.00,A,3731.4405280,N,12220.9949480,W,1.7834,83.7550,140721,,,,A*58
$GPGGA,205111.00,3731.4405280,N,12220.9940060,W,1,0,0.0,147.6624,M,0.0000,M,0.0000,0000*6a
$GPRMC,205111.00,A,3731.4405280,N,12220.9940060,W,3.6782,87.1794,140721,,,,A*53
$GPGGA,205112.00,3731.4402760,N,12220.9924760,W,1,0,0.0,147.6324,M,0.0000,M,0.0000,0000*65
$GPRMC,205112.00,A,3731.4402760,N,12220.9924760,W,5.3856,97.8471,140721,,,,A*5c
$GPGGA,205113.00,3731.4395920,N,12220.9904960,W,1,0,0.0,147.5804,M,0.0000,M,0.0000,0000*61
$GPRMC,205113.00,A,3731.4395920,N,12220.9904960,W,7.1610,111.4396,140721,,,,A*63
$GPGGA,205114.00,3731.4383680,N,12220.9881140,W,1,0,0.0,147.4884,M,0.0000,M,0.0000,0000*6b
$GPRMC,205114.00,A,3731.4383680,N,12220.9881140,W,9.2384,122.7738,140721,,,,A*66
$GPGGA,205115.00,3731.4365020,N,12220.9855640,W,1,0,0.0,147.4673,M,0.0000,M,0.0000,0000*66
$GPRMC,205115.00,A,3731.4365020,N,12220.9855640,W,10.7228,133.7179,140721,,,,A*54
$GPGGA,205116.00,3731.4341260,N,12220.9830320,W,1,0,0.0,147.5743,M,0.0000,M,0.0000,0000*66
$GPRMC,205116.00,A,3731.4341260,N,12220.9830320,W,11.6122,141.2501,140721,,,,A*55
$GPGGA,205117.00,3731.4314140,N,12220.9810100,W,1,0,0.0,147.6593,M,0.0000,M,0.0000,0000*68
$GPRMC,205117.00,A,3731.4314140,N,12220.9810100,W,11.2650,151.0406,140721,,,,A*54
$GPGGA,205118.00,3731.4285460,N,12220.9795940,W,1,0,0.0,147.5934,M,0.0000,M,0.0000,0000*65
$GPRMC,205118.00,A,3731.4285460,N,12220.9795940,W,11.0060,159.6125,140721,,,,A*56
$GPGGA,205119.00,3731.4257080,N,12220.9784780,W,1,0,0.0,147.6353,M,0.0000,M,0.0000,0000*6b
$GPRMC,205119.00,A,3731.4257080,N,12220.9784780,W,10.3299,162.0688,140721,,,,A*58
$GPGGA,205120.00,3731.4231820,N,12220.9771040,W,1,0,0.0,147.8043,M,0.0000,M,0.0000,0000*6e
$GPRMC,205120.00,A,3731.4231820,N,12220.9771040,W,9.2060,155.5663,140721,,,,A*68
$GPGGA,205121.00,3731.4212380,N,12220.9756100,W,1,0,0.0,147.9863,M,0.0000,M,0.0000,0000*64
$GPRMC,205121.00,A,3731.4212380,N,12220.9756100,W,7.0373,148.3704,140721,,,,A*6e
$GPGGA,205122.00,3731.4198280,N,12220.9742960,W,1,0,0.0,148.1913,M,0.0000,M,0.0000,0000*6d
$GPRMC,205122.00,A,3731.4198280,N,12220.9742960,W,5.5315,143.9288,140721,,,,A*61
$GPGGA,205123.00,3731.4187000,N,12220.9731980,W,1,0,0.0,148.3922,M,0.0000,M,0.0000,0000*62
$GPRMC,205123.00,A,3731.4187000,N,12220.9731980,W,4.7496,142.7718,140721,,,,A*62
$GPGGA,205124.00,3731.4175300,N,12220.9724720,W,1,0,0.0,148.4063,M,0.0000,M,0.0000,0000*60
$GPRMC,205124.00,A,3731.4175300,N,12220.9724720,W,4.7784,152.5259,140721,,,,A*68
$GPGGA,205125.00,3731.4162640,N,12220.9725680,W,1,0,0.0,148.2813,M,0.0000,M,0.0000,0000*65
$GPRMC,205125.00,A,3731.4162640,N,12220.9725680,W,4.6305,175.4973,140721,,,,A*6f
$GPGGA,205126.00,3731.4150340,N,12220.9734140,W,1,0,0.0,148.3643,M,0.0000,M,0.0000,0000*63
$GPRMC,205126.00,A,3731.4150340,N,12220.9734140,W,5.4606,200.7626,140721,,,,A*6b
$GPGGA,205127.00,3731.4138520,N,12220.9749500,W,1,0,0.0,148.3973,M,0.0000,M,0.0000,0000*6a
$GPRMC,205127.00,A,3731.4138520,N,12220.9749500,W,7.1025,222.0092,140721,,,,A*60
$GPGGA,205128.00,3731.4124360,N,12220.9771520,W,1,0,0.0,148.3244,M,0.0000,M,0.0000,0000*6c
$GPRMC,205128.00,A,3731.4124360,N,12220.9771520,W,9.1441,229.8320,140721,,,,A*68
$GPGGA,205129.00,3731.4106600,N,12220.9798880,W,1,0,0.0,148.1744,M,0.0000,M,0.0000,0000*69
$GPRMC,205129.00,A,3731.4106600,N,12220.9798880,W,11.1395,230.9837,140721,,,,A*59
$GPGGA,205130.00,3731.4086140,N,12220.9830620,W,1,0,0.0,147.9544,M,0.0000,M,0.0000,0000*67
$GPRMC,205130.00,A,3731.4086140,N,12220.9830620,W,12.0335,230.8077,140721,,,,A*57
$GPGGA,205131.00,3731.4064660,N,12220.9863200,W,1,0,0.0,147.6994,M,0.0000,M,0.0000,0000*61
$GPRMC,205131.00,A,3731.4064660,N,12220.9863200,W,12.0484,230.2950,140721,,,,A*54
$GPGGA,205132.00,3731.4043660,N,12220.9894400,W,1,0,0.0,147.4484,M,0.0000,M,0.0000,0000*67
$GPRMC,205132.00,A,3731.4043660,N,12220.9894400,W,11.1140,229.8090,140721,,,,A*54
$GPGGA,205133.00,3731.4025540,N,12220.9921040,W,1,0,0.0,147.2444,M,0.0000,M,0.0000,0000*62
$GPRMC,205133.00,A,3731.4025540,N,12220.9921040,W,8.6396,229.5439,140721,,,,A*67
$GPGGA,205134.00,3731.4013120,N,12220.9939340,W,1,0,0.0,147.1164,M,0.0000,M,0.0000,0000*6c
$GPRMC,205134.00,A,3731.4013120,N,12220.9939340,W,5.1059,229.4685,140721,,,,A*63
$GPGGA,205135.00,3731.4006760,N,12220.9948640,W,1,0,0.0,147.0584,M,0.0000,M,0.0000,0000*63
$GPRMC,205135.00,A,3731.4006760,N,12220.9948640,W,2.0343,229.4410,140721,,,,A*67
$GPGGA,205136.00,3731.4002620,N,12220.9954700,W,1,0,0.0,147.0114,M,0.0000,M,0.0000,0000*64
$GPRMC,205136.00,A,3731.4002620,N,12220.9954700,W,3.0833,229.4352,140721,,,,A*61
$GPGGA,205137.00,3731.3994460,N,12220.9966580,W,1,0,0.0,146.9534,M,0.0000,M,0.0000,0000*67
$GPRMC,205137.00,A,3731.3994460,N,12220.9966580,W,5.9042,229.5853,140721,,,,A*66
$GPGGA,205138.00,3731.3981620,N,12220.9986020,W,1,0,0.0,146.9034,M,0.0000,M,0.0000,0000*6e
$GPRMC,205138.00,A,3731.3981620,N,12220.9986020,W,8.3787,230.1947,140721,,,,A*6b
$GPGGA,205139.00,3731.3966740,N,12221.0008640,W,1,0,0.0,146.8783,M,0.0000,M,0.0000,0000*6c
$GPRMC,205139.00,A,3731.3966740,N,12221.0008640,W,8.2313,230.4626,140721,,,,A*66
$GPGGA,205140.00,3731.3952820,N,12221.0030120,W,1,0,0.0,146.9373,M,0.0000,M,0.0000,0000*6c
$GPRMC,205140.00,A,3731.3952820,N,12221.0030120,W,7.6248,230.8062,140721,,,,A*62
$GPGGA,205141.00,3731.3940100,N,12221.0049920,W,1,0,0.0,147.0063,M,0.0000,M,0.0000,0000*69
$GPRMC,205141.00,A,3731.3940100,N,12221.0049920,W,6.9248,231.1749,140721,,,,A*65
$GPGGA,205142.00,3731.3928760,N,12221.0067680,W,1,0,0.0,147.1053,M,0.0000,M,0.0000,0000*6f
$GPRMC,205142.00,A,3731.3928760,N,12221.0067680,W,6.1465,231.4758,140721,,,,A*65
$GPGGA,205143.00,3731.3918740,N,12221.0083580,W,1,0,0.0,147.2063,M,0.0000,M,0.0000,0000*66
$GPRMC,205143.00,A,3731.3918740,N,12221.0083580,W,5.4747,231.6355,140721,,,,A*62
$GPGGA,205144.00,3731.3909740,N,12221.0097920,W,1,0,0.0,147.2963,M,0.0000,M,0.0000,0000*6b
$GPRMC,205144.00,A,3731.3909740,N,12221.0097920,W,5.0120,231.5778,140721,,,,A*6d
$GPGGA,205145.00,3731.3901340,N,12221.0111120,W,1,0,0.0,147.4003,M,0.0000,M,0.0000,0000*68
$GPRMC,205145.00,A,3731.3901340,N,12221.0111120,W,4.6719,231.5126,140721,,,,A*61
$GPGGA,205146.00,3731.3893540,N,12221.0123480,W,1,0,0.0,147.5073,M,0.0000,M,0.0000,0000*6f
$GPRMC,205146.00,A,3731.3893540,N,12221.0123480,W,4.4271,231.4507,140721,,,,A*6f
$GPGGA,205147.00,3731.3885860,N,12221.0135540,W,1,0,0.0,147.6003,M,0.0000,M,0.0000,0000*68
$GPRMC,205147.00,A,3731.3885860,N,12221.0135540,W,4.7211,231.3588,140721,,,,A*69
$GPGGA,205148.00,3731.3876140,N,12221.0150300,W,1,0,0.0,147.7213,M,0.0000,M,0.0000,0000*63
$GPRMC,205148.00,A,3731.3876140,N,12221.0150300,W,6.2391,230.7107,140721,,,,A*68
$GPGGA,205149.00,3731.3863300,N,12221.0169800,W,1,0,0.0,147.9013,M,0.0000,M,0.0000,0000*6d
$GPRMC,205149.00,A,3731.3863300,N,12221.0169800,W,8.3837,230.4342,140721,,,,A*62
$GPGGA,205150.00,3731.3846080,N,12221.0195540,W,1,0,0.0,148.1403,M,0.0000,M,0.0000,0000*61
$GPRMC,205150.00,A,3731.3846080,N,12221.0195540,W,10.8167,229.7681,140721,,,,A*53
$GPGGA,205151.00,3731.3824480,N,12221.0226980,W,1,0,0.0,148.4022,M,0.0000,M,0.0000,0000*69
$GPRMC,205151.00,A,3731.3824480,N,12221.0226980,W,12.9283,229.3245,140721,,,,A*5b
$GPGGA,205152.00,3731.3799640,N,12221.0263160,W,1,0,0.0,148.7742,M,0.0000,M,0.0000,0000*68
$GPRMC,205152.00,A,3731.3799640,N,12221.0263160,W,13.8926,229.2829,140721,,,,A*5d
$GPGGA,205153.00,3731.3775220,N,12221.0298980,W,1,0,0.0,149.1222,M,0.0000,M,0.0000,0000*6f
$GPRMC,205153.00,A,3731.3775220,N,12221.0298980,W,13.0259,229.4852,140721,,,,A*5f
$GPGGA,205154.00,3731.3754100,N,12221.0330240,W,1,0,0.0,149.4032,M,0.0000,M,0.0000,0000*68
$GPRMC,205154.00,A,3731.3754100,N,12221.0330240,W,9.9281,229.8678,140721,,,,A*63
$GPGGA,205155.00,3731.3740120,N,12221.0351300,W,1,0,0.0,149.5943,M,0.0000,M,0.0000,0000*62
$GPRMC,205155.00,A,3731.3740120,N,12221.0351300,W,5.8249,230.1489,140721,,,,A*63
$GPGGA,205156.00,3731.3731900,N,12221.0363900,W,1,0,0.0,149.6743,M,0.0000,M,0.0000,0000*6b
$GPRMC,205156.00,A,3731.3731900,N,12221.0363900,W,4.4278,230.7825,140721,,,,A*64
$GPGGA,205157.00,3731.3724040,N,12221.0377940,W,1,0,0.0,149.7543,M,0.0000,M,0.0000,0000*61
$GPRMC,205157.00,A,3731.3724040,N,12221.0377940,W,5.5271,234.3074,140721,,,,A*68
$GPGGA,205158.00,3731.3717800,N,12221.0397260,W,1,0,0.0,149.8363,M,0.0000,M,0.0000,0000*6e
$GPRMC,205158.00,A,3731.3717800,N,12221.0397260,W,6.4033,247.2552,140721,,,,A*6e
$GPGGA,205159.00,3731.3718160,N,12221.0419280,W,1,0,0.0,149.8144,M,0.0000,M,0.0000,0000*67
$GPRMC,205159.00,A,3731.3718160,N,12221.0419280,W,6.4843,269.0677,140721,,,,A*65
$GPGGA,205200.00,3731.3726320,N,12221.0441300,W,1,0,0.0,149.7933,M,0.0000,M,0.0000,0000*60
$GPRMC,205200.00,A,3731.3726320,N,12221.0441300,W,7.8925,292.9295,140721,,,,A*6c
$GPGGA,205201.00,3731.3742520,N,12221.0465360,W,1,0,0.0,149.7884,M,0.0000,M,0.0000,0000*68
$GPRMC,205201.00,A,3731.3742520,N,12221.0465360,W,10.5852,310.0836,140721,,,,A*52
$GPGGA,205202.00,3731.3766580,N,12221.0495060,W,1,0,0.0,149.7664,M,0.0000,M,0.0000,0000*6b
$GPRMC,205202.00,A,3731.3766580,N,12221.0495060,W,13.7765,315.9834,140721,,,,A*55
$GPGGA,205203.00,3731.3798680,N,12221.0531600,W,1,0,0.0,149.6604,M,0.0000,M,0.0000,0000*60
$GPRMC,205203.00,A,3731.3798680,N,12221.0531600,W,17.3507,318.2758,140721,,,,A*5c
$GPGGA,205204.00,3731.3838340,N,12221.0574800,W,1,0,0.0,149.4225,M,0.0000,M,0.0000,0000*61
$GPRMC,205204.00,A,3731.3838340,N,12221.0574800,W,20.6023,319.4865,140721,,,,A*5c
$GPGGA,205205.00,3731.3885200,N,12221.0625140,W,1,0,0.0,148.8876,M,0.0000,M,0.0000,0000*68
$GPRMC,205205.00,A,3731.3885200,N,12221.0625140,W,23.2352,319.2747,140721,,,,A*5f
$GPGGA,205206.00,3731.3935360,N,12221.0678660,W,1,0,0.0,148.1836,M,0.0000,M,0.0000,0000*66
$GPRMC,205206.00,A,3731.3935360,N,12221.0678660,W,24.0966,319.7716,140721,,,,A*55
$GPGGA,205207.00,3731.3987740,N,12221.0734100,W,1,0,0.0,147.4026,M,0.0000,M,0.0000,0000*63
$GPRMC,205207.00,A,3731.3987740,N,12221.0734100,W,25.1454,320.0096,140721,,,,A*5d
$GPGGA,205208.00,3731.4042220,N,12221.0792180,W,1,0,0.0,146.5387,M,0.0000,M,0.0000,0000*64
$GPRMC,205208.00,A,3731.4042220,N,12221.0792180,W,26.2704,319.8840,140721,,,,A*55
$GPGGA,205209.00,3731.4099400,N,12221.0852420,W,1,0,0.0,145.6657,M,0.0000,M,0.0000,0000*63
$GPRMC,205209.00,A,3731.4099400,N,12221.0852420,W,27.3617,319.9141,140721,,,,A*50
$GPGGA,205210.00,3731.4157960,N,12221.0914940,W,1,0,0.0,144.8736,M,0.0000,M,0.0000,0000*62
$GPRMC,205210.00,A,3731.4157960,N,12221.0914940,W,27.8611,319.6941,140721,,,,A*52
$GPGGA,205211.00,3731.4217360,N,12221.0977940,W,1,0,0.0,144.2635,M,0.0000,M,0.0000,0000*63
$GPRMC,205211.00,A,3731.4217360,N,12221.0977940,W,28.0241,320.0415,140721,,,,A*5d
$GPGGA,205212.00,3731.4277120,N,12221.1040700,W,1,0,0.0,143.7705,M,0.0000,M,0.0000,0000*66
$GPRMC,205212.00,A,3731.4277120,N,12221.1040700,W,28.0395,320.2254,140721,,,,A*51
$GPGGA,205213.00,3731.4336940,N,12221.1103580,W,1,0,0.0,143.2995,M,0.0000,M,0.0000,0000*63
$GPRMC,205213.00,A,3731.4336940,N,12221.1103580,W,28.0301,320.1506,140721,,,,A*58
$GPGGA,205214.00,3731.4396760,N,12221.1166340,W,1,0,0.0,142.8085,M,0.0000,M,0.0000,0000*68
$GPRMC,205214.00,A,3731.4396760,N,12221.1166340,W,28.0441,320.0601,140721,,,,A*56
$GPGGA,205215.00,3731.4456460,N,12221.1229460,W,1,0,0.0,142.2785,M,0.0000,M,0.0000,0000*61
$GPRMC,205215.00,A,3731.4456460,N,12221.1229460,W,28.0840,319.9499,140721,,,,A*5f
$GPGGA,205216.00,3731.4516100,N,12221.1292880,W,1,0,0.0,141.7845,M,0.0000,M,0.0000,0000*63
$GPRMC,205216.00,A,3731.4516100,N,12221.1292880,W,28.1198,319.7019,140721,,,,A*57
$GPGGA,205217.00,3731.4575320,N,12221.1355760,W,1,0,0.0,141.3155,M,0.0000,M,0.0000,0000*60
$GPRMC,205217.00,A,3731.4575320,N,12221.1355760,W,27.2010,319.9496,140721,,,,A*58
$GPGGA,205218.00,3731.4629860,N,12221.1412940,W,1,0,0.0,140.8855,M,0.0000,M,0.0000,0000*61
$GPRMC,205218.00,A,3731.4629860,N,12221.1412940,W,23.6955,320.2731,140721,,,,A*5d
$GPGGA,205219.00,3731.4675940,N,12221.1461660,W,1,0,0.0,140.4425,M,0.0000,M,0.0000,0000*64
$GPRMC,205219.00,A,3731.4675940,N,12221.1461660,W,19.5751,319.8207,140721,,,,A*5f
$GPGGA,205220.00,3731.4712720,N,12221.1501140,W,1,0,0.0,140.1444,M,0.0000,M,0.0000,0000*66
$GPRMC,205220.00,A,3731.4712720,N,12221.1501140,W,15.0632,319.4476,140721,,,,A*5e
$GPGGA,205221.00,3731.4739900,N,12221.1530000,W,1,0,0.0,139.9044,M,0.0000,M,0.0000,0000*67
$GPRMC,205221.00,A,3731.4739900,N,12221.1530000,W,10.6666,319.8955,140721,,,,A*5f
$GPGGA,205222.00,3731.4758380,N,12221.1549800,W,1,0,0.0,139.7404,M,0.0000,M,0.0000,0000*69
$GPRMC,205222.00,A,3731.4758380,N,12221.1549800,W,6.8615,319.7689,140721,,,,A*63
$GPGGA,205223.00,3731.4769240,N,12221.1561440,W,1,0,0.0,139.6533,M,0.0000,M,0.0000,0000*61
$GPRMC,205223.00,A,3731.4769240,N,12221.1561440,W,3.6187,319.6479,140721,,,,A*64
$GPGGA,205224.00,3731.4775660,N,12221.1568280,W,1,0,0.0,139.6154,M,0.0000,M,0.0000,0000*6b
$GPRMC,205224.00,A,3731.4775660,N,12221.1568280,W,3.2832,319.5575,140721,,,,A*66
$GPGGA,205225.00,3731.4784240,N,12221.1578420,W,1,0,0.0,139.5544,M,0.0000,M,0.0000,0000*69
$GPRMC,205225.00,A,3731.4784240,N,12221.1578420,W,5.2761,317.6390,140721,,,,A*6d
$GPGGA,205226.00,3731.4794920,N,12221.1596240,W,1,0,0.0,139.4774,M,0.0000,M,0.0000,0000*66
$GPRMC,205226.00,A,3731.4794920,N,12221.1596240,W,7.2026,307.5992,140721,,,,A*6e
$GPGGA,205227.00,3731.4802180,N,12221.1622340,W,1,0,0.0,139.4164,M,0.0000,M,0.0000,0000*6f
$GPRMC,205227.00,A,3731.4802180,N,12221.1622340,W,7.8469,288.5717,140721,,,,A*60
$GPGGA,205228.00,3731.4799900,N,12221.1651020,W,1,0,0.0,139.2804,M,0.0000,M,0.0000,0000*65
$GPRMC,205228.00,A,3731.4799900,N,12221.1651020,W,8.3371,263.3421,140721,,,,A*6c
$GPGGA,205229.00,3731.4787540,N,12221.1679220,W,1,0,0.0,139.1204,M,0.0000,M,0.0000,0000*62
$GPRMC,205229.00,A,3731.4787540,N,12221.1679220,W,9.5182,240.0205,140721,,,,A*69
$GPGGA,205230.00,3731.4769660,N,12221.1707540,W,1,0,0.0,138.9394,M,0.0000,M,0.0000,0000*63
$GPRMC,205230.00,A,3731.4769660,N,12221.1707540,W,11.0901,231.7583,140721,,,,A*5e
$GPGGA,205231.00,3731.4747400,N,12221.1739820,W,1,0,0.0,138.7014,M,0.0000,M,0.0000,0000*69
$GPRMC,205231.00,A,3731.4747400,N,12221.1739820,W,13.3569,229.2453,140721,,,,A*52
$GPGGA,205232.00,3731.4721060,N,12221.1777680,W,1,0,0.0,138.3685,M,0.0000,M,0.0000,0000*6c
$GPRMC,205232.00,A,3731.4721060,N,12221.1777680,W,15.1657,229.0149,140721,,,,A*5b
$GPGGA,205233.00,3731.4691180,N,12221.1820220,W,1,0,0.0,137.9395,M,0.0000,M,0.0000,0000*6a
$GPRMC,205233.00,A,3731.4691180,N,12221.1820220,W,17.3616,228.3701,140721,,,,A*51
$GPGGA,205234.00,3731.4655960,N,12221.1866840,W,1,0,0.0,137.4446,M,0.0000,M,0.0000,0000*69
$GPRMC,205234.00,A,3731.4655960,N,12221.1866840,W,19.2617,225.5031,140721,,,,A*57
$GPGGA,205235.00,3731.4616000,N,12221.1915080,W,1,0,0.0,136.9426,M,0.0000,M,0.0000,0000*6b
$GPRMC,205235.00,A,3731.4616000,N,12221.1915080,W,20.4973,223.6897,140721,,,,A*5f
$GPGGA,205236.00,3731.4573400,N,12221.1965900,W,1,0,0.0,136.3886,M,0.0000,M,0.0000,0000*66
$GPRMC,205236.00,A,3731.4573400,N,12221.1965900,W,21.7663,223.7388,140721,,,,A*56
$GPGGA,205237.00,3731.4528640,N,12221.2019120,W,1,0,0.0,135.7366,M,0.0000,M,0.0000,0000*66
$GPRMC,205237.00,A,3731.4528640,N,12221.2019120,W,22.4976,223.5532,140721,,,,A*5a
$GPGGA,205238.00,3731.4482260,N,12221.2073420,W,1,0,0.0,134.9946,M,0.0000,M,0.0000,0000*60
$GPRMC,205238.00,A,3731.4482260,N,12221.2073420,W,22.9816,222.6991,140721,,,,A*56
$GPGGA,205239.00,3731.4434080,N,12221.2125920,W,1,0,0.0,134.1377,M,0.0000,M,0.0000,0000*6f
$GPRMC,205239.00,A,3731.4434080,N,12221.2125920,W,22.8108,219.6705,140721,,,,A*55
$GPGGA,205240.00,3731.4383500,N,12221.2173500,W,1,0,0.0,133.1937,M,0.0000,M,0.0000,0000*63
$GPRMC,205240.00,A,3731.4383500,N,12221.2173500,W,22.6820,215.6043,140721,,,,A*54
$GPGGA,205241.00,3731.4329680,N,12221.2216580,W,1,0,0.0,132.1737,M,0.0000,M,0.0000,0000*6e
$GPRMC,205241.00,A,3731.4329680,N,12221.2216580,W,23.0791,210.7574,140721,,,,A*51
$GPGGA,205242.00,3731.4272260,N,12221.2253780,W,1,0,0.0,131.0928,M,0.0000,M,0.0000,0000*69
$GPRMC,205242.00,A,3731.4272260,N,12221.2253780,W,23.3255,205.1071,140721,,,,A*58
$GPGGA,205243.00,3731.4211900,N,12221.2284680,W,1,0,0.0,129.9658,M,0.0000,M,0.0000,0000*63
$GPRMC,205243.00,A,3731.4211900,N,12221.2284680,W,23.5951,201.3463,140721,,,,A*52
$GPGGA,205244.00,3731.4149320,N,12221.2314560,W,1,0,0.0,128.8698,M,0.0000,M,0.0000,0000*6b
$GPRMC,205244.00,A,3731.4149320,N,12221.2314560,W,24.5176,200.6615,140721,,,,A*5b
$GPGGA,205245.00,3731.4086560,N,12221.2346900,W,1,0,0.0,127.7628,M,0.0000,M,0.0000,0000*6c
$GPRMC,205245.00,A,3731.4086560,N,12221.2346900,W,24.1623,204.3953,140721,,,,A*58
$GPGGA,205246.00,3731.4029500,N,12221.2388660,W,1,0,0.0,126.6038,M,0.0000,M,0.0000,0000*60
$GPRMC,205246.00,A,3731.4029500,N,12221.2388660,W,23.6985,214.2892,140721,,,,A*5c
$GPGGA,205247.00,3731.3981200,N,12221.2443440,W,1,0,0.0,125.4628,M,0.0000,M,0.0000,0000*6c
$GPRMC,205247.00,A,3731.3981200,N,12221.2443440,W,23.4291,226.3598,140721,,,,A*5d
$GPGGA,205248.00,3731.3943340,N,12221.2508420,W,1,0,0.0,124.3288,M,0.0000,M,0.0000,0000*68
$GPRMC,205248.00,A,3731.3943340,N,12221.2508420,W,22.8703,238.2305,140721,,,,A*5e
$GPGGA,205249.00,3731.3918080,N,12221.2580120,W,1,0,0.0,123.2927,M,0.0000,M,0.0000,0000*65
$GPRMC,205249.00,A,3731.3918080,N,12221.2580120,W,22.5344,250.1960,140721,,,,A*55
$GPGGA,205250.00,3731.3904700,N,12221.2656620,W,1,0,0.0,122.2738,M,0.0000,M,0.0000,0000*61
$GPRMC,205250.00,A,3731.3904700,N,12221.2656620,W,22.9259,261.9081,140721,,,,A*5d
$GPGGA,205251.00,3731.3903980,N,12221.2737620,W,1,0,0.0,121.1597,M,0.0000,M,0.0000,0000*60
$GPRMC,205251.00,A,3731.3903980,N,12221.2737620,W,23.7832,273.7333,140721,,,,A*54
$GPGGA,205252.00,3731.3916520,N,12221.2819700,W,1,0,0.0,120.1558,M,0.0000,M,0.0000,0000*63
$GPRMC,205252.00,A,3731.3916520,N,12221.2819700,W,24.4405,285.0333,140721,,,,A*57
$GPGGA,205253.00,3731.3939260,N,12221.2903400,W,1,0,0.0,119.1058,M,0.0000,M,0.0000,0000*6a
$GPRMC,205253.00,A,3731.3939260,N,12221.2903400,W,26.4733,291.1508,140721,,,,A*5f
$GPGGA,205254.00,3731.3971360,N,12221.2990040,W,1,0,0.0,117.9518,M,0.0000,M,0.0000,0000*6d
$GPRMC,205254.00,A,3731.3971360,N,12221.2990040,W,28.1959,297.3414,140721,,,,A*5e
$GPGGA,205255.00,3731.4012760,N,12221.3077580,W,1,0,0.0,116.4640,M,0.0000,M,0.0000,0000*69
$GPRMC,205255.00,A,3731.4012760,N,12221.3077580,W,30.4679,303.0853,140721,,,,A*59
$GPGGA,205256.00,3731.4064480,N,12221.3167280,W,1,0,0.0,114.9700,M,0.0000,M,0.0000,0000*6b
$GPRMC,205256.00,A,3731.4064480,N,12221.3167280,W,33.1158,307.7153,140721,,,,A*59
$GPGGA,205257.00,3731.4125860,N,12221.3259560,W,1,0,0.0,113.5069,M,0.0000,M,0.0000,0000*68
$GPRMC,205257.00,A,3731.4125860,N,12221.3259560,W,35.8120,311.6151,140721,,,,A*5d
$GPGGA,205258.00,3731.4195760,N,12221.3354480,W,1,0,0.0,112.0539,M,0.0000,M,0.0000,0000*64
$GPRMC,205258.00,A,3731.4195760,N,12221.3354480,W,38.3255,313.2121,140721,,,,A*53
$GPGGA,205259.00,3731.4270880,N,12221.3455040,W,1,0,0.0,110.6849,M,0.0000,M,0.0000,0000*6c
$GPRMC,205259.00,A,3731.4270880,N,12221.3455040,W,40.6168,313.1997,140721,,,,A*54
$GPGGA,205300.00,3731.4350380,N,12221.3561240,W,1,0,0.0,109.4049,M,0.0000,M,0.0000,0000*6f
$GPRMC,205300.00,A,3731.4350380,N,12221.3561240,W,42.9304,313.4875,140721,,,,A*58
$GPGGA,205301.00,3731.4435820,N,12221.3671400,W,1,0,0.0,108.0539,M,0.0000,M,0.0000,0000*6c
$GPRMC,205301.00,A,3731.4435820,N,12221.3671400,W,45.1523,315.0019,140721,,,,A*50
$GPGGA,205302.00,3731.4527740,N,12221.3784320,W,1,0,0.0,106.6419,M,0.0000,M,0.0000,0000*61
$GPRMC,205302.00,A,3731.4527740,N,12221.3784320,W,47.3290,316.3054,140721,,,,A*50
$GPGGA,205303.00,3731.4625780,N,12221.3899280,W,1,0,0.0,105.3739,M,0.0000,M,0.0000,0000*62
$GPRMC,205303.00,A,3731.4625780,N,12221.3899280,W,49.1007,318.0638,140721,,,,A*55
$GPGGA,205304.00,3731.4728980,N,12221.4014840,W,1,0,0.0,104.3787,M,0.0000,M,0.0000,0000*6f
$GPRMC,205304.00,A,3731.4728980,N,12221.4014840,W,50.2843,318.8919,140721,,,,A*5b
$GPGGA,205305.00,3731.4836560,N,12221.4129080,W,1,0,0.0,103.6596,M,0.0000,M,0.0000,0000*67
$GPRMC,205305.00,A,3731.4836560,N,12221.4129080,W,51.0603,321.0665,140721,,,,A*5c
$GPGGA,205306.00,3731.4949240,N,12221.4239780,W,1,0,0.0,102.8557,M,0.0000,M,0.0000,0000*6f
$GPRMC,205306.00,A,3731.4949240,N,12221.4239780,W,51.9058,322.6770,140721,,,,A*57
$GPGGA,205307.00,3731.5065820,N,12221.4350720,W,1,0,0.0,102.0107,M,0.0000,M,0.0000,0000*69
$GPRMC,205307.00,A,3731.5065820,N,12221.4350720,W,53.5050,323.2375,140721,,,,A*5a
$GPGGA,205308.00,3731.5187620,N,12221.4465440,W,1,0,0.0,101.0047,M,0.0000,M,0.0000,0000*67
$GPRMC,205308.00,A,3731.5187620,N,12221.4465440,W,55.9987,322.8781,140721,,,,A*5f
$GPGGA,205309.00,3731.5312360,N,12221.4585200,W,1,0,0.0,99.9588,M,0.0000,M,0.0000,0000*5b
$GPRMC,205309.00,A,3731.5312360,N,12221.4585200,W,56.5655,322.5033,140721,,,,A*50
$GPGGA,205310.00,3731.5437160,N,12221.4705920,W,1,0,0.0,98.7358,M,0.0000,M,0.0000,0000*56
$GPRMC,205310.00,A,3731.5437160,N,12221.4705920,W,56.6534,322.4195,140721,,,,A*52
$GPGGA,205311.00,3731.5562140,N,12221.4825740,W,1,0,0.0,97.5589,M,0.0000,M,0.0000,0000*56
$GPRMC,205311.00,A,3731.5562140,N,12221.4825740,W,56.4342,323.2823,140721,,,,A*53
$GPGGA,205312.00,3731.5688800,N,12221.4941420,W,1,0,0.0,96.3419,M,0.0000,M,0.0000,0000*56
$GPRMC,205312.00,A,3731.5688800,N,12221.4941420,W,56.2854,324.8676,140721,,,,A*55
$GPGGA,205313.00,3731.5818340,N,12221.5052240,W,1,0,0.0,95.0849,M,0.0000,M,0.0000,0000*5c
$GPRMC,205313.00,A,3731.5818340,N,12221.5052240,W,56.6269,326.6810,140721,,,,A*54
$GPGGA,205314.00,3731.5952260,N,12221.5158440,W,1,0,0.0,93.8858,M,0.0000,M,0.0000,0000*54
$GPRMC,205314.00,A,3731.5952260,N,12221.5158440,W,57.3158,328.8567,140721,,,,A*5a
$GPGGA,205315.00,3731.6091100,N,12221.5258700,W,1,0,0.0,92.8637,M,0.0000,M,0.0000,0000*57
$GPRMC,205315.00,A,3731.6091100,N,12221.5258700,W,57.9414,331.4001,140721,,,,A*59
$GPGGA,205316.00,3731.6234800,N,12221.5352240,W,1,0,0.0,92.0477,M,0.0000,M,0.0000,0000*54
$GPRMC,205316.00,A,3731.6234800,N,12221.5352240,W,58.4930,334.0885,140721,,,,A*58
$GPGGA,205317.00,3731.6383060,N,12221.5438160,W,1,0,0.0,91.4555,M,0.0000,M,0.0000,0000*5a
$GPRMC,205317.00,A,3731.6383060,N,12221.5438160,W,58.9523,336.3923,140721,,,,A*5f
$GPGGA,205318.00,3731.6534680,N,12221.5517420,W,1,0,0.0,91.0824,M,0.0000,M,0.0000,0000*55
$GPRMC,205318.00,A,3731.6534680,N,12221.5517420,W,59.2051,338.5523,140721,,,,A*51
$GPGGA,205319.00,3731.6689000,N,12221.5589540,W,1,0,0.0,91.0913,M,0.0000,M,0.0000,0000*5a
$GPRMC,205319.00,A,3731.6689000,N,12221.5589540,W,59.2069,340.9121,140721,,,,A*55
$GPGGA,205320.00,3731.6844760,N,12221.5655720,W,1,0,0.0,91.4072,M,0.0000,M,0.0000,0000*52
$GPRMC,205320.00,A,3731.6844760,N,12221.5655720,W,59.0977,341.6049,140721,,,,A*52
$GPGGA,205321.00,3731.7000760,N,12221.5720220,W,1,0,0.0,91.7043,M,0.0000,M,0.0000,0000*5d
$GPRMC,205321.00,A,3731.7000760,N,12221.5720220,W,58.9435,342.1828,140721,,,,A*54
$GPGGA,205322.00,3731.7156400,N,12221.5783820,W,1,0,0.0,92.1841,M,0.0000,M,0.0000,0000*55
$GPRMC,205322.00,A,3731.7156400,N,12221.5783820,W,58.7364,341.8961,140721,,,,A*58
$GPGGA,205323.00,3731.7311080,N,12221.5848080,W,1,0,0.0,92.8390,M,0.0000,M,0.0000,0000*5d
$GPRMC,205323.00,A,3731.7311080,N,12221.5848080,W,58.3903,341.4661,140721,,,,A*52
$GPGGA,205324.00,3731.7464140,N,12221.5914020,W,1,0,0.0,93.6780,M,0.0000,M,0.0000,0000*5a
$GPRMC,205324.00,A,3731.7464140,N,12221.5914020,W,57.9876,341.0775,140721,,,,A*59
$GPGGA,205325.00,3731.7616180,N,12221.5979300,W,1,0,0.0,94.6060,M,0.0000,M,0.0000,0000*54
$GPRMC,205325.00,A,3731.7616180,N,12221.5979300,W,57.5996,341.3116,140721,,,,A*5a
$GPGGA,205326.00,3731.7767500,N,12221.6043020,W,1,0,0.0,95.5070,M,0.0000,M,0.0000,0000*5d
$GPRMC,205326.00,A,3731.7767500,N,12221.6043020,W,57.1627,341.4921,140721,,,,A*5a
$GPGGA,205327.00,3731.7917620,N,12221.6106140,W,1,0,0.0,96.3510,M,0.0000,M,0.0000,0000*55
$GPRMC,205327.00,A,3731.7917620,N,12221.6106140,W,56.6785,341.4793,140721,,,,A*5c
$GPGGA,205328.00,3731.8066660,N,12221.6169200,W,1,0,0.0,97.1120,M,0.0000,M,0.0000,0000*54
$GPRMC,205328.00,A,3731.8066660,N,12221.6169200,W,56.4507,341.1317,140721,,,,A*5e
$GPGGA,205329.00,3731.8214860,N,12221.6233040,W,1,0,0.0,98.1189,M,0.0000,M,0.0000,0000*5a
$GPRMC,205329.00,A,3731.8214860,N,12221.6233040,W,56.2322,341.1768,140721,,,,A*57
$GPGGA,205330.00,3731.8362520,N,12221.6296880,W,1,0,0.0,98.9990,M,0.0000,M,0.0000,0000*58
$GPRMC,205330.00,A,3731.8362520,N,12221.6296880,W,56.0806,340.9958,140721,,,,A*56
$GPGGA,205331.00,3731.8509940,N,12221.6360900,W,1,0,0.0,99.7401,M,0.0000,M,0.0000,0000*53
$GPRMC,205331.00,A,3731.8509940,N,12221.6360900,W,56.0850,341.0450,140721,,,,A*59
$GPGGA,205332.00,3731.8657180,N,12221.6424680,W,1,0,0.0,100.6999,M,0.0000,M,0.0000,0000*60
$GPRMC,205332.00,A,3731.8657180,N,12221.6424680,W,55.9463,341.0113,140721,,,,A*52
$GPGGA,205333.00,3731.8804300,N,12221.6487740,W,1,0,0.0,101.5800,M,0.0000,M,0.0000,0000*64
$GPRMC,205333.00,A,3731.8804300,N,12221.6487740,W,55.8560,341.4668,140721,,,,A*59
$GPGGA,205334.00,3731.8951480,N,12221.6549540,W,1,0,0.0,102.4220,M,0.0000,M,0.0000,0000*66
$GPRMC,205334.00,A,3731.8951480,N,12221.6549540,W,55.7838,341.5076,140721,,,,A*56
$GPGGA,205335.00,3731.9098480,N,12221.6611460,W,1,0,0.0,103.2710,M,0.0000,M,0.0000,0000*66
$GPRMC,205335.00,A,3731.9098480,N,12221.6611460,W,55.7464,341.4684,140721,,,,A*58
$GPGGA,205336.00,3731.9245360,N,12221.6673800,W,1,0,0.0,104.1420,M,0.0000,M,0.0000,0000*64
$GPRMC,205336.00,A,3731.9245360,N,12221.6673800,W,55.7533,341.2525,140721,,,,A*53
$GPGGA,205337.00,3731.9391940,N,12221.6736740,W,1,0,0.0,104.9940,M,0.0000,M,0.0000,0000*6d
$GPRMC,205337.00,A,3731.9391940,N,12221.6736740,W,55.6487,341.1383,140721,,,,A*5f
$GPGGA,205338.00,3731.9538280,N,12221.6799980,W,1,0,0.0,105.8840,M,0.0000,M,0.0000,0000*66
$GPRMC,205338.00,A,3731.9538280,N,12221.6799980,W,55.6394,341.0939,140721,,,,A*5a
$GPGGA,205339.00,3731.9684620,N,12221.6862980,W,1,0,0.0,106.7420,M,0.0000,M,0.0000,0000*60
$GPRMC,205339.00,A,3731.9684620,N,12221.6862980,W,55.6595,341.1095,140721,,,,A*53
$GPGGA,205340.00,3731.9830960,N,12221.6925980,W,1,0,0.0,107.6519,M,0.0000,M,0.0000,0000*6d
$GPRMC,205340.00,A,3731.9830960,N,12221.6925980,W,55.5714,341.2021,140721,,,,A*51
$GPGGA,205341.00,3731.9977060,N,12221.6988560,W,1,0,0.0,108.6909,M,0.0000,M,0.0000,0000*60
$GPRMC,205341.00,A,3731.9977060,N,12221.6988560,W,55.4418,341.3194,140721,,,,A*5e
$GPGGA,205342.00,3732.0122800,N,12221.7050720,W,1,0,0.0,109.7768,M,0.0000,M,0.0000,0000*6d
$GPRMC,205342.00,A,3732.0122800,N,12221.7050720,W,55.2333,341.2226,140721,,,,A*59
$GPGGA,205343.00,3732.0267640,N,12221.7114380,W,1,0,0.0,110.8779,M,0.0000,M,0.0000,0000*6c
$GPRMC,205343.00,A,3732.0267640,N,12221.7114380,W,55.1001,340.8024,140721,,,,A*55
$GPGGA,205344.00,3732.0412060,N,12221.7177440,W,1,0,0.0,111.9829,M,0.0000,M,0.0000,0000*6f
$GPRMC,205344.00,A,3732.0412060,N,12221.7177440,W,54.8849,340.9886,140721,,,,A*51
$GPGGA,205345.00,3732.0556060,N,12221.7239780,W,1,0,0.0,113.1199,M,0.0000,M,0.0000,0000*61
$GPRMC,205345.00,A,3732.0556060,N,12221.7239780,W,54.6615,341.2956,140721,,,,A*58
$GPGGA,205346.00,3732.0699220,N,12221.7302060,W,1,0,0.0,114.2419,M,0.0000,M,0.0000,0000*6d
$GPRMC,205346.00,A,3732.0699220,N,12221.7302060,W,54.2469,340.6450,140721,,,,A*5e
$GPGGA,205347.00,3732.0840400,N,12221.7366140,W,1,0,0.0,115.3569,M,0.0000,M,0.0000,0000*65
$GPRMC,205347.00,A,3732.0840400,N,12221.7366140,W,53.5344,339.9563,140721,,,,A*58
$GPGGA,205348.00,3732.0978160,N,12221.7431000,W,1,0,0.0,116.4489,M,0.0000,M,0.0000,0000*68
$GPRMC,205348.00,A,3732.0978160,N,12221.7431000,W,52.3086,339.2837,140721,,,,A*53
$GPGGA,205349.00,3732.1112800,N,12221.7495680,W,1,0,0.0,117.5239,M,0.0000,M,0.0000,0000*6e
$GPRMC,205349.00,A,3732.1112800,N,12221.7495680,W,51.3487,339.0727,140721,,,,A*52
$GPGGA,205350.00,3732.1244620,N,12221.7560360,W,1,0,0.0,118.5809,M,0.0000,M,0.0000,0000*6c
$GPRMC,205350.00,A,3732.1244620,N,12221.7560360,W,50.4896,338.1201,140721,,,,A*5d
$GPGGA,205351.00,3732.1373380,N,12221.7628160,W,1,0,0.0,119.6039,M,0.0000,M,0.0000,0000*63
$GPRMC,205351.00,A,3732.1373380,N,12221.7628160,W,49.9754,336.8702,140721,,,,A*5e
$GPGGA,205352.00,3732.1500700,N,12221.7697760,W,1,0,0.0,120.6109,M,0.0000,M,0.0000,0000*64
$GPRMC,205352.00,A,3732.1500700,N,12221.7697760,W,49.9380,336.2613,140721,,,,A*57
$GPGGA,205353.00,3732.1627300,N,12221.7769340,W,1,0,0.0,121.6189,M,0.0000,M,0.0000,0000*68
$GPRMC,205353.00,A,3732.1627300,N,12221.7769340,W,49.9234,335.6103,140721,,,,A*5d
$GPGGA,205354.00,3732.1753780,N,12221.7841520,W,1,0,0.0,122.6429,M,0.0000,M,0.0000,0000*68
$GPRMC,205354.00,A,3732.1753780,N,12221.7841520,W,49.9661,335.6195,140721,,,,A*5a
$GPGGA,205355.00,3732.1879960,N,12221.7914840,W,1,0,0.0,123.6460,M,0.0000,M,0.0000,0000*68
$GPRMC,205355.00,A,3732.1879960,N,12221.7914840,W,50.0235,334.9146,140721,,,,A*52
$GPGGA,205356.00,3732.2005300,N,12221.7988760,W,1,0,0.0,124.5640,M,0.0000,M,0.0000,0000*6b
$GPRMC,205356.00,A,3732.2005300,N,12221.7988760,W,49.3359,335.0681,140721,,,,A*51
$GPGGA,205357.00,3732.2128120,N,12221.8060820,W,1,0,0.0,125.4320,M,0.0000,M,0.0000,0000*6c
$GPRMC,205357.00,A,3732.2128120,N,12221.8060820,W,48.1480,334.8600,140721,,,,A*55
$GPGGA,205358.00,3732.2248060,N,12221.8132460,W,1,0,0.0,126.2750,M,0.0000,M,0.0000,0000*6b
$GPRMC,205358.00,A,3732.2248060,N,12221.8132460,W,47.4139,334.6098,140721,,,,A*50
$GPGGA,205359.00,3732.2366620,N,12221.8203080,W,1,0,0.0,127.1590,M,0.0000,M,0.0000,0000*62
$GPRMC,205359.00,A,3732.2366620,N,12221.8203080,W,47.0264,334.6493,140721,,,,A*55
$GPGGA,205400.00,3732.2485000,N,12221.8273640,W,1,0,0.0,128.1159,M,0.0000,M,0.0000,0000*64
$GPRMC,205400.00,A,3732.2485000,N,12221.8273640,W,47.3563,334.8101,140721,,,,A*5e
$GPGGA,205401.00,3732.2604880,N,12221.8344860,W,1,0,0.0,129.0929,M,0.0000,M,0.0000,0000*68
$GPRMC,205401.00,A,3732.2604880,N,12221.8344860,W,48.0383,334.6151,140721,,,,A*52
$GPGGA,205402.00,3732.2726500,N,12221.8417460,W,1,0,0.0,130.0949,M,0.0000,M,0.0000,0000*6c
$GPRMC,205402.00,A,3732.2726500,N,12221.8417460,W,48.7648,334.5977,140721,,,,A*52
$GPGGA,205403.00,3732.2849680,N,12221.8491320,W,1,0,0.0,131.0969,M,0.0000,M,0.0000,0000*6e
$GPRMC,205403.00,A,3732.2849680,N,12221.8491320,W,49.4526,334.4778,140721,,,,A*5a
$GPGGA,205404.00,3732.2974660,N,12221.8566140,W,1,0,0.0,132.1329,M,0.0000,M,0.0000,0000*69
$GPRMC,205404.00,A,3732.2974660,N,12221.8566140,W,50.1325,334.4944,140721,,,,A*58
$GPGGA,205405.00,3732.3101260,N,12221.8642280,W,1,0,0.0,133.1659,M,0.0000,M,0.0000,0000*6e
$GPRMC,205405.00,A,3732.3101260,N,12221.8642280,W,50.7829,334.5422,140721,,,,A*51
$GPGGA,205406.00,3732.3229540,N,12221.8718780,W,1,0,0.0,134.2239,M,0.0000,M,0.0000,0000*6c
$GPRMC,205406.00,A,3732.3229540,N,12221.8718780,W,51.3769,334.6334,140721,,,,A*58
$GPGGA,205407.00,3732.3359320,N,12221.8796240,W,1,0,0.0,135.2849,M,0.0000,M,0.0000,0000*68
$GPRMC,205407.00,A,3732.3359320,N,12221.8796240,W,51.9330,334.6458,140721,,,,A*5f
$GPGGA,205408.00,3732.3490480,N,12221.8874360,W,1,0,0.0,136.3669,M,0.0000,M,0.0000,0000*66
$GPRMC,205408.00,A,3732.3490480,N,12221.8874360,W,52.4742,334.7759,140721,,,,A*53
$GPGGA,205409.00,3732.3623020,N,12221.8953260,W,1,0,0.0,137.4549,M,0.0000,M,0.0000,0000*61
$GPRMC,205409.00,A,3732.3623020,N,12221.8953260,W,52.9908,334.6173,140721,,,,A*51
$GPGGA,205410.00,3732.3756700,N,12221.9033300,W,1,0,0.0,138.5389,M,0.0000,M,0.0000,0000*62
$GPRMC,205410.00,A,3732.3756700,N,12221.9033300,W,53.5202,334.4712,140721,,,,A*59
$GPGGA,205411.00,3732.3891520,N,12221.9114720,W,1,0,0.0,139.6519,M,0.0000,M,0.0000,0000*68
$GPRMC,205411.00,A,3732.3891520,N,12221.9114720,W,54.0504,334.3588,140721,,,,A*5b
$GPGGA,205412.00,3732.4027660,N,12221.9196200,W,1,0,0.0,140.7918,M,0.0000,M,0.0000,0000*61
$GPRMC,205412.00,A,3732.4027660,N,12221.9196200,W,54.3951,334.6201,140721,,,,A*5c
$GPGGA,205413.00,3732.4164580,N,12221.9278460,W,1,0,0.0,142.0488,M,0.0000,M,0.0000,0000*69
$GPRMC,205413.00,A,3732.4164580,N,12221.9278460,W,54.7740,334.4747,140721,,,,A*5a
$GPGGA,205414.00,3732.4302340,N,12221.9361800,W,1,0,0.0,143.3918,M,0.0000,M,0.0000,0000*63
$GPRMC,205414.00,A,3732.4302340,N,12221.9361800,W,55.1485,334.3603,140721,,,,A*5d
$GPGGA,205415.00,3732.4441000,N,12221.9445680,W,1,0,0.0,144.7258,M,0.0000,M,0.0000,0000*6e
$GPRMC,205415.00,A,3732.4441000,N,12221.9445680,W,55.5351,334.3447,140721,,,,A*54
$GPGGA,205416.00,3732.4580140,N,12221.9531780,W,1,0,0.0,145.9128,M,0.0000,M,0.0000,0000*6c
$GPRMC,205416.00,A,3732.4580140,N,12221.9531780,W,55.9837,333.3492,140721,,,,A*55
$GPGGA,205417.00,3732.4718860,N,12221.9621360,W,1,0,0.0,147.0649,M,0.0000,M,0.0000,0000*66
$GPRMC,205417.00,A,3732.4718860,N,12221.9621360,W,56.1316,332.4059,140721,,,,A*52
$GPGGA,205418.00,3732.4856560,N,12221.9714180,W,1,0,0.0,148.2079,M,0.0000,M,0.0000,0000*62
$GPRMC,205418.00,A,3732.4856560,N,12221.9714180,W,56.2431,331.3039,140721,,,,A*5d
$GPGGA,205419.00,3732.4993180,N,12221.9810600,W,1,0,0.0,149.3529,M,0.0000,M,0.0000,0000*65
$GPRMC,205419.00,A,3732.4993180,N,12221.9810600,W,56.4164,330.2095,140721,,,,A*5f
$GPGGA,205420.00,3732.5128780,N,12221.9910500,W,1,0,0.0,150.4859,M,0.0000,M,0.0000,0000*67
$GPRMC,205420.00,A,3732.5128780,N,12221.9910500,W,56.6456,329.0524,140721,,,,A*5b
$GPGGA,205421.00,3732.5263300,N,12222.0014540,W,1,0,0.0,151.5169,M,0.0000,M,0.0000,0000*6f
$GPRMC,205421.00,A,3732.5263300,N,12222.0014540,W,56.9019,328.0718,140721,,,,A*55
$GPGGA,205422.00,3732.5396560,N,12222.0121040,W,1,0,0.0,152.4360,M,0.0000,M,0.0000,0000*6c
$GPRMC,205422.00,A,3732.5396560,N,12222.0121040,W,56.6561,327.1252,140721,,,,A*5f
$GPGGA,205423.00,3732.5528080,N,12222.0230420,W,1,0,0.0,153.2530,M,0.0000,M,0.0000,0000*60
$GPRMC,205423.00,A,3732.5528080,N,12222.0230420,W,56.8641,326.0963,140721,,,,A*51
$GPGGA,205424.00,3732.5658820,N,12222.0343280,W,1,0,0.0,153.9770,M,0.0000,M,0.0000,0000*65
$GPRMC,205424.00,A,3732.5658820,N,12222.0343280,W,57.2184,325.1497,140721,,,,A*58
$GPGGA,205425.00,3732.5789080,N,12222.0459380,W,1,0,0.0,154.5931,M,0.0000,M,0.0000,0000*66
$GPRMC,205425.00,A,3732.5789080,N,12222.0459380,W,57.6418,324.1621,140721,,,,A*51
$GPGGA,205426.00,3732.5918200,N,12222.0578960,W,1,0,0.0,155.0972,M,0.0000,M,0.0000,0000*6c
$GPRMC,205426.00,A,3732.5918200,N,12222.0578960,W,57.5630,323.1906,140721,,,,A*5e
$GPGGA,205427.00,3732.6044980,N,12222.0700640,W,1,0,0.0,155.4552,M,0.0000,M,0.0000,0000*67
$GPRMC,205427.00,A,3732.6044980,N,12222.0700640,W,57.2069,322.1634,140721,,,,A*5d
$GPGGA,205428.00,3732.6169660,N,12222.0824420,W,1,0,0.0,155.5433,M,0.0000,M,0.0000,0000*6d
$GPRMC,205428.00,A,3732.6169660,N,12222.0824420,W,57.0593,321.3284,140721,,,,A*5c
$GPGGA,205429.00,3732.6292420,N,12222.0948980,W,1,0,0.0,155.5354,M,0.0000,M,0.0000,0000*67
$GPRMC,205429.00,A,3732.6292420,N,12222.0948980,W,56.4001,320.7603,140721,,,,A*55
$GPGGA,205430.00,3732.6412780,N,12222.1073420,W,1,0,0.0,155.5853,M,0.0000,M,0.0000,0000*63
$GPRMC,205430.00,A,3732.6412780,N,12222.1073420,W,55.6612,320.5605,140721,,,,A*5c
$GPGGA,205431.00,3732.6531580,N,12222.1196240,W,1,0,0.0,155.7413,M,0.0000,M,0.0000,0000*60
$GPRMC,205431.00,A,3732.6531580,N,12222.1196240,W,55.0767,320.5222,140721,,,,A*51
$GPGGA,205432.00,3732.6649360,N,12222.1318520,W,1,0,0.0,155.8913,M,0.0000,M,0.0000,0000*60
$GPRMC,205432.00,A,3732.6649360,N,12222.1318520,W,54.8879,320.5479,140721,,,,A*52
$GPGGA,205433.00,3732.6766660,N,12222.1439960,W,1,0,0.0,156.0613,M,0.0000,M,0.0000,0000*60
$GPRMC,205433.00,A,3732.6766660,N,12222.1439960,W,54.3631,320.6172,140721,,,,A*52
$GPGGA,205434.00,3732.6883000,N,12222.1559480,W,1,0,0.0,156.2403,M,0.0000,M,0.0000,0000*66
$GPRMC,205434.00,A,3732.6883000,N,12222.1559480,W,53.6853,320.9038,140721,,,,A*5d
$GPGGA,205435.00,3732.6997660,N,12222.1677440,W,1,0,0.0,156.4143,M,0.0000,M,0.0000,0000*67
$GPRMC,205435.00,A,3732.6997660,N,12222.1677440,W,52.9632,320.6661,140721,,,,A*59
$GPGGA,205436.00,3732.7111360,N,12222.1793120,W,1,0,0.0,156.5543,M,0.0000,M,0.0000,0000*6b
$GPRMC,205436.00,A,3732.7111360,N,12222.1793120,W,52.2686,321.7935,140721,,,,A*5a
$GPGGA,205437.00,3732.7225840,N,12222.1903580,W,1,0,0.0,156.6973,M,0.0000,M,0.0000,0000*62
$GPRMC,205437.00,A,3732.7225840,N,12222.1903580,W,51.5841,323.5877,140721,,,,A*59
$GPGGA,205438.00,3732.7341220,N,12222.2008520,W,1,0,0.0,156.8243,M,0.0000,M,0.0000,0000*6f
$GPRMC,205438.00,A,3732.7341220,N,12222.2008520,W,50.8724,324.6820,140721,,,,A*54
$GPGGA,205439.00,3732.7456600,N,12222.2109200,W,1,0,0.0,156.9853,M,0.0000,M,0.0000,0000*66
$GPRMC,205439.00,A,3732.7456600,N,12222.2109200,W,50.1742,325.6475,140721,,,,A*53
$GPGGA,205440.00,3732.7571020,N,12222.2207180,W,1,0,0.0,157.2252,M,0.0000,M,0.0000,0000*6f
$GPRMC,205440.00,A,3732.7571020,N,12222.2207180,W,49.4060,325.6550,140721,,,,A*57
$GPGGA,205441.00,3732.7683220,N,12222.2303780,W,1,0,0.0,157.6331,M,0.0000,M,0.0000,0000*61
$GPRMC,205441.00,A,3732.7683220,N,12222.2303780,W,48.4618,325.7872,140721,,,,A*5d
$GPGGA,205442.00,3732.7793620,N,12222.2398160,W,1,0,0.0,158.1141,M,0.0000,M,0.0000,0000*61
$GPRMC,205442.00,A,3732.7793620,N,12222.2398160,W,47.5653,325.7061,140721,,,,A*5b
$GPGGA,205443.00,3732.7902280,N,12222.2490560,W,1,0,0.0,158.3933,M,0.0000,M,0.0000,0000*6c
$GPRMC,205443.00,A,3732.7902280,N,12222.2490560,W,46.8483,325.9081,140721,,,,A*5a
$GPGGA,205444.00,3732.8009080,N,12222.2582540,W,1,0,0.0,158.4734,M,0.0000,M,0.0000,0000*6a
$GPRMC,205444.00,A,3732.8009080,N,12222.2582540,W,46.2768,325.3162,140721,,,,A*58
$GPGGA,205445.00,3732.8114320,N,12222.2674220,W,1,0,0.0,158.3144,M,0.0000,M,0.0000,0000*62
$GPRMC,205445.00,A,3732.8114320,N,12222.2674220,W,45.7880,325.2677,140721,,,,A*5b
$GPGGA,205446.00,3732.8216920,N,12222.2763500,W,1,0,0.0,158.1354,M,0.0000,M,0.0000,0000*69
$GPRMC,205446.00,A,3732.8216920,N,12222.2763500,W,43.4165,325.5055,140721,,,,A*57
$GPGGA,205447.00,3732.8311720,N,12222.2845700,W,1,0,0.0,157.9464,M,0.0000,M,0.0000,0000*6a
$GPRMC,205447.00,A,3732.8311720,N,12222.2845700,W,39.3157,325.4330,140721,,,,A*5d
$GPGGA,205448.00,3732.8396440,N,12222.2918960,W,1,0,0.0,157.7674,M,0.0000,M,0.0000,0000*63
$GPRMC,205448.00,A,3732.8396440,N,12222.2918960,W,34.2861,325.7351,140721,,,,A*5d
$GPGGA,205449.00,3732.8468860,N,12222.2980700,W,1,0,0.0,157.6284,M,0.0000,M,0.0000,0000*69
$GPRMC,205449.00,A,3732.8468860,N,12222.2980700,W,28.5888,326.0018,140721,,,,A*5a
$GPGGA,205450.00,3732.8527840,N,12222.3030380,W,1,0,0.0,157.4913,M,0.0000,M,0.0000,0000*61
$GPRMC,205450.00,A,3732.8527840,N,12222.3030380,W,22.4793,326.0386,140721,,,,A*5f
$GPGGA,205451.00,3732.8570920,N,12222.3067640,W,1,0,0.0,157.4793,M,0.0000,M,0.0000,0000*68
$GPRMC,205451.00,A,3732.8570920,N,12222.3067640,W,14.8376,325.4781,140721,,,,A*52
$GPGGA,205452.00,3732.8596360,N,12222.3089960,W,1,0,0.0,157.5673,M,0.0000,M,0.0000,0000*6e
$GPRMC,205452.00,A,3732.8596360,N,12222.3089960,W,7.7094,325.2496,140721,,,,A*6b
$GPGGA,205453.00,3732.8607220,N,12222.3099440,W,1,0,0.0,157.6104,M,0.0000,M,0.0000,0000*6b
$GPRMC,205453.00,A,3732.8607220,N,12222.3099440,W,2.1849,325.3264,140721,,,,A*6b
$GPGGA,205454.00,3732.8610040,N,12222.3101900,W,1,0,0.0,157.6084,M,0.0000,M,0.0000,0000*6e
$GPRMC,205454.00,A,3732.8610040,N,12222.3101900,W,1.2737,325.1660,140721,,,,A*63
$GPGGA,205455.00,3732.8615920,N,12222.3107840,W,1,0,0.0,157.6143,M,0.0000,M,0.0000,0000*6c
$GPRMC,205455.00,A,3732.8615920,N,12222.3107840,W,4.7424,323.1221,140721,,,,A*6d
$GPGGA,205456.00,3732.8629180,N,12222.3127160,W,1,0,0.0,157.7193,M,0.0000,M,0.0000,0000*67
$GPRMC,205456.00,A,3732.8629180,N,12222.3127160,W,9.2595,310.2899,140721,,,,A*63
$GPGGA,205457.00,3732.8637280,N,12222.3162320,W,1,0,0.0,157.8403,M,0.0000,M,0.0000,0000*6e
$GPRMC,205457.00,A,3732.8637280,N,12222.3162320,W,10.8789,280.8284,140721,,,,A*50
$GPGGA,205458.00,3732.8627320,N,12222.3203780,W,1,0,0.0,157.8833,M,0.0000,M,0.0000,0000*6e
$GPRMC,205458.00,A,3732.8627320,N,12222.3203780,W,13.2659,247.1716,140721,,,,A*56
$GPGGA,205459.00,3732.8601880,N,12222.3244640,W,1,0,0.0,157.9003,M,0.0000,M,0.0000,0000*6e
$GPRMC,205459.00,A,3732.8601880,N,12222.3244640,W,16.2595,230.3345,140721,,,,A*5a
$GPGGA,205500.00,3732.8568640,N,12222.3293180,W,1,0,0.0,157.9043,M,0.0000,M,0.0000,0000*68
$GPRMC,205500.00,A,3732.8568640,N,12222.3293180,W,20.2760,229.4094,140721,,,,A*55
$GPGGA,205501.00,3732.8529100,N,12222.3351320,W,1,0,0.0,157.9843,M,0.0000,M,0.0000,0000*60
$GPRMC,205501.00,A,3732.8529100,N,12222.3351320,W,23.2497,229.6831,140721,,,,A*58
$GPGGA,205502.00,3732.8486560,N,12222.3414560,W,1,0,0.0,158.0403,M,0.0000,M,0.0000,0000*6f
$GPRMC,205502.00,A,3732.8486560,N,12222.3414560,W,23.6806,229.9877,140721,,,,A*54
$GPGGA,205503.00,3732.8444560,N,12222.3477200,W,1,0,0.0,158.1293,M,0.0000,M,0.0000,0000*6a
$GPRMC,205503.00,A,3732.8444560,N,12222.3477200,W,23.1636,229.7662,140721,,,,A*51
$GPGGA,205504.00,3732.8403280,N,12222.3537680,W,1,0,0.0,158.1923,M,0.0000,M,0.0000,0000*6e
$GPRMC,205504.00,A,3732.8403280,N,12222.3537680,W,22.4160,229.3726,140721,,,,A*50
$GPGGA,205505.00,3732.8364460,N,12222.3594380,W,1,0,0.0,158.3193,M,0.0000,M,0.0000,0000*6c
$GPRMC,205505.00,A,3732.8364460,N,12222.3594380,W,19.9676,229.5940,140721,,,,A*5e
$GPGGA,205506.00,3732.8331640,N,12222.3642740,W,1,0,0.0,158.4643,M,0.0000,M,0.0000,0000*62
$GPRMC,205506.00,A,3732.8331640,N,12222.3642740,W,16.3944,229.4890,140721,,,,A*5b
$GPGGA,205507.00,3732.8303800,N,12222.3680840,W,1,0,0.0,158.6522,M,0.0000,M,0.0000,0000*6f
$GPRMC,205507.00,A,3732.8303800,N,12222.3680840,W,13.7044,225.6310,140721,,,,A*55
$GPGGA,205508.00,3732.8272120,N,12222.3705200,W,1,0,0.0,158.8632,M,0.0000,M,0.0000,0000*62
$GPRMC,205508.00,A,3732.8272120,N,12222.3705200,W,13.0289,206.6191,140721,,,,A*5a
$GPGGA,205509.00,3732.8234200,N,12222.3713480,W,1,0,0.0,159.0123,M,0.0000,M,0.0000,0000*67
$GPRMC,205509.00,A,3732.8234200,N,12222.3713480,W,14.7164,184.9565,140721,,,,A*58
$GPGGA,205510.00,3732.8189680,N,12222.3700640,W,1,0,0.0,158.9143,M,0.0000,M,0.0000,0000*64
$GPRMC,205510.00,A,3732.8189680,N,12222.3700640,W,17.6658,160.1895,140721,,,,A*5f
$GPGGA,205511.00,3732.8144260,N,12222.3666560,W,1,0,0.0,158.9844,M,0.0000,M,0.0000,0000*60
$GPRMC,205511.00,A,3732.8144260,N,12222.3666560,W,20.5239,145.3283,140721,,,,A*59
$GPGGA,205512.00,3732.8096800,N,12222.3615980,W,1,0,0.0,159.0773,M,0.0000,M,0.0000,0000*64
$GPRMC,205512.00,A,3732.8096800,N,12222.3615980,W,24.0980,138.4679,140721,,,,A*5a
$GPGGA,205513.00,3732.8043040,N,12222.3555200,W,1,0,0.0,159.1713,M,0.0000,M,0.0000,0000*62
$GPRMC,205513.00,A,3732.8043040,N,12222.3555200,W,27.9541,138.1260,140721,,,,A*59
$GPGGA,205514.00,3732.7981240,N,12222.3485240,W,1,0,0.0,159.2673,M,0.0000,M,0.0000,0000*63
$GPRMC,205514.00,A,3732.7981240,N,12222.3485240,W,31.9130,137.8191,140721,,,,A*52
$GPGGA,205515.00,3732.7911700,N,12222.3406040,W,1,0,0.0,159.3303,M,0.0000,M,0.0000,0000*60
$GPRMC,205515.00,A,3732.7911700,N,12222.3406040,W,35.6177,137.9093,140721,,,,A*58
$GPGGA,205516.00,3732.7834480,N,12222.3318620,W,1,0,0.0,159.4173,M,0.0000,M,0.0000,0000*64
$GPRMC,205516.00,A,3732.7834480,N,12222.3318620,W,39.1416,137.9993,140721,,,,A*5e
$GPGGA,205517.00,3732.7750600,N,12222.3223400,W,1,0,0.0,159.4743,M,0.0000,M,0.0000,0000*6e
$GPRMC,205517.00,A,3732.7750600,N,12222.3223400,W,42.1997,138.0220,140721,,,,A*5c
$GPGGA,205518.00,3732.7660120,N,12222.3120980,W,1,0,0.0,159.4304,M,0.0000,M,0.0000,0000*64
$GPRMC,205518.00,A,3732.7660120,N,12222.3120980,W,45.4958,137.9538,140721,,,,A*58
$GPGGA,205519.00,3732.7562860,N,12222.3010460,W,1,0,0.0,159.1485,M,0.0000,M,0.0000,0000*63
$GPRMC,205519.00,A,3732.7562860,N,12222.3010460,W,48.7898,137.9114,140721,,,,A*5d
$GPGGA,205520.00,3732.7458820,N,12222.2893820,W,1,0,0.0,158.6226,M,0.0000,M,0.0000,0000*66
$GPRMC,205520.00,A,3732.7458820,N,12222.2893820,W,51.4226,138.8626,140721,,,,A*5d
$GPGGA,205521.00,3732.7347100,N,12222.2774540,W,1,0,0.0,157.8767,M,0.0000,M,0.0000,0000*69
$GPRMC,205521.00,A,3732.7347100,N,12222.2774540,W,53.9517,140.7325,140721,,,,A*5f
$GPGGA,205522.00,3732.7227400,N,12222.2654240,W,1,0,0.0,157.0257,M,0.0000,M,0.0000,0000*62
$GPRMC,205522.00,A,3732.7227400,N,12222.2654240,W,56.2871,141.8960,140721,,,,A*5c
$GPGGA,205523.00,3732.7101580,N,12222.2530580,W,1,0,0.0,156.1677,M,0.0000,M,0.0000,0000*61
$GPRMC,205523.00,A,3732.7101580,N,12222.2530580,W,58.5275,142.0249,140721,,,,A*55
$GPGGA,205524.00,3732.6972340,N,12222.2403020,W,1,0,0.0,155.3038,M,0.0000,M,0.0000,0000*63
$GPRMC,205524.00,A,3732.6972340,N,12222.2403020,W,59.5007,141.7308,140721,,,,A*5d
$GPGGA,205525.00,3732.6842560,N,12222.2273480,W,1,0,0.0,154.4537,M,0.0000,M,0.0000,0000*67
$GPRMC,205525.00,A,3732.6842560,N,12222.2273480,W,59.5400,141.8401,140721,,,,A*57
$GPGGA,205526.00,3732.6712840,N,12222.2145080,W,1,0,0.0,153.5597,M,0.0000,M,0.0000,0000*6f
$GPRMC,205526.00,A,3732.6712840,N,12222.2145080,W,59.2465,141.6579,140721,,,,A*57
$GPGGA,205527.00,3732.6583120,N,12222.2017520,W,1,0,0.0,152.7098,M,0.0000,M,0.0000,0000*6b
$GPRMC,205527.00,A,3732.6583120,N,12222.2017520,W,59.4061,142.3604,140721,,,,A*53
$GPGGA,205528.00,3732.6451720,N,12222.1890020,W,1,0,0.0,151.8778,M,0.0000,M,0.0000,0000*68
$GPRMC,205528.00,A,3732.6451720,N,12222.1890020,W,59.9890,142.4019,140721,,,,A*53
$GPGGA,205529.00,3732.6318760,N,12222.1761860,W,1,0,0.0,151.1487,M,0.0000,M,0.0000,0000*60
$GPRMC,205529.00,A,3732.6318760,N,12222.1761860,W,60.5208,142.8363,140721,,,,A*5e
$GPGGA,205530.00,3732.6183940,N,12222.1634300,W,1,0,0.0,150.4317,M,0.0000,M,0.0000,0000*62
$GPRMC,205530.00,A,3732.6183940,N,12222.1634300,W,60.8629,143.3007,140721,,,,A*57
$GPGGA,205531.00,3732.6048340,N,12222.1506740,W,1,0,0.0,149.8776,M,0.0000,M,0.0000,0000*6a
$GPRMC,205531.00,A,3732.6048340,N,12222.1506740,W,60.9524,143.4264,140721,,,,A*57
$GPGGA,205532.00,3732.5912020,N,12222.1379720,W,1,0,0.0,149.2646,M,0.0000,M,0.0000,0000*69
$GPRMC,205532.00,A,3732.5912020,N,12222.1379720,W,61.1058,143.5522,140721,,,,A*5f
$GPGGA,205533.00,3732.5775220,N,12222.1252640,W,1,0,0.0,148.6646,M,0.0000,M,0.0000,0000*6f
$GPRMC,205533.00,A,3732.5775220,N,12222.1252640,W,61.2990,143.6815,140721,,,,A*58
$GPGGA,205534.00,3732.5637820,N,12222.1125560,W,1,0,0.0,148.0686,M,0.0000,M,0.0000,0000*6d
$GPRMC,205534.00,A,3732.5637820,N,12222.1125560,W,61.4324,143.9646,140721,,,,A*54
$GPGGA,205535.00,3732.5499040,N,12222.0999740,W,1,0,0.0,147.4646,M,0.0000,M,0.0000,0000*6d
$GPRMC,205535.00,A,3732.5499040,N,12222.0999740,W,61.6306,144.4725,140721,,,,A*5f
$GPGGA,205536.00,3732.5358760,N,12222.0875600,W,1,0,0.0,146.8516,M,0.0000,M,0.0000,0000*6c
$GPRMC,205536.00,A,3732.5358760,N,12222.0875600,W,61.8662,145.3936,140721,,,,A*56
$GPGGA,205537.00,3732.5216440,N,12222.0753440,W,1,0,0.0,146.2406,M,0.0000,M,0.0000,0000*60
$GPRMC,205537.00,A,3732.5216440,N,12222.0753440,W,62.1107,146.1506,140721,,,,A*50
$GPGGA,205538.00,3732.5072200,N,12222.0633200,W,1,0,0.0,145.6276,M,0.0000,M,0.0000,0000*6e
$GPRMC,205538.00,A,3732.5072200,N,12222.0633200,W,62.3734,146.8703,140721,,,,A*52
$GPGGA,205539.00,3732.4926520,N,12222.0514760,W,1,0,0.0,145.0096,M,0.0000,M,0.0000,0000*6c
$GPRMC,205539.00,A,3732.4926520,N,12222.0514760,W,62.4537,147.5112,140721,,,,A*56
$GPGGA,205540.00,3732.4779580,N,12222.0398300,W,1,0,0.0,144.3956,M,0.0000,M,0.0000,0000*6b
$GPRMC,205540.00,A,3732.4779580,N,12222.0398300,W,62.5340,148.1931,140721,,,,A*53
$GPGGA,205541.00,3732.4630840,N,12222.0284600,W,1,0,0.0,143.7896,M,0.0000,M,0.0000,0000*60
$GPRMC,205541.00,A,3732.4630840,N,12222.0284600,W,62.7512,149.3333,140721,,,,A*5e
$GPGGA,205542.00,3732.4479760,N,12222.0173240,W,1,0,0.0,143.1707,M,0.0000,M,0.0000,0000*6b
$GPRMC,205542.00,A,3732.4479760,N,12222.0173240,W,63.2494,149.9919,140721,,,,A*57
$GPGGA,205543.00,3732.4326640,N,12222.0062960,W,1,0,0.0,142.5566,M,0.0000,M,0.0000,0000*6c
$GPRMC,205543.00,A,3732.4326640,N,12222.0062960,W,63.7386,150.5942,140721,,,,A*5b
$GPGGA,205544.00,3732.4171360,N,12221.9954420,W,1,0,0.0,141.9177,M,0.0000,M,0.0000,0000*68
$GPRMC,205544.00,A,3732.4171360,N,12221.9954420,W,64.0157,151.4892,140721,,,,A*56
$GPGGA,205545.00,3732.4014640,N,12221.9847740,W,1,0,0.0,141.1977,M,0.0000,M,0.0000,0000*6a
$GPRMC,205545.00,A,3732.4014640,N,12221.9847740,W,64.1877,151.7290,140721,,,,A*55
$GPGGA,205546.00,3732.3857560,N,12221.9741420,W,1,0,0.0,140.3767,M,0.0000,M,0.0000,0000*60
$GPRMC,205546.00,A,3732.3857560,N,12221.9741420,W,64.0231,151.7874,140721,,,,A*5a
$GPGGA,205547.00,3732.3701320,N,12221.9635700,W,1,0,0.0,139.4418,M,0.0000,M,0.0000,0000*6e
$GPRMC,205547.00,A,3732.3701320,N,12221.9635700,W,63.6186,151.7053,140721,,,,A*55
$GPGGA,205548.00,3732.3546220,N,12221.9530280,W,1,0,0.0,138.4248,M,0.0000,M,0.0000,0000*68
$GPRMC,205548.00,A,3732.3546220,N,12221.9530280,W,63.1852,151.5540,140721,,,,A*53
$GPGGA,205549.00,3732.3392140,N,12221.9425520,W,1,0,0.0,137.2919,M,0.0000,M,0.0000,0000*6d
$GPRMC,205549.00,A,3732.3392140,N,12221.9425520,W,62.8423,151.8611,140721,,,,A*58
$GPGGA,205550.00,3732.3238360,N,12221.9322200,W,1,0,0.0,136.0740,M,0.0000,M,0.0000,0000*60
$GPRMC,205550.00,A,3732.3238360,N,12221.9322200,W,62.5678,151.8934,140721,,,,A*5d
$GPGGA,205551.00,3732.3085480,N,12221.9218760,W,1,0,0.0,134.8049,M,0.0000,M,0.0000,0000*63
$GPRMC,205551.00,A,3732.3085480,N,12221.9218760,W,62.3386,151.6430,140721,,,,A*5f
$GPGGA,205552.00,3732.2933200,N,12221.9115500,W,1,0,0.0,133.5029,M,0.0000,M,0.0000,0000*6d
$GPRMC,205552.00,A,3732.2933200,N,12221.9115500,W,62.1344,151.6471,140721,,,,A*54
$GPGGA,205553.00,3732.2781460,N,12221.9012360,W,1,0,0.0,132.2039,M,0.0000,M,0.0000,0000*6a
$GPRMC,205553.00,A,3732.2781460,N,12221.9012360,W,61.9391,151.6451,140721,,,,A*55
$GPGGA,205554.00,3732.2630260,N,12221.8909520,W,1,0,0.0,130.9249,M,0.0000,M,0.0000,0000*6c
$GPRMC,205554.00,A,3732.2630260,N,12221.8909520,W,61.7295,151.8278,140721,,,,A*57
$GPGGA,205555.00,3732.2478760,N,12221.8807340,W,1,0,0.0,129.6399,M,0.0000,M,0.0000,0000*62
$GPRMC,205555.00,A,3732.2478760,N,12221.8807340,W,62.0275,151.8823,140721,,,,A*5c
$GPGGA,205556.00,3732.2326360,N,12221.8704080,W,1,0,0.0,128.3729,M,0.0000,M,0.0000,0000*61
$GPRMC,205556.00,A,3732.2326360,N,12221.8704080,W,62.5254,151.6325,140721,,,,A*51
$GPGGA,205557.00,3732.2173000,N,12221.8599440,W,1,0,0.0,127.0730,M,0.0000,M,0.0000,0000*6d
$GPRMC,205557.00,A,3732.2173000,N,12221.8599440,W,62.9807,151.6279,140721,,,,A*51
$GPGGA,205558.00,3732.2018380,N,12221.8494560,W,1,0,0.0,125.7809,M,0.0000,M,0.0000,0000*6a
$GPRMC,205558.00,A,3732.2018380,N,12221.8494560,W,63.2487,151.8860,140721,,,,A*54
$GPGGA,205559.00,3732.1863340,N,12221.8390640,W,1,0,0.0,124.4740,M,0.0000,M,0.0000,0000*62
$GPRMC,205559.00,A,3732.1863340,N,12221.8390640,W,63.1547,151.9192,140721,,,,A*57
$GPGGA,205600.00,3732.1709020,N,12221.8286180,W,1,0,0.0,123.1839,M,0.0000,M,0.0000,0000*65
$GPRMC,205600.00,A,3732.1709020,N,12221.8286180,W,62.9457,151.7130,140721,,,,A*5c
$GPGGA,205601.00,3732.1555120,N,12221.8181840,W,1,0,0.0,121.8850,M,0.0000,M,0.0000,0000*6b
$GPRMC,205601.00,A,3732.1555120,N,12221.8181840,W,62.8163,151.7129,140721,,,,A*5d
$GPGGA,205602.00,3732.1401640,N,12221.8077440,W,1,0,0.0,120.5949,M,0.0000,M,0.0000,0000*68
$GPRMC,205602.00,A,3732.1401640,N,12221.8077440,W,62.7469,151.6395,140721,,,,A*5f
$GPGGA,205603.00,3732.1248040,N,12221.7973520,W,1,0,0.0,119.3169,M,0.0000,M,0.0000,0000*67
$GPRMC,205603.00,A,3732.1248040,N,12221.7973520,W,62.6816,151.8560,140721,,,,A*51
$GPGGA,205604.00,3732.1094560,N,12221.7869960,W,1,0,0.0,118.0269,M,0.0000,M,0.0000,0000*67
$GPRMC,205604.00,A,3732.1094560,N,12221.7869960,W,62.6650,151.7237,140721,,,,A*56
$GPGGA,205605.00,3732.0940960,N,12221.7766640,W,1,0,0.0,116.6840,M,0.0000,M,0.0000,0000*6f
$GPRMC,205605.00,A,3732.0940960,N,12221.7766640,W,62.6574,152.2818,140721,,,,A*53
$GPGGA,205606.00,3732.0786220,N,12221.7666260,W,1,0,0.0,115.3680,M,0.0000,M,0.0000,0000*64
$GPRMC,205606.00,A,3732.0786220,N,12221.7666260,W,62.5989,153.3163,140721,,,,A*54
$GPGGA,205607.00,3732.0630040,N,12221.7570200,W,1,0,0.0,114.0690,M,0.0000,M,0.0000,0000*6c
$GPRMC,205607.00,A,3732.0630040,N,12221.7570200,W,62.4891,154.6597,140721,,,,A*5b
$GPGGA,205608.00,3732.0472300,N,12221.7479240,W,1,0,0.0,112.7640,M,0.0000,M,0.0000,0000*60
$GPRMC,205608.00,A,3732.0472300,N,12221.7479240,W,62.3678,156.1508,140721,,,,A*56
$GPGGA,205609.00,3732.0313300,N,12221.7393020,W,1,0,0.0,111.4880,M,0.0000,M,0.0000,0000*64
$GPRMC,205609.00,A,3732.0313300,N,12221.7393020,W,62.2288,157.2047,140721,,,,A*56
$GPGGA,205610.00,3732.0153460,N,12221.7310400,W,1,0,0.0,110.2769,M,0.0000,M,0.0000,0000*69
$GPRMC,205610.00,A,3732.0153460,N,12221.7310400,W,62.1023,158.4769,140721,,,,A*56
$GPGGA,205611.00,3731.9992540,N,12221.7232520,W,1,0,0.0,109.1569,M,0.0000,M,0.0000,0000*6f
$GPRMC,205611.00,A,3731.9992540,N,12221.7232520,W,61.9505,159.6746,140721,,,,A*5d
$GPGGA,205612.00,3731.9830660,N,12221.7159800,W,1,0,0.0,108.1218,M,0.0000,M,0.0000,0000*65
$GPRMC,205612.00,A,3731.9830660,N,12221.7159800,W,61.7167,161.0898,140721,,,,A*58
$GPGGA,205613.00,3731.9668420,N,12221.7091100,W,1,0,0.0,107.1998,M,0.0000,M,0.0000,0000*61
$GPRMC,205613.00,A,3731.9668420,N,12221.7091100,W,61.4723,161.6067,140721,,,,A*5b
$GPGGA,205614.00,3731.9506600,N,12221.7023120,W,1,0,0.0,106.2409,M,0.0000,M,0.0000,0000*61
$GPRMC,205614.00,A,3731.9506600,N,12221.7023120,W,61.2150,161.5956,140721,,,,A*50
$GPGGA,205615.00,3731.9345380,N,12221.6955080,W,1,0,0.0,105.2888,M,0.0000,M,0.0000,0000*68
$GPRMC,205615.00,A,3731.9345380,N,12221.6955080,W,61.0602,161.4165,140721,,,,A*54
$GPGGA,205616.00,3731.9184940,N,12221.6886620,W,1,0,0.0,104.3518,M,0.0000,M,0.0000,0000*65
$GPRMC,205616.00,A,3731.9184940,N,12221.6886620,W,60.7632,161.1642,140721,,,,A*5f
$GPGGA,205617.00,3731.9025580,N,12221.6817920,W,1,0,0.0,103.3938,M,0.0000,M,0.0000,0000*60
$GPRMC,205617.00,A,3731.9025580,N,12221.6817920,W,60.4249,161.1233,140721,,,,A*5a
$GPGGA,205618.00,3731.8867120,N,12221.6750000,W,1,0,0.0,102.4848,M,0.0000,M,0.0000,0000*69
$GPRMC,205618.00,A,3731.8867120,N,12221.6750000,W,59.9843,161.2574,140721,,,,A*53
$GPGGA,205619.00,3731.8709920,N,12221.6682620,W,1,0,0.0,101.5798,M,0.0000,M,0.0000,0000*6d
$GPRMC,205619.00,A,3731.8709920,N,12221.6682620,W,59.5222,161.2344,140721,,,,A*53
$GPGGA,205620.00,3731.8553680,N,12221.6615600,W,1,0,0.0,100.6408,M,0.0000,M,0.0000,0000*6b
$GPRMC,205620.00,A,3731.8553680,N,12221.6615600,W,59.1757,161.3715,140721,,,,A*5f
$GPGGA,205621.00,3731.8398160,N,12221.6549540,W,1,0,0.0,99.6508,M,0.0000,M,0.0000,0000*5f
$GPRMC,205621.00,A,3731.8398160,N,12221.6549540,W,58.8573,161.2914,140721,,,,A*59
$GPGGA,205622.00,3731.8243840,N,12221.6483180,W,1,0,0.0,98.8448,M,0.0000,M,0.0000,0000*55
$GPRMC,205622.00,A,3731.8243840,N,12221.6483180,W,58.4074,161.1186,140721,,,,A*57
$GPGGA,205623.00,3731.8090900,N,12221.6417300,W,1,0,0.0,97.9158,M,0.0000,M,0.0000,0000*50
$GPRMC,205623.00,A,3731.8090900,N,12221.6417300,W,57.7066,161.3232,140721,,,,A*59
$GPGGA,205624.00,3731.7940540,N,12221.6354060,W,1,0,0.0,97.0097,M,0.0000,M,0.0000,0000*5a
$GPRMC,205624.00,A,3731.7940540,N,12221.6354060,W,56.3085,161.8214,140721,,,,A*5f
$GPGGA,205625.00,3731.7794140,N,12221.6292260,W,1,0,0.0,96.2037,M,0.0000,M,0.0000,0000*58
$GPRMC,205625.00,A,3731.7794140,N,12221.6292260,W,54.7909,161.2161,140721,,,,A*54
$GPGGA,205626.00,3731.7651880,N,12221.6231060,W,1,0,0.0,95.3807,M,0.0000,M,0.0000,0000*54
$GPRMC,205626.00,A,3731.7651880,N,12221.6231060,W,53.4669,161.3381,140721,,,,A*51
$GPGGA,205627.00,3731.7512260,N,12221.6171300,W,1,0,0.0,94.5527,M,0.0000,M,0.0000,0000*5f
$GPRMC,205627.00,A,3731.7512260,N,12221.6171300,W,52.6130,161.0648,140721,,,,A*59
$GPGGA,205628.00,3731.7374740,N,12221.6111960,W,1,0,0.0,93.7227,M,0.0000,M,0.0000,0000*59
$GPRMC,205628.00,A,3731.7374740,N,12221.6111960,W,52.0319,161.0761,140721,,,,A*58
$GPGGA,205629.00,3731.7238360,N,12221.6053280,W,1,0,0.0,92.9837,M,0.0000,M,0.0000,0000*51
