MessageType,Provider,LatitudeDegrees,LongitudeDegrees,AltitudeMeters,SpeedMps,AccuracyMeters,BearingDegrees,UnixTimeMillis,SpeedAccuracyMps,BearingAccuracyDegrees,elapsedRealtimeNanos,VerticalAccuracyMeters
Fix,GT,37.4441051000,-122.2327648000,11.179349899291992,0.002236068,0.1,30.31236,1626727761999,,,,
Fix,GT,37.4441051000,-122.2327648000,11.178350448608398,0.002236068,0.1,30.312555,1626727762999,,,,
Fix,GT,37.4441051000,-122.2327648000,11.180350303649902,0.00499605,0.1,30.31219,1626727763999,,,,
Fix,GT,37.4441051000,-122.2327648000,11.184348580436733,0.006995137,0.1,30.401667,1626727764999,,,,
Fix,GT,37.4441039000,-122.2327660000,11.189350128173828,0.3833804,0.1,29.345278,1626727765999,,,,
Fix,GT,37.4441005000,-122.2327716000,11.181351195083266,0.78511477,0.1,21.865438,1626727766999,,,,
Fix,GT,37.4440940000,-122.2327792000,11.165352847843678,1.0468878,0.1,9.943886,1626727767999,,,,
Fix,GT,37.4440857000,-122.2327852000,11.1433525439287,0.87092024,0.1,356.99094,1626727768999,,,,
Fix,GT,37.4440807000,-122.2327874000,11.135350227355957,0.21907148,0.1,350.2213,1626727769999,,,,
Fix,GT,37.4440804000,-122.2327875000,11.137350082397461,0.016753286,0.1,349.62668,1626727770999,,,,
Fix,GT,37.4440841000,-122.2327897000,11.139349937438965,0.9547579,0.1,346.4929,1626727771999,,,,
Fix,GT,37.4440948000,-122.2328035000,11.17534580180859,1.9407483,0.1,327.64816,1626727772999,,,,
Fix,GT,37.4441027000,-122.2328321000,11.161356113485681,2.7619462,0.1,297.50754,1626727773999,,,,
Fix,GT,37.4440990000,-122.2328721000,11.111358875827705,3.6765974,0.1,266.2737,1626727774999,,,,
Fix,GT,37.4440789000,-122.2329110000,11.018364379743161,3.9946864,0.1,237.12645,1626727775999,,,,
Fix,GT,37.4440501000,-122.2329362000,10.911360588386287,3.1590545,0.1,215.76541,1626727776999,,,,
Fix,GT,37.4440311000,-122.2329478000,10.834348152497114,2.0090325,0.1,209.0802,1626727777999,,,,
Fix,GT,37.4440130000,-122.2329594000,10.791354816657929,2.4611742,0.1,207.9541,1626727778999,,,,
Fix,GT,37.4439903000,-122.2329741000,10.709373439947626,3.4011133,0.1,207.23775,1626727779999,,,,
Fix,GT,37.4439576000,-122.2329949000,10.63736350659184,4.540599,0.1,207.00688,1626727780999,,,,
Fix,GT,37.4439217000,-122.2330187000,10.56336168678871,4.368015,0.1,207.98875,1626727781999,,,,
Fix,GT,37.4438907000,-122.2330435000,10.500367985851199,3.7385368,0.1,213.08504,1626727782999,,,,
Fix,GT,37.4438694000,-122.2330657000,10.432362178884887,2.3992593,0.1,218.79572,1626727783999,,,,
Fix,GT,37.4438576000,-122.2330832000,10.308366180598966,2.0789273,0.1,226.40884,1626727784999,,,,
Fix,GT,37.4438509000,-122.2331070000,10.15938361607573,2.5741842,0.1,244.40938,1626727785999,,,,
Fix,GT,37.4438531000,-122.2331417000,10.11833337790597,3.7427468,0.1,269.37082,1626727786999,,,,
Fix,GT,37.4438672000,-122.2331898000,10.033371234562765,5.574144,0.1,290.67792,1626727787999,,,,
Fix,GT,37.4438942000,-122.2332559000,9.843382353643392,7.6104517,0.1,297.31366,1626727788999,,,,
Fix,GT,37.4439318000,-122.2333382000,9.604389735018344,8.98339,0.1,300.7381,1626727789999,,,,
Fix,GT,37.4439766000,-122.2334297000,9.383379413924786,10.038609,0.1,301.61575,1626727790999,,,,
Fix,GT,37.4440256000,-122.2335289000,9.100394810899616,10.485155,0.1,301.8967,1626727791999,,,,
Fix,GT,37.4440770000,-122.2336309000,8.795380791856132,10.884818,0.1,302.43362,1626727792999,,,,
Fix,GT,37.4441302000,-122.2337350000,8.582395965918067,11.00043,0.1,302.8284,1626727793999,,,,
Fix,GT,37.4441848000,-122.2338390000,8.356383896315492,10.999445,0.1,303.60184,1626727794999,,,,
Fix,GT,37.4442386000,-122.2339407000,8.130391882007643,10.466042,0.1,303.39502,1626727795999,,,,
Fix,GT,37.4442875000,-122.2340337000,7.940376415714951,9.211974,0.1,303.34164,1626727796999,,,,
Fix,GT,37.4443300000,-122.2341143000,7.756368692290096,7.8797445,0.1,303.47144,1626727797999,,,,
Fix,GT,37.4443617000,-122.2341804000,7.617362565833787,5.605598,0.1,299.7818,1626727798999,,,,
Fix,GT,37.4443805000,-122.2342239000,7.517362690764742,3.3382525,0.1,298.54385,1626727799999,,,,
Fix,GT,37.4443917000,-122.2342499000,7.4663547746115455,1.9376845,0.1,298.46738,1626727800999,,,,
Fix,GT,37.4443968000,-122.2342619000,7.450351377466006,0.45092028,0.1,298.47473,1626727801999,,,,
Fix,GT,37.4443971000,-122.2342626000,7.44035005569458,0.0014289288,0.1,298.47586,1626727802999,,,,
Fix,GT,37.4443971000,-122.2342626000,7.4383517770220635,0.002236068,0.1,298.47656,1626727803999,,,,
Fix,GT,37.4443971000,-122.2342626000,7.437351377112861,0.0022341148,0.1,298.47626,1626727804999,,,,
Fix,GT,37.4443971000,-122.2342626000,7.437349796295166,0.0009984162,0.1,298.4736,1626727805999,,,,
Fix,GT,37.4443971000,-122.2342626000,7.437349796295166,0.001,0.1,298.47357,1626727806999,,,,
Fix,GT,37.4443971000,-122.2342626000,7.438350200653076,0.0010006592,0.1,298.47366,1626727807999,,,,
Fix,GT,37.4443971000,-122.2342627000,7.438350200653076,0.0000022555307,0.1,298.47324,1626727808999,,,,
Fix,GT,37.4443971000,-122.2342627000,7.438350200653076,0.0,0.1,298.4735,1626727809999,,,,
Fix,GT,37.4443971000,-122.2342627000,7.438350200653076,0.0010019805,0.1,298.4737,1626727810999,,,,
Fix,GT,37.4443971000,-122.2342627000,7.438350200653076,0.0010006654,0.1,298.47348,1626727811999,,,,
Fix,GT,37.4443971000,-122.2342627000,7.438350200653076,0.0014151565,0.1,298.47375,1626727812999,,,,
Fix,GT,37.4443971000,-122.2342627000,7.4363530960669095,0.07776625,0.1,298.47482,1626727813999,,,,
Fix,GT,37.4444018000,-122.2342741000,7.398355089491673,2.6058297,0.1,297.98456,1626727814999,,,,
Fix,GT,37.4444163000,-122.2343160000,7.2993724771324935,5.210652,0.1,293.10516,1626727815999,,,,
Fix,GT,37.4444286000,-122.2343810000,7.37733035979943,6.514832,0.1,280.8374,1626727816999,,,,
Fix,GT,37.4444261000,-122.2344621000,7.493320721898158,7.543701,0.1,262.9844,1626727817999,,,,
Fix,GT,37.4443992000,-122.2345470000,7.617358260937522,8.67834,0.1,242.62291,1626727818999,,,,
Fix,GT,37.4443440000,-122.2346271000,7.68932068911468,9.811203,0.1,223.81381,1626727819999,,,,
Fix,GT,37.4442677000,-122.2346964000,7.86330401750547,11.1835985,0.1,213.4818,1626727820999,,,,
Fix,GT,37.4441754000,-122.2347682000,8.14430405136136,12.867678,0.1,211.1816,1626727821999,,,,
Fix,GT,37.4440703000,-122.2348429000,8.517285979442534,13.880018,0.1,208.50607,1626727822999,,,,
Fix,GT,37.4439557000,-122.2349182000,8.985237440850483,14.871386,0.1,207.08487,1626727823999,,,,
Fix,GT,37.4438310000,-122.2349983000,9.415308610235797,16.205326,0.1,207.07997,1626727824999,,,,
Fix,GT,37.4436979000,-122.2350842000,9.713310511787654,17.107414,0.1,207.23419,1626727825999,,,,
Fix,GT,37.4435568000,-122.2351764000,9.869335479814367,18.175373,0.1,207.68275,1626727826999,,,,
Fix,GT,37.4434086000,-122.2352746000,9.978319715249768,18.933598,0.1,207.92572,1626727827999,,,,
Fix,GT,37.4432590000,-122.2353752000,10.167311434484816,18.693491,0.1,208.27412,1626727828999,,,,
Fix,GT,37.4431124000,-122.2354744000,10.352321804072517,18.268162,0.1,208.18228,1626727829999,,,,
Fix,GT,37.4429688000,-122.2355709000,10.624300988845789,18.001944,0.1,208.06674,1626727830999,,,,
Fix,GT,37.4428253000,-122.2356667000,10.977271285530037,18.032661,0.1,207.90387,1626727831999,,,,
Fix,GT,37.4426817000,-122.2357616000,11.598236775454666,18.034386,0.1,207.54814,1626727832999,,,,
Fix,GT,37.4425372000,-122.2358557000,12.326208483896892,18.014894,0.1,207.34967,1626727833999,,,,
Fix,GT,37.4423953000,-122.2359482000,13.327167049743366,17.444895,0.1,207.54645,1626727834999,,,,
Fix,GT,37.4422588000,-122.2360379000,14.381178413317912,16.726118,0.1,207.74037,1626727835999,,,,
Fix,GT,37.4421287000,-122.2361254000,15.299198640535678,16.131073,0.1,208.38339,1626727836999,,,,
Fix,GT,37.4420022000,-122.2362122000,16.088229455705687,15.99559,0.1,208.80875,1626727837999,,,,
Fix,GT,37.4418762000,-122.2363001000,16.844231421002974,15.988707,0.1,209.12413,1626727838999,,,,
Fix,GT,37.4417507000,-122.2363891000,17.55623276710503,16.134363,0.1,209.53564,1626727839999,,,,
Fix,GT,37.4416213000,-122.2364803000,18.209232390045145,16.860283,0.1,209.15097,1626727840999,,,,
Fix,GT,37.4414864000,-122.2365786000,18.97920151008293,17.643356,0.1,211.27069,1626727841999,,,,
Fix,GT,37.4413527000,-122.2366920000,19.872187261269573,18.351204,0.1,216.06427,1626727842999,,,,
Fix,GT,37.4412203000,-122.2368235000,20.84919481489578,19.197206,0.1,219.578,1626727843999,,,,
Fix,GT,37.4410889000,-122.2369717000,21.850157651438167,20.066818,0.1,223.47327,1626727844999,,,,
Fix,GT,37.4409603000,-122.2371370000,23.040157781912512,20.807621,0.1,227.53058,1626727845999,,,,
Fix,GT,37.4408405000,-122.2373180000,24.25113525795996,20.889164,0.1,232.60945,1626727846999,,,,
Fix,GT,37.4407314000,-122.2375110000,25.444133681751282,21.031492,0.1,235.59344,1626727847999,,,,
Fix,GT,37.4406264000,-122.2377094000,26.71615365341745,21.088285,0.1,236.82254,1626727848999,,,,
Fix,GT,37.4405219000,-122.2379077000,27.938135895718005,20.967525,0.1,235.64378,1626727849999,,,,
Fix,GT,37.4404111000,-122.2380993000,29.28115320386496,20.905748,0.1,232.73433,1626727850999,,,,
Fix,GT,37.4402945000,-122.2382845000,30.441177337862086,20.911718,0.1,231.10059,1626727851999,,,,
Fix,GT,37.4401744000,-122.2384672000,31.524173494874503,21.00116,0.1,229.93106,1626727852999,,,,
Fix,GT,37.4400498000,-122.2386474000,32.55917649260891,21.237568,0.1,228.41942,1626727853999,,,,
Fix,GT,37.4399193000,-122.2388247000,33.677163815114,21.376003,0.1,226.17944,1626727854999,,,,
Fix,GT,37.4397835000,-122.2389956000,34.69214160287174,21.287,0.1,224.21281,1626727855999,,,,
Fix,GT,37.4396443000,-122.2391604000,35.59620809518674,21.145672,0.1,222.43042,1626727856999,,,,
Fix,GT,37.4395026000,-122.2393146000,36.80115609499535,20.441612,0.1,219.47203,1626727857999,,,,
Fix,GT,37.4393606000,-122.2394572000,37.990149539862614,20.040085,0.1,218.55312,1626727858999,,,,
Fix,GT,37.4392189000,-122.2395945000,39.001197076548124,19.692951,0.1,216.77985,1626727859999,,,,
Fix,GT,37.4390754000,-122.2397236000,39.95920407939229,19.53952,0.1,214.86977,1626727860999,,,,
Fix,GT,37.4389298000,-122.2398460000,40.83517458360393,19.358198,0.1,213.03801,1626727861999,,,,
Fix,GT,37.4387826000,-122.2399621000,41.671212228868626,19.270124,0.1,211.50926,1626727862999,,,,
Fix,GT,37.4386323000,-122.2400734000,42.23627730780572,19.509012,0.1,209.88385,1626727863999,,,,
Fix,GT,37.4384769000,-122.2401799000,42.7242725179276,19.768269,0.1,207.68187,1626727864999,,,,
Fix,GT,37.4383164000,-122.2402797000,43.118302245084124,19.988047,0.1,205.42603,1626727865999,,,,
Fix,GT,37.4381513000,-122.2403735000,43.431307295383704,20.24379,0.1,203.60402,1626727866999,,,,
Fix,GT,37.4379819000,-122.2404624000,43.61430768222749,20.495354,0.1,201.9528,1626727867999,,,,
Fix,GT,37.4378097000,-122.2405466000,43.74531356132343,20.473715,0.1,200.699,1626727868999,,,,
Fix,GT,37.4376367000,-122.2406272000,43.87035534040251,20.50945,0.1,200.22977,1626727869999,,,,
Fix,GT,37.4374635000,-122.2407092000,44.015321167199545,20.596138,0.1,201.11568,1626727870999,,,,
Fix,GT,37.4372912000,-122.2407962000,44.2963010702731,20.650343,0.1,202.60179,1626727871999,,,,
Fix,GT,37.4371209000,-122.2408886000,44.7322450406773,20.42818,0.1,204.16281,1626727872999,,,,
Fix,GT,37.4369572000,-122.2409878000,45.2572481927582,19.986784,0.1,207.09692,1626727873999,,,,
Fix,GT,37.4368019000,-122.2410974000,45.8472058561797,19.617233,0.1,211.48413,1626727874999,,,,
Fix,GT,37.4366598000,-122.2412227000,46.59821054443114,19.003336,0.1,218.03773,1626727875999,,,,
Fix,GT,37.4365347000,-122.2413630000,47.35221545144714,18.338928,0.1,224.36705,1626727876999,,,,
Fix,GT,37.4364235000,-122.2415111000,47.926229446089565,17.712015,0.1,227.98758,1626727877999,,,,
Fix,GT,37.4363218000,-122.2416601000,48.563215414531896,17.004005,0.1,230.0804,1626727878999,,,,
Fix,GT,37.4362291000,-122.2418062000,49.27623301352651,16.020416,0.1,232.58104,1626727879999,,,,
Fix,GT,37.4361467000,-122.2419471000,49.90225092371293,14.858384,0.1,234.39098,1626727880999,,,,
Fix,GT,37.4360778000,-122.2420780000,50.5182350017144,12.851945,0.1,238.20563,1626727881999,,,,
Fix,GT,37.4360282000,-122.2421921000,50.998271671238626,10.072985,0.1,243.54845,1626727882999,,,,
Fix,GT,37.4359995000,-122.2422824000,51.32729448010468,7.215648,0.1,250.43977,1626727883999,,,,
Fix,GT,37.4359862000,-122.2423469000,51.54831940917734,4.614279,0.1,256.63373,1626727884999,,,,
Fix,GT,37.4359812000,-122.2423852000,51.68233513082714,2.4007394,0.1,260.38187,1626727885999,,,,
Fix,GT,37.4359792000,-122.2424077000,51.73033919952013,1.9842757,0.1,262.4341,1626727886999,,,,
Fix,GT,37.4359774000,-122.2424363000,51.78033087450922,3.611689,0.1,264.91098,1626727887999,,,,
Fix,GT,37.4359767000,-122.2424914000,51.9093286704483,6.095583,0.1,269.41605,1626727888999,,,,
Fix,GT,37.4359816000,-122.2425695000,52.150307011029554,7.641162,0.1,275.9931,1626727889999,,,,
Fix,GT,37.4359961000,-122.2426586000,52.5592618008709,8.527154,0.1,283.43832,1626727890999,,,,
Fix,GT,37.4360202000,-122.2427567000,52.92927957497659,9.684774,0.1,288.1454,1626727891999,,,,
Fix,GT,37.4360510000,-122.2428648000,53.3962480198561,10.654818,0.1,290.37387,1626727892999,,,,
Fix,GT,37.4360884000,-122.2429806000,53.945241888844976,11.389227,0.1,292.6544,1626727893999,,,,
Fix,GT,37.4361308000,-122.2431007000,54.557229718375766,11.851004,0.1,294.51855,1626727894999,,,,
Fix,GT,37.4361769000,-122.2432220000,55.243228395132974,11.7901945,0.1,295.75986,1626727895999,,,,
Fix,GT,37.4362227000,-122.2433385000,55.91422386015756,11.156791,0.1,296.34192,1626727896999,,,,
Fix,GT,37.4362667000,-122.2434495000,56.55222987730144,10.905298,0.1,296.4324,1626727897999,,,,
Fix,GT,37.4363112000,-122.2435601000,57.15323908937603,11.091093,0.1,296.87097,1626727898999,,,,
Fix,GT,37.4363585000,-122.2436737000,57.802239072006614,11.672753,0.1,297.95404,1626727899999,,,,
Fix,GT,37.4364104000,-122.2437917000,58.51121529078955,12.083384,0.1,299.3668,1626727900999,,,,
Fix,GT,37.4364663000,-122.2439099000,59.243203731599806,12.2819395,0.1,301.26666,1626727901999,,,,
Fix,GT,37.4365275000,-122.2440273000,59.973216581347515,12.573294,0.1,304.25778,1626727902999,,,,
Fix,GT,37.4365947000,-122.2441436000,60.6932058766547,12.873209,0.1,306.74158,1626727903999,,,,
Fix,GT,37.4366669000,-122.2442593000,61.48619317931525,13.162436,0.1,308.79996,1626727904999,,,,
Fix,GT,37.4367442000,-122.2443739000,62.29218483120121,13.425681,0.1,311.05023,1626727905999,,,,
Fix,GT,37.4368259000,-122.2444877000,63.14618460864085,13.700614,0.1,312.2592,1626727906999,,,,
Fix,GT,37.4369104000,-122.2446027000,64.00018438608049,13.9422,0.1,312.73315,1626727907999,,,,
Fix,GT,37.4369961000,-122.2447193000,64.80819646951568,14.175659,0.1,312.43536,1626727908999,,,,
Fix,GT,37.4370832000,-122.2448394000,65.58319403950009,14.561144,0.1,312.1401,1626727909999,,,,
Fix,GT,37.4371729000,-122.2449632000,66.26522422941707,15.034569,0.1,312.36978,1626727910999,,,,
Fix,GT,37.4372659000,-122.2450904000,66.96021211183324,15.544042,0.1,312.67496,1626727911999,,,,
Fix,GT,37.4373631000,-122.2452218000,67.62122062208891,16.195133,0.1,312.84915,1626727912999,,,,
Fix,GT,37.4374643000,-122.2453587000,68.30421903570641,16.856012,0.1,312.8919,1626727913999,,,,
Fix,GT,37.4375706000,-122.2454998000,69.01321245408326,17.462994,0.1,313.4885,1626727914999,,,,
Fix,GT,37.4376799000,-122.2456426000,69.7341953174373,17.547102,0.1,314.0449,1626727915999,,,,
Fix,GT,37.4377904000,-122.2457843000,70.47619545172165,17.52614,0.1,314.52948,1626727916999,,,,
Fix,GT,37.4379002000,-122.2459261000,71.24219962643838,17.457928,0.1,313.52283,1626727917999,,,,
Fix,GT,37.4380077000,-122.2460725000,71.99022244435218,17.814726,0.1,312.1294,1626727918999,,,,
Fix,GT,37.4381170000,-122.2462236000,72.74318687072082,18.41108,0.1,312.3315,1626727919999,,,,
Fix,GT,37.4382322000,-122.2463787000,73.53919785820108,18.98645,0.1,313.48007,1626727920999,,,,
Fix,GT,37.4383529000,-122.2465349000,74.34416612997302,19.568008,0.1,314.56134,1626727921999,,,,
Fix,GT,37.4384777000,-122.2466910000,75.17719372407555,19.489273,0.1,315.49194,1626727922999,,,,
Fix,GT,37.4386032000,-122.2468441000,75.93519913937962,19.40404,0.1,315.88577,1626727923999,,,,
Fix,GT,37.4387286000,-122.2469962000,76.69720145452902,19.25779,0.1,315.88028,1626727924999,,,,
Fix,GT,37.4388517000,-122.2471467000,77.45719570768233,19.00867,0.1,315.4549,1626727925999,,,,
Fix,GT,37.4389735000,-122.2472984000,78.2142073251307,19.10529,0.1,314.9532,1626727926999,,,,
Fix,GT,37.4390957000,-122.2474523000,78.98019013831436,19.384632,0.1,314.79584,1626727927999,,,,
Fix,GT,37.4392202000,-122.2476099000,79.76819744610111,19.877079,0.1,314.6102,1626727928999,,,,
Fix,GT,37.4393473000,-122.2477712000,80.5771835575888,20.213705,0.1,314.5779,1626727929999,,,,
Fix,GT,37.4394761000,-122.2479352000,81.38717471679229,20.517996,0.1,314.5381,1626727930999,,,,
Fix,GT,37.4396062000,-122.2481007000,82.20518486397486,20.583563,0.1,314.63046,1626727931999,,,,
Fix,GT,37.4397367000,-122.2482662000,83.03018358000918,20.624477,0.1,314.63406,1626727932999,,,,
Fix,GT,37.4398675000,-122.2484329000,83.8501844272987,20.773296,0.1,314.29388,1626727933999,,,,
Fix,GT,37.4399982000,-122.2486019000,84.68817536467577,20.88787,0.1,314.0411,1626727934999,,,,
Fix,GT,37.4401292000,-122.2487718000,85.557161034626,20.926043,0.1,313.93433,1626727935999,,,,
Fix,GT,37.4402603000,-122.2489431000,86.42716900989035,21.12073,0.1,313.6635,1626727936999,,,,
Fix,GT,37.4403918000,-122.2491161000,87.2811829464863,21.174416,0.1,313.55957,1626727937999,,,,
Fix,GT,37.4405234000,-122.2492891000,88.13116519124378,21.138855,0.1,313.711,1626727938999,,,,
Fix,GT,37.4406552000,-122.2494615000,88.97817538437266,21.122738,0.1,313.83493,1626727939999,,,,
Fix,GT,37.4407872000,-122.2496336000,89.8111932824686,21.151993,0.1,313.84735,1626727940999,,,,
Fix,GT,37.4409202000,-122.2498064000,90.6421720472099,21.381687,0.1,314.03595,1626727941999,,,,
Fix,GT,37.4410549000,-122.2499806000,91.49418091203552,21.579933,0.1,314.0664,1626727942999,,,,
Fix,GT,37.4411909000,-122.2501571000,92.34816928960845,21.840979,0.1,313.94363,1626727943999,,,,
Fix,GT,37.4413284000,-122.2503354000,93.21816676069557,22.074533,0.1,314.019,1626727944999,,,,
Fix,GT,37.4414672000,-122.2505159000,94.16414667870686,22.283602,0.1,313.85843,1626727945999,,,,
Fix,GT,37.4416069000,-122.2506982000,95.17114377938924,22.47153,0.1,313.83264,1626727946999,,,,
Fix,GT,37.4417474000,-122.2508823000,96.20513790482983,22.656927,0.1,313.77103,1626727947999,,,,
Fix,GT,37.4418893000,-122.2510678000,97.24613367591519,22.812529,0.1,313.88992,1626727948999,,,,
Fix,GT,37.4420313000,-122.2512541000,98.30014682272486,22.772955,0.1,313.6033,1626727949999,,,,
Fix,GT,37.4421712000,-122.2514416000,99.27913301358785,22.68069,0.1,312.5775,1626727950999,,,,
Fix,GT,37.4423072000,-122.2516326000,100.22016974676444,22.621992,0.1,311.09967,1626727951999,,,,
Fix,GT,37.4424387000,-122.2518277000,101.11515457102541,22.592731,0.1,309.61224,1626727952999,,,,
Fix,GT,37.4425664000,-122.2520263000,102.0271585770488,22.53879,0.1,308.29535,1626727953999,,,,
Fix,GT,37.4426893000,-122.2522286000,102.91115668936254,22.468344,0.1,306.58514,1626727954999,,,,
Fix,GT,37.4428074000,-122.2524346000,103.79715152684457,22.415539,0.1,305.00256,1626727955999,,,,
Fix,GT,37.4429209000,-122.2526439000,104.65415652437059,22.36802,0.1,303.58545,1626727956999,,,,
Fix,GT,37.4430298000,-122.2528562000,105.54315733383191,22.320875,0.1,302.16614,1626727957999,,,,
Fix,GT,37.4431345000,-122.2530715000,106.4131649931187,22.27327,0.1,300.7534,1626727958999,,,,
Fix,GT,37.4432350000,-122.2532891000,107.28517179416122,22.260788,0.1,299.60886,1626727959999,,,,
Fix,GT,37.4433321000,-122.2535094000,108.14716237907123,22.262285,0.1,298.4223,1626727960999,,,,
Fix,GT,37.4434252000,-122.2537323000,109.02714954451221,22.26693,0.1,297.0441,1626727961999,,,,
Fix,GT,37.4435140000,-122.2539581000,109.91514755627031,22.26356,0.1,295.6072,1626727962999,,,,
Fix,GT,37.4435980000,-122.2541861000,110.79816671294066,22.168415,0.1,294.24765,1626727963999,,,,
Fix,GT,37.4436773000,-122.2544154000,111.67316420710267,22.0632,0.1,292.77808,1626727964999,,,,
Fix,GT,37.4437516000,-122.2546462000,112.53316886826724,21.98704,0.1,291.30518,1626727965999,,,,
Fix,GT,37.4438210000,-122.2548793000,113.39516367867327,21.978594,0.1,289.8953,1626727966999,,,,
Fix,GT,37.4438855000,-122.2551115000,114.24017548991833,21.551954,0.1,288.7546,1626727967999,,,,
Fix,GT,37.4439459000,-122.2553429000,115.10715342318508,21.56051,0.1,287.6292,1626727968999,,,,
Fix,GT,37.4440024000,-122.2555759000,115.94617510871922,21.510975,0.1,286.37122,1626727969999,,,,
Fix,GT,37.4440544000,-122.2558096000,116.80017213814426,21.419043,0.1,284.97275,1626727970999,,,,
Fix,GT,37.4441015000,-122.2560437000,117.64415940844628,21.32127,0.1,283.56644,1626727971999,,,,
Fix,GT,37.4441440000,-122.2562784000,118.45117471510093,21.237173,0.1,282.1739,1626727972999,,,,
Fix,GT,37.4441817000,-122.2565133000,119.24318642813887,21.163292,0.1,280.88977,1626727973999,,,,
Fix,GT,37.4442153000,-122.2567483000,119.96918630446635,21.095938,0.1,279.69757,1626727974999,,,,
Fix,GT,37.4442452000,-122.2569836000,120.65319838744108,21.067204,0.1,278.60004,1626727975999,,,,
Fix,GT,37.4442713000,-122.2572197000,121.31721287176424,21.08789,0.1,277.32135,1626727976999,,,,
Fix,GT,37.4442926000,-122.2574564000,121.95321422584948,21.070938,0.1,275.8715,1626727977999,,,,
Fix,GT,37.4443093000,-122.2576937000,122.57020760086834,21.075058,0.1,274.4135,1626727978999,,,,
Fix,GT,37.4443213000,-122.2579317000,123.12622046818069,21.128166,0.1,273.04233,1626727979999,,,,
Fix,GT,37.4443289000,-122.2581707000,123.64524383461139,21.18808,0.1,271.71722,1626727980999,,,,
Fix,GT,37.4443323000,-122.2584105000,124.14224883607312,21.259882,0.1,270.46213,1626727981999,,,,
Fix,GT,37.4443311000,-122.2586515000,124.61025099448307,21.383368,0.1,269.04114,1626727982999,,,,
Fix,GT,37.4443251000,-122.2588940000,125.01326860533482,21.55205,0.1,267.64954,1626727983999,,,,
Fix,GT,37.4443150000,-122.2591384000,125.36228767899229,21.760344,0.1,266.5022,1626727984999,,,,
Fix,GT,37.4443009000,-122.2593852000,125.63429972850099,22.013765,0.1,265.47144,1626727985999,,,,
Fix,GT,37.4442834000,-122.2596347000,125.86930248421413,22.364311,0.1,264.54324,1626727986999,,,,
Fix,GT,37.4442633000,-122.2598887000,126.06830357919898,22.75386,0.1,264.30835,1626727987999,,,,
Fix,GT,37.4442430000,-122.2601459000,126.2213191636747,22.981768,0.1,264.41824,1626727988999,,,,
Fix,GT,37.4442228000,-122.2604058000,126.33932832165283,23.229006,0.1,264.3586,1626727989999,,,,
Fix,GT,37.4442020000,-122.2606694000,126.42132900969682,23.689932,0.1,264.2013,1626727990999,,,,
Fix,GT,37.4441803000,-122.2609364000,126.53831360212735,23.661203,0.1,264.16702,1626727991999,,,,
Fix,GT,37.4441587000,-122.2612006000,126.69329870693218,23.33023,0.1,264.04434,1626727992999,,,,
Fix,GT,37.4441370000,-122.2614607000,126.8703051366474,22.955313,0.1,263.95264,1626727993999,,,,
Fix,GT,37.4441154000,-122.2617165000,127.04330692543681,22.58075,0.1,263.94522,1626727994999,,,,
Fix,GT,37.4440948000,-122.2619684000,127.1473267147594,22.226728,0.1,264.27777,1626727995999,,,,
Fix,GT,37.4440754000,-122.2622163000,127.2943321467119,21.86734,0.1,264.32907,1626727996999,,,,
Fix,GT,37.4440562000,-122.2624602000,127.4153144670272,21.516867,0.1,264.34186,1626727997999,,,,
Fix,GT,37.4440378000,-122.2627003000,127.50833280365623,21.180758,0.1,264.58627,1626727998999,,,,
Fix,GT,37.4440203000,-122.2629369000,127.5583358332533,20.86132,0.1,264.7587,1626727999999,,,,
Fix,GT,37.4440034000,-122.2631698000,127.6543104553748,20.534315,0.1,264.76422,1626728000999,,,,
Fix,GT,37.4439866000,-122.2633990000,127.74832901730497,20.21674,0.1,264.59,1626728001999,,,,
Fix,GT,37.4439692000,-122.2636250000,127.80634609392564,19.965158,0.1,264.36102,1626728002999,,,,
Fix,GT,37.4439521000,-122.2638478000,127.87334280808136,19.737305,0.1,264.61084,1626728003999,,,,
Fix,GT,37.4439366000,-122.2640715000,127.91034765366476,20.09167,0.1,265.32626,1626728004999,,,,
Fix,GT,37.4439242000,-122.2643003000,127.91036388626708,20.516275,0.1,266.75287,1626728005999,,,,
Fix,GT,37.4439171000,-122.2645343000,127.88036278232539,20.938927,0.1,268.59055,1626728006999,,,,
Fix,GT,37.4439143000,-122.2647723000,127.86235511464565,21.10568,0.1,269.5877,1626728007999,,,,
Fix,GT,37.4439154000,-122.2650118000,127.79136763888255,21.363764,0.1,270.7844,1626728008999,,,,
Fix,GT,37.4439203000,-122.2652555000,127.71336940039146,21.792667,0.1,271.8771,1626728009999,,,,
Fix,GT,37.4439291000,-122.2655039000,127.5923742625655,22.230402,0.1,273.02686,1626728010999,,,,
Fix,GT,37.4439426000,-122.2657568000,127.44938651676057,22.642471,0.1,274.45932,1626728011999,,,,
Fix,GT,37.4439616000,-122.2660138000,127.25138266963222,23.064436,0.1,275.87564,1626728012999,,,,
Fix,GT,37.4439859000,-122.2662752000,127.02841189756873,23.522099,0.1,277.23627,1626728013999,,,,
Fix,GT,37.4440158000,-122.2665410000,126.73241381231492,24.05765,0.1,278.50494,1626728014999,,,,
Fix,GT,37.4440506000,-122.2668130000,126.42743537156275,24.66401,0.1,279.56647,1626728015999,,,,
Fix,GT,37.4440906000,-122.2670900000,126.08142248347212,25.15909,0.1,280.83618,1626728016999,,,,
Fix,GT,37.4441368000,-122.2673706000,125.73442958533269,25.571892,0.1,282.3895,1626728017999,,,,
Fix,GT,37.4441902000,-122.2676535000,125.37142650292753,25.824465,0.1,284.19894,1626728018999,,,,
Fix,GT,37.4442507000,-122.2679345000,125.0164332735394,25.69622,0.1,285.84076,1626728019999,,,,
Fix,GT,37.4443169000,-122.2682116000,124.63245682655725,25.50628,0.1,287.3595,1626728020999,,,,
Fix,GT,37.4443885000,-122.2684843000,124.26844427636388,25.319986,0.1,288.88742,1626728021999,,,,
Fix,GT,37.4444651000,-122.2687525000,123.89744461426926,25.129389,0.1,290.35367,1626728022999,,,,
Fix,GT,37.4445466000,-122.2690164000,123.53243925924835,24.98198,0.1,291.8246,1626728023999,,,,
Fix,GT,37.4446333000,-122.2692776000,123.10448386074586,25.171661,0.1,293.25165,1626728024999,,,,
Fix,GT,37.4447256000,-122.2695394000,122.70544609771969,25.469017,0.1,294.28174,1626728025999,,,,
Fix,GT,37.4448227000,-122.2698010000,122.38044929128228,25.610361,0.1,295.53076,1626728026999,,,,
Fix,GT,37.4449251000,-122.2700614000,122.0254432462898,25.791752,0.1,296.83142,1626728027999,,,,
Fix,GT,37.4450331000,-122.2703206000,121.71245749550872,25.99273,0.1,298.1613,1626728028999,,,,
Fix,GT,37.4451470000,-122.2705784000,121.3944131581411,26.190165,0.1,299.78912,1626728029999,,,,
Fix,GT,37.4452682000,-122.2708330000,121.14940364658833,26.316605,0.1,301.53214,1626728030999,,,,
Fix,GT,37.4453953000,-122.2710850000,120.98139237189025,26.467882,0.1,303.0589,1626728031999,,,,
Fix,GT,37.4455289000,-122.2713336000,120.86438080327571,26.610607,0.1,304.73813,1626728032999,,,,
Fix,GT,37.4456690000,-122.2715785000,120.78934029588709,26.72945,0.1,306.41315,1626728033999,,,,
Fix,GT,37.4458148000,-122.2718193000,120.80833021562285,26.810263,0.1,307.85007,1626728034999,,,,
Fix,GT,37.4459652000,-122.2720565000,120.94527744862535,26.850662,0.1,309.09265,1626728035999,,,,
Fix,GT,37.4461200000,-122.2722898000,121.169296456952,26.835094,0.1,310.28442,1626728036999,,,,
Fix,GT,37.4462776000,-122.2725189000,121.43828627163111,26.760525,0.1,311.18604,1626728037999,,,,
Fix,GT,37.4464363000,-122.2727463000,121.79325992775284,26.698566,0.1,311.05588,1626728038999,,,,
Fix,GT,37.4465943000,-122.2729732000,122.16725517423038,26.626091,0.1,311.13498,1626728039999,,,,
Fix,GT,37.4467523000,-122.2731992000,122.54624849887841,26.548225,0.1,311.2134,1626728040999,,,,
Fix,GT,37.4469098000,-122.2734242000,123.01122997549191,26.4546,0.1,311.29736,1626728041999,,,,
Fix,GT,37.4470668000,-122.2736482000,123.5302318900267,26.327353,0.1,311.16504,1626728042999,,,,
Fix,GT,37.4472224000,-122.2738719000,124.09019978885044,26.191673,0.1,310.9722,1626728043999,,,,
Fix,GT,37.4473770000,-122.2740945000,124.72018964759627,26.048706,0.1,311.09695,1626728044999,,,,
Fix,GT,37.4475311000,-122.2743154000,125.41316533945792,25.913975,0.1,311.17673,1626728045999,,,,
Fix,GT,37.4476847000,-122.2745350000,126.14016514280047,25.776184,0.1,311.2178,1626728046999,,,,
Fix,GT,37.4478375000,-122.2747534000,126.85416934451496,25.65136,0.1,311.23492,1626728047999,,,,
Fix,GT,37.4479896000,-122.2749707000,127.58717077629262,25.504465,0.1,311.23517,1626728048999,,,,
Fix,GT,37.4481409000,-122.2751866000,128.32516683693393,25.436113,0.1,311.3562,1626728049999,,,,
Fix,GT,37.4482926000,-122.2754023000,129.0821603825716,25.474981,0.1,311.3693,1626728050999,,,,
Fix,GT,37.4484453000,-122.2756181000,129.80817297921567,25.632244,0.1,311.72665,1626728051999,,,,
Fix,GT,37.4486001000,-122.2758348000,130.52014566620255,25.851746,0.1,311.8296,1626728052999,,,,
Fix,GT,37.4487560000,-122.2760530000,131.2541740830784,25.979965,0.1,311.76358,1626728053999,,,,
Fix,GT,37.4489112000,-122.2762724000,131.99916146849864,25.895737,0.1,311.06516,1626728054999,,,,
Fix,GT,37.4490635000,-122.2764935000,132.73816213627106,25.828743,0.1,310.44424,1626728055999,,,,
Fix,GT,37.4492138000,-122.2767165000,133.43817384667545,25.8804,0.1,309.8888,1626728056999,,,,
Fix,GT,37.4493640000,-122.2769412000,134.12418575501124,25.999796,0.1,309.9483,1626728057999,,,,
Fix,GT,37.4495144000,-122.2771659000,134.77218304844337,25.813185,0.1,310.00043,1626728058999,,,,
Fix,GT,37.4496622000,-122.2773878000,135.34322487671034,25.382097,0.1,309.57083,1626728059999,,,,
Fix,GT,37.4498065000,-122.2776075000,135.77224563621712,24.986723,0.1,309.42435,1626728060999,,,,
Fix,GT,37.4499485000,-122.2778242000,136.24522993753544,24.680233,0.1,309.42737,1626728061999,,,,
Fix,GT,37.4500896000,-122.2780393000,136.65024625246951,24.651674,0.1,309.4037,1626728062999,,,,
Fix,GT,37.4502309000,-122.2782550000,137.01925195839976,24.744507,0.1,309.4323,1626728063999,,,,
Fix,GT,37.4503727000,-122.2784702000,137.46613376945243,24.637878,0.1,309.5868,1626728064999,,,,
Fix,GT,37.4505146000,-122.2786837000,137.7682826806422,24.542261,0.1,309.7835,1626728065999,,,,
Fix,GT,37.4506561000,-122.2788968000,138.02227279706221,24.585606,0.1,309.787,1626728066999,,,,
Fix,GT,37.4507984000,-122.2791112000,138.19329827002002,24.76124,0.1,309.53833,1626728067999,,,,
Fix,GT,37.4509409000,-122.2793277000,138.33530925667947,24.933092,0.1,309.49823,1626728068999,,,,
Fix,GT,37.4510847000,-122.2795454000,138.38834123171182,25.105953,0.1,309.74133,1626728069999,,,,
Fix,GT,37.4512300000,-122.2797638000,138.4073358342357,25.225187,0.1,309.7792,1626728070999,,,,
Fix,GT,37.4513754000,-122.2799836000,138.42333730384053,25.307175,0.1,309.4439,1626728071999,,,,
Fix,GT,37.4515208000,-122.2802046000,138.41835534600796,25.401438,0.1,309.4184,1626728072999,,,,
Fix,GT,37.4516660000,-122.2804273000,138.38335682471552,25.504965,0.1,308.98746,1626728073999,,,,
Fix,GT,37.4518100000,-122.2806514000,138.2703785415688,25.42282,0.1,308.74783,1626728074999,,,,
Fix,GT,37.4519540000,-122.2808752000,138.15737696758333,25.462786,0.1,308.98938,1626728075999,,,,
Fix,GT,37.4520994000,-122.2810979000,137.97639787474327,25.499292,0.1,309.41187,1626728076999,,,,
Fix,GT,37.4522463000,-122.2813203000,137.716424359578,25.633984,0.1,309.7581,1626728077999,,,,
Fix,GT,37.4523947000,-122.2815437000,137.4424427918657,25.828308,0.1,309.66446,1626728078999,,,,
Fix,GT,37.4525437000,-122.2817700000,137.08844940946437,26.10297,0.1,309.35065,1626728079999,,,,
Fix,GT,37.4526937000,-122.2819996000,136.71944364319097,26.406012,0.1,309.19498,1626728080999,,,,
Fix,GT,37.4528453000,-122.2822321000,136.31146244426236,26.774103,0.1,309.32672,1626728081999,,,,
Fix,GT,37.4529998000,-122.2824677000,135.8244735051485,27.195312,0.1,309.48196,1626728082999,,,,
Fix,GT,37.4531572000,-122.2827063000,135.2745014780112,27.65126,0.1,309.58603,1626728083999,,,,
Fix,GT,37.4533178000,-122.2829489000,134.67651538263817,28.150484,0.1,309.68744,1626728084999,,,,
Fix,GT,37.4534813000,-122.2831955000,134.05749402494166,28.592194,0.1,309.6753,1626728085999,,,,
Fix,GT,37.4536468000,-122.2834465000,133.4285042994361,29.038713,0.1,309.28082,1626728086999,,,,
Fix,GT,37.4538136000,-122.2837023000,132.78252413517293,29.446823,0.1,309.2306,1626728087999,,,,
Fix,GT,37.4539822000,-122.2839602000,132.1545367684139,29.475647,0.1,309.3393,1626728088999,,,,
Fix,GT,37.4541501000,-122.2842172000,131.50551656974403,29.332073,0.1,309.42374,1626728089999,,,,
Fix,GT,37.4543185000,-122.2844722000,130.85050226424391,29.277987,0.1,309.71323,1626728090999,,,,
Fix,GT,37.4544873000,-122.2847265000,130.20652108528247,29.284857,0.1,309.69797,1626728091999,,,,
Fix,GT,37.4546562000,-122.2849809000,129.54851395603146,29.305336,0.1,309.6999,1626728092999,,,,
Fix,GT,37.4548246000,-122.2852360000,128.91851397592563,29.315271,0.1,309.41525,1626728093999,,,,
Fix,GT,37.4549923000,-122.2854924000,128.2565222485373,29.35374,0.1,309.2648,1626728094999,,,,
Fix,GT,37.4551600000,-122.2857494000,127.6065338499684,29.410715,0.1,309.25204,1626728095999,,,,
Fix,GT,37.4553286000,-122.2860063000,126.93554212689924,29.462856,0.1,309.53424,1626728096999,,,,
Fix,GT,37.4554976000,-122.2862632000,126.25252780794108,29.495764,0.1,309.3138,1626728097999,,,,
Fix,GT,37.4556662000,-122.2865213000,125.52055732577355,29.572603,0.1,309.2971,1626728098999,,,,
Fix,GT,37.4558364000,-122.2867795000,124.73555129847773,29.708757,0.1,309.8651,1626728099999,,,,
Fix,GT,37.4560099000,-122.2870360000,124.00754140168283,29.832687,0.1,310.6557,1626728100999,,,,
Fix,GT,37.4561878000,-122.2872892000,123.4644703019967,29.87823,0.1,312.1735,1626728101999,,,,
Fix,GT,37.4563719000,-122.2875354000,123.05443468238627,29.924212,0.1,314.11017,1626728102999,,,,
Fix,GT,37.4565640000,-122.2877733000,122.77738661400508,30.04592,0.1,316.4422,1626728103999,,,,
Fix,GT,37.4567641000,-122.2880030000,122.61835252801029,30.168417,0.1,318.5696,1626728104999,,,,
Fix,GT,37.4569708000,-122.2882250000,122.57434800747251,30.274,0.1,320.2409,1626728105999,,,,
Fix,GT,37.4571835000,-122.2884398000,122.68028450496058,30.283733,0.1,322.03333,1626728106999,,,,
Fix,GT,37.4574006000,-122.2886443000,122.90527433952775,30.040873,0.1,324.1864,1626728107999,,,,
Fix,GT,37.4576219000,-122.2888381000,123.29522240963706,29.901728,0.1,325.96268,1626728108999,,,,
Fix,GT,37.4578474000,-122.2890219000,123.78522229118971,29.80003,0.1,327.96027,1626728109999,,,,
Fix,GT,37.4580769000,-122.2891953000,124.35418720677262,29.682856,0.1,329.79575,1626728110999,,,,
Fix,GT,37.4583093000,-122.2893594000,124.95120065251103,29.532305,0.1,331.45575,1626728111999,,,,
Fix,GT,37.4585446000,-122.2895131000,125.565166346365,29.373938,0.1,333.54053,1626728112999,,,,
Fix,GT,37.4587828000,-122.2896550000,126.19017152141623,29.194494,0.1,335.6186,1626728113999,,,,
Fix,GT,37.4590235000,-122.2897859000,126.78020568638476,29.06536,0.1,337.40652,1626728114999,,,,
Fix,GT,37.4592663000,-122.2899068000,127.39019248183467,28.944107,0.1,339.2776,1626728115999,,,,
Fix,GT,37.4595114000,-122.2900171000,127.89620531861146,28.886076,0.1,341.22012,1626728116999,,,,
Fix,GT,37.4597585000,-122.2901174000,128.50219702358118,28.793243,0.1,342.80356,1626728117999,,,,
Fix,GT,37.4600068000,-122.2902090000,129.0911450923786,28.661283,0.1,344.31244,1626728118999,,,,
Fix,GT,37.4602562000,-122.2902911000,129.63813252424825,28.583952,0.1,346.43997,1626728119999,,,,
Fix,GT,37.4605076000,-122.2903618000,130.34817577941521,28.64649,0.1,348.41318,1626728120999,,,,
Fix,GT,37.4607618000,-122.2904213000,130.92619766513508,28.805468,0.1,350.3531,1626728121999,,,,
Fix,GT,37.4610191000,-122.2904709000,131.49618005620414,28.981506,0.1,352.09717,1626728122999,,,,
Fix,GT,37.4612791000,-122.2905105000,132.08718175124977,29.179068,0.1,354.24042,1626728123999,,,,
Fix,GT,37.4615415000,-122.2905375000,132.68517495187461,29.271568,0.1,356.30737,1626728124999,,,,
Fix,GT,37.4618048000,-122.2905548000,133.4101352674288,29.254984,0.1,357.42358,1626728125999,,,,
Fix,GT,37.4620681000,-122.2905677000,134.1901351663564,29.242672,0.1,357.94052,1626728126999,,,,
Fix,GT,37.4623315000,-122.2905783000,134.81116334672151,29.271309,0.1,358.32904,1626728127999,,,,
Fix,GT,37.4625955000,-122.2905875000,135.3971755053626,29.333385,0.1,358.4144,1626728128999,,,,
Fix,GT,37.4628598000,-122.2905964000,135.9861631328713,29.376282,0.1,358.45074,1626728129999,,,,
Fix,GT,37.4631246000,-122.2906052000,136.59416185553437,29.388817,0.1,358.45422,1626728130999,,,,
Fix,GT,37.4633888000,-122.2906137000,137.23716694032373,29.24985,0.1,358.65573,1626728131999,,,,
Fix,GT,37.4636500000,-122.2906221000,138.0111270236257,28.760378,0.1,358.3783,1626728132999,,,,
Fix,GT,37.4639071000,-122.2906334000,138.77313965572284,28.342266,0.1,357.55206,1626728133999,,,,
Fix,GT,37.4641607000,-122.2906500000,139.32924242061108,28.053814,0.1,356.67908,1626728134999,,,,
Fix,GT,37.4644117000,-122.2906708000,139.71023340352258,27.78629,0.1,355.98154,1626728135999,,,,
Fix,GT,37.4646604000,-122.2906939000,140.09123560244188,27.576836,0.1,355.72034,1626728136999,,,,
Fix,GT,37.4649074000,-122.2907186000,140.46623546796036,27.392607,0.1,355.2165,1626728137999,,,,
Fix,GT,37.4651523000,-122.2907474000,140.78726090990858,27.188004,0.1,353.97433,1626728138999,,,,
Fix,GT,37.4653946000,-122.2907845000,141.09227035608728,27.024971,0.1,352.14807,1626728139999,,,,
Fix,GT,37.4656356000,-122.2908309000,141.30434335051177,27.059624,0.1,350.47937,1626728140999,,,,
Fix,GT,37.4658753000,-122.2908840000,141.63926439176612,26.970823,0.1,349.89517,1626728141999,,,,
Fix,GT,37.4661142000,-122.2909361000,141.92826011525176,26.84501,0.1,350.32877,1626728142999,,,,
Fix,GT,37.4663507000,-122.2909872000,142.26223986259356,26.396505,0.1,350.157,1626728143999,,,,
Fix,GT,37.4665811000,-122.2910395000,142.62920170565485,25.476357,0.1,349.3532,1626728144999,,,,
Fix,GT,37.4668013000,-122.2910957000,142.8572974531162,24.391613,0.1,347.70685,1626728145999,,,,
Fix,GT,37.4670111000,-122.2911562000,142.82537056821457,23.313793,0.1,346.62506,1626728146999,,,,
Fix,GT,37.4672094000,-122.2912188000,142.5364259196631,22.037693,0.1,345.36972,1626728147999,,,,
Fix,GT,37.4673955000,-122.2912823000,142.088533145572,20.793224,0.1,344.39337,1626728148999,,,,
Fix,GT,37.4675705000,-122.2913462000,141.4824679570811,19.73941,0.1,343.51535,1626728149999,,,,
Fix,GT,37.4677365000,-122.2914104000,140.94158175215125,18.786497,0.1,342.20483,1626728150999,,,,
Fix,GT,37.4678920000,-122.2914778000,140.22559004776485,17.719519,0.1,340.04852,1626728151999,,,,
Fix,GT,37.4680369000,-122.2915463000,139.4085747277204,16.58526,0.1,339.0583,1626728152999,,,,
Fix,GT,37.4681713000,-122.2916090000,138.57259652046923,15.27436,0.1,340.15894,1626728153999,,,,
Fix,GT,37.4682980000,-122.2916631000,137.731585745154,14.335428,0.1,341.97897,1626728154999,,,,
Fix,GT,37.4684152000,-122.2917082000,136.99551528704433,12.711812,0.1,343.34512,1626728155999,,,,
Fix,GT,37.4685158000,-122.2917451000,136.51945439788688,10.584765,0.1,343.5486,1626728156999,,,,
Fix,GT,37.4685976000,-122.2917776000,136.23939534330566,8.389129,0.1,341.59195,1626728157999,,,,
Fix,GT,37.4686562000,-122.2918081000,136.13335806690884,5.609324,0.1,335.52795,1626728158999,,,,
Fix,GT,37.4686888000,-122.2918314000,136.07635128925176,2.73431,0.1,330.4422,1626728159999,,,,
Fix,GT,37.4687019000,-122.2918420000,136.05435180664062,0.7962493,0.1,328.47144,1626728160999,,,,
Fix,GT,37.4687034000,-122.2918432000,136.0423460498605,0.124356225,0.1,328.2813,1626728161999,,,,
Fix,GT,37.4687071000,-122.2918463000,136.0363522192638,0.9266628,0.1,327.81476,1626728162999,,,,
Fix,GT,37.4687200000,-122.2918575000,136.02534197518435,2.6124275,0.1,326.41193,1626728163999,,,,
Fix,GT,37.4687450000,-122.2918811000,136.06034271248973,4.2260766,0.1,322.71896,1626728164999,,,,
Fix,GT,37.4687756000,-122.2919211000,136.21728809069464,5.484488,0.1,311.71793,1626728165999,,,,
Fix,GT,37.4687969000,-122.2919851000,136.36325504896377,6.533343,0.1,287.41983,1626728166999,,,,
Fix,GT,37.4687940000,-122.2920662000,136.48232812052993,7.6254816,0.1,261.77444,1626728167999,,,,
Fix,GT,37.4687656000,-122.2921520000,136.47434997558594,8.75105,0.1,242.89552,1626728168999,,,,
Fix,GT,37.4687140000,-122.2922393000,136.49034412614856,10.379078,0.1,229.63911,1626728169999,,,,
Fix,GT,37.4686425000,-122.2923272000,136.46837079777652,11.688506,0.1,222.8691,1626728170999,,,,
Fix,GT,37.4685616000,-122.2924209000,136.41237981490667,12.742082,0.1,222.72278,1626728171999,,,,
Fix,GT,37.4684756000,-122.2925224000,136.24041151082565,13.440516,0.1,223.71326,1626728172999,,,,
Fix,GT,37.4683889000,-122.2926316000,135.94745633447747,13.752644,0.1,226.2652,1626728173999,,,,
Fix,GT,37.4683069000,-122.2927485000,135.52846829826558,13.776975,0.1,230.09134,1626728174999,,,,
Fix,GT,37.4682274000,-122.2928662000,135.0124972925405,13.458112,0.1,228.37323,1626728175999,,,,
Fix,GT,37.4681444000,-122.2929721000,134.40354811348516,12.609992,0.1,224.12453,1626728176999,,,,
Fix,GT,37.4680672000,-122.2930672000,133.74552295203466,11.547291,0.1,225.50108,1626728177999,,,,
Fix,GT,37.4680043000,-122.2931631000,133.07258694642223,10.306131,0.1,234.22414,1626728178999,,,,
Fix,GT,37.4679656000,-122.2932600000,132.3586038479989,9.168225,0.1,249.02762,1626728179999,,,,
Fix,GT,37.4679612000,-122.2933607000,131.48050056034117,9.241753,0.1,275.4553,1626728180999,,,,
Fix,GT,37.4679952000,-122.2934561000,131.11939825608533,9.838935,0.1,301.17477,1626728181999,,,,
Fix,GT,37.4680578000,-122.2935489000,131.10431293927104,11.846799,0.1,313.4016,1626728182999,,,,
Fix,GT,37.4681399000,-122.2936465000,131.21129900271626,13.1426,0.1,317.39508,1626728183999,,,,
Fix,GT,37.4682307000,-122.2937495000,131.313321401145,14.053598,0.1,317.78012,1626728184999,,,,
Fix,GT,37.4683288000,-122.2938600000,131.6572235635549,15.208004,0.1,317.94904,1626728185999,,,,
Fix,GT,37.4684334000,-122.2939769000,132.19515820938614,15.8590555,0.1,318.45645,1626728186999,,,,
Fix,GT,37.4685408000,-122.2940930000,132.89312023111233,15.474721,0.1,319.90134,1626728187999,,,,
Fix,GT,37.4686483000,-122.2941933000,133.61611220354825,14.257334,0.1,326.34467,1626728188999,,,,
Fix,GT,37.4687573000,-122.2942610000,134.4090872207962,13.07903,0.1,339.12408,1626728189999,,,,
Fix,GT,37.4688688000,-122.2942881000,135.26606658120545,12.473606,0.1,355.53638,1626728190999,,,,
Fix,GT,37.4689788000,-122.2942756000,136.12910881446987,12.315955,0.1,10.989125,1626728191999,,,,
Fix,GT,37.4690827000,-122.2942257000,136.93608208857768,12.640493,0.1,26.748713,1626728192999,,,,
Fix,GT,37.4691745000,-122.2941399000,137.74111077217822,13.004337,0.1,42.55285,1626728193999,,,,
Fix,GT,37.4692468000,-122.2940233000,138.54510527181446,13.281945,0.1,58.02104,1626728194999,,,,
Fix,GT,37.4692907000,-122.2938862000,139.35712254516875,13.127332,0.1,74.64399,1626728195999,,,,
Fix,GT,37.4693006000,-122.2937393000,140.12111778138205,13.236232,0.1,91.818726,1626728196999,,,,
Fix,GT,37.4692750000,-122.2935935000,140.88512791946232,13.462717,0.1,109.0609,1626728197999,,,,
Fix,GT,37.4692154000,-122.2934602000,141.56014885192053,13.92409,0.1,125.14723,1626728198999,,,,
Fix,GT,37.4691291000,-122.2933392000,142.1591840015999,14.963944,0.1,134.93144,1626728199999,,,,
Fix,GT,37.4690263000,-122.2932199000,142.6921825020563,16.192898,0.1,138.19052,1626728200999,,,,
Fix,GT,37.4689108000,-122.2930960000,143.14622564208094,17.586054,0.1,140.27116,1626728201999,,,,
Fix,GT,37.4687817000,-122.2929673000,143.533261429322,19.066729,0.1,142.34578,1626728202999,,,,
Fix,GT,37.4686385000,-122.2928320000,143.57036432964742,20.76386,0.1,143.70847,1626728203999,,,,
Fix,GT,37.4684815000,-122.2926941000,143.43438410573253,21.751083,0.1,146.16112,1626728204999,,,,
Fix,GT,37.4683134000,-122.2925605000,143.26741026155014,22.44094,0.1,148.98372,1626728205999,,,,
Fix,GT,37.4681351000,-122.2924331000,143.0514038396568,23.106606,0.1,151.31248,1626728206999,,,,
Fix,GT,37.4679468000,-122.2923099000,142.81746235253286,24.10011,0.1,153.36787,1626728207999,,,,
Fix,GT,37.4677469000,-122.2921893000,142.64336250384713,25.17087,0.1,155.07024,1626728208999,,,,
Fix,GT,37.4675355000,-122.2920709000,142.41942172910058,26.175478,0.1,156.77191,1626728209999,,,,
Fix,GT,37.4673147000,-122.2919573000,142.11946479915696,26.848146,0.1,158.47873,1626728210999,,,,
Fix,GT,37.4670854000,-122.2918484000,141.85239601223657,27.571636,0.1,159.94284,1626728211999,,,,
Fix,GT,37.4668482000,-122.2917436000,141.62243418968046,28.22771,0.1,161.02443,1626728212999,,,,
Fix,GT,37.4666054000,-122.2916418000,141.3313723269548,28.487787,0.1,161.97942,1626728213999,,,,
Fix,GT,37.4663616000,-122.2915462000,141.05743195920604,28.22126,0.1,163.2671,1626728214999,,,,
Fix,GT,37.4661186000,-122.2914582000,140.75741667444254,27.945162,0.1,164.57555,1626728215999,,,,
Fix,GT,37.4658761000,-122.2913797000,140.47541597101645,27.663122,0.1,166.40442,1626728216999,,,,
Fix,GT,37.4656343000,-122.2913113000,140.2424267200031,27.441364,0.1,168.08157,1626728217999,,,,
Fix,GT,37.4653916000,-122.2912522000,139.983457968734,27.503931,0.1,169.80124,1626728218999,,,,
Fix,GT,37.4651459000,-122.2912007000,139.6454764422342,27.870642,0.1,171.17706,1626728219999,,,,
Fix,GT,37.4648953000,-122.2911563000,139.3474442199713,28.31448,0.1,172.69788,1626728220999,,,,
Fix,GT,37.4646398000,-122.2911197000,139.01548087707488,28.78068,0.1,174.23007,1626728221999,,,,
Fix,GT,37.4643796000,-122.2910911000,138.63846968870166,29.238407,0.1,175.622,1626728222999,,,,
Fix,GT,37.4641148000,-122.2910698000,138.22647039899675,29.656984,0.1,176.9085,1626728223999,,,,
Fix,GT,37.4638462000,-122.2910554000,137.86044823855536,29.97462,0.1,177.99811,1626728224999,,,,
Fix,GT,37.4635761000,-122.2910453000,137.46749296817143,29.925243,0.1,178.34537,1626728225999,,,,
Fix,GT,37.4633075000,-122.2910357000,136.9645247091039,29.735193,0.1,178.29434,1626728226999,,,,
Fix,GT,37.4630401000,-122.2910255000,136.4224888836643,29.676325,0.1,178.20103,1626728227999,,,,
Fix,GT,37.4627730000,-122.2910151000,135.84952859128225,29.634327,0.1,178.17574,1626728228999,,,,
Fix,GT,37.4625064000,-122.2910047000,135.37445370541718,29.556139,0.1,178.18439,1626728229999,,,,
Fix,GT,37.4622408000,-122.2909939000,135.06243536934653,29.430292,0.1,178.17471,1626728230999,,,,
Fix,GT,37.4619764000,-122.2909832000,134.80842192953332,29.287144,0.1,178.12628,1626728231999,,,,
Fix,GT,37.4617134000,-122.2909699000,134.5244757845585,29.159758,0.1,177.19966,1626728232999,,,,
Fix,GT,37.4614514000,-122.2909483000,134.06552044640466,29.096813,0.1,175.28006,1626728233999,,,,
Fix,GT,37.4611906000,-122.2909151000,133.48354832235327,29.07742,0.1,173.21138,1626728234999,,,,
Fix,GT,37.4609308000,-122.2908728000,132.88352981608023,29.075603,0.1,172.20728,1626728235999,,,,
Fix,GT,37.4606718000,-122.2908242000,132.29351785377276,29.042128,0.1,170.67921,1626728236999,,,,
Fix,GT,37.4604145000,-122.2907649000,131.7104976244991,28.999287,0.1,168.48883,1626728237999,,,,
Fix,GT,37.4601597000,-122.2906940000,131.1874583929657,28.92156,0.1,166.68143,1626728238999,,,,
Fix,GT,37.4599076000,-122.2906135000,130.55955730608457,28.788776,0.1,164.76877,1626728239999,,,,
Fix,GT,37.4596588000,-122.2905220000,129.97950485254114,28.767082,0.1,162.69907,1626728240999,,,,
Fix,GT,37.4594126000,-122.2904208000,129.40452717508833,28.700516,0.1,161.08246,1626728241999,,,,
Fix,GT,37.4591694000,-122.2903111000,128.89150142747621,28.671442,0.1,159.32602,1626728242999,,,,
Fix,GT,37.4589292000,-122.2901916000,128.33954041422385,28.692915,0.1,157.50536,1626728243999,,,,
Fix,GT,37.4586917000,-122.2900632000,127.76753440297125,28.699978,0.1,155.94522,1626728244999,,,,
Fix,GT,37.4584569000,-122.2899264000,127.14655479764406,28.739746,0.1,154.20174,1626728245999,,,,
Fix,GT,37.4582255000,-122.2897801000,126.57353140699706,28.772692,0.1,152.36374,1626728246999,,,,
Fix,GT,37.4579978000,-122.2896241000,125.99551587805036,28.803476,0.1,150.37096,1626728247999,,,,
Fix,GT,37.4577739000,-122.2894585000,125.45051467210578,28.89648,0.1,148.83163,1626728248999,,,,
Fix,GT,37.4575519000,-122.2892849000,124.97348742117356,29.170475,0.1,147.31204,1626728249999,,,,
Fix,GT,37.4573319000,-122.2891018000,124.55247826766936,29.408981,0.1,145.5207,1626728250999,,,,
Fix,GT,37.4571152000,-122.2889084000,124.31942843485103,29.594742,0.1,143.62381,1626728251999,,,,
Fix,GT,37.4569027000,-122.2887047000,124.11940901128219,29.745773,0.1,141.68825,1626728252999,,,,
Fix,GT,37.4566946000,-122.2884916000,124.0243723683152,29.857557,0.1,139.85286,1626728253999,,,,
Fix,GT,37.4564916000,-122.2882694000,124.02632931375501,29.941925,0.1,137.96692,1626728254999,,,,
Fix,GT,37.4562945000,-122.2880378000,124.21127836119376,29.97294,0.1,135.81862,1626728255999,,,,
Fix,GT,37.4561041000,-122.2877975000,124.47822802935934,29.960653,0.1,133.93317,1626728256999,,,,
Fix,GT,37.4559200000,-122.2875498000,124.85519767809456,29.942911,0.1,132.17665,1626728257999,,,,
Fix,GT,37.4557418000,-122.2872960000,125.2942210484025,29.911272,0.1,130.6776,1626728258999,,,,
Fix,GT,37.4555682000,-122.2870374000,125.62329685390614,29.912657,0.1,129.70941,1626728259999,,,,
Fix,GT,37.4553961000,-122.2867768000,125.89526742420094,29.937967,0.1,129.54181,1626728260999,,,,
Fix,GT,37.4552245000,-122.2865158000,126.30217716093921,29.916086,0.1,129.48149,1626728261999,,,,
Fix,GT,37.4550526000,-122.2862548000,126.87413536438726,30.035883,0.1,129.51102,1626728262999,,,,
Fix,GT,37.4548797000,-122.2859928000,127.57608423015336,30.16688,0.1,129.6883,1626728263999,,,,
Fix,GT,37.4547049000,-122.2857298000,128.22412137083666,30.438885,0.1,129.74898,1626728264999,,,,
Fix,GT,37.4545293000,-122.2854639000,128.87714388637778,30.594187,0.1,129.41873,1626728265999,,,,
Fix,GT,37.4543542000,-122.2851965000,129.5621412196533,30.65484,0.1,129.29095,1626728266999,,,,
Fix,GT,37.4541787000,-122.2849284000,130.2620920905556,30.735964,0.1,129.3893,1626728267999,,,,
Fix,GT,37.4540034000,-122.2846610000,130.90116169404337,30.455667,0.1,129.51465,1626728268999,,,,
Fix,GT,37.4538288000,-122.2843966000,131.54313346561503,30.382013,0.1,129.54724,1626728269999,,,,
Fix,GT,37.4536541000,-122.2841312000,132.22112704625306,30.528067,0.1,129.44997,1626728270999,,,,
Fix,GT,37.4534783000,-122.2838647000,132.9151171618414,30.70539,0.1,129.59683,1626728271999,,,,
Fix,GT,37.4533011000,-122.2835968000,133.61616703488926,30.892494,0.1,129.65083,1626728272999,,,,
Fix,GT,37.4531233000,-122.2833269000,134.26411241227743,31.07672,0.1,129.4368,1626728273999,,,,
Fix,GT,37.4529449000,-122.2830547000,134.85217564262348,31.278236,0.1,129.36348,1626728274999,,,,
Fix,GT,37.4527658000,-122.2827819000,135.41317016626908,31.121239,0.1,129.50604,1626728275999,,,,
Fix,GT,37.4525881000,-122.2825117000,135.9081882644732,30.918812,0.1,129.44066,1626728276999,,,,
Fix,GT,37.4524112000,-122.2822424000,136.3762102826331,30.87652,0.1,129.35411,1626728277999,,,,
Fix,GT,37.4522346000,-122.2819722000,136.75423929584667,30.924017,0.1,129.2473,1626728278999,,,,
Fix,GT,37.4520580000,-122.2817016000,137.10323490431256,30.978123,0.1,129.25307,1626728279999,,,,
Fix,GT,37.4518812000,-122.2814312000,137.3552735469948,30.833445,0.1,129.45056,1626728280999,,,,
Fix,GT,37.4517042000,-122.2811630000,137.57026980357296,30.839478,0.1,129.66887,1626728281999,,,,
Fix,GT,37.4515262000,-122.2808943000,137.74730166522932,30.987877,0.1,129.63992,1626728282999,,,,
Fix,GT,37.4513477000,-122.2806239000,137.86132674488454,31.127138,0.1,129.5239,1626728283999,,,,
Fix,GT,37.4511690000,-122.2803516000,137.9233298595318,31.289207,0.1,129.23268,1626728284999,,,,
Fix,GT,37.4509907000,-122.2800766000,137.9233298486579,31.45276,0.1,129.00383,1626728285999,,,,
Fix,GT,37.4508115000,-122.2797997000,137.83337362585917,31.663095,0.1,129.07253,1626728286999,,,,
Fix,GT,37.4506304000,-122.2795215000,137.71939200838096,31.895935,0.1,129.32591,1626728287999,,,,
Fix,GT,37.4504467000,-122.2792426000,137.5014064698853,32.13362,0.1,129.67393,1626728288999,,,,
Fix,GT,37.4502613000,-122.2789618000,137.27543550483642,32.300076,0.1,129.50427,1626728289999,,,,
Fix,GT,37.4500766000,-122.2786815000,136.9414258697625,32.049232,0.1,129.56618,1626728290999,,,,
Fix,GT,37.4498939000,-122.2784035000,136.5054784976046,31.717348,0.1,129.39839,1626728291999,,,,
Fix,GT,37.4497134000,-122.2781282000,136.0984809684569,31.379335,0.1,129.41147,1626728292999,,,,
Fix,GT,37.4495344000,-122.2778555000,135.58052469605354,31.145142,0.1,129.50688,1626728293999,,,,
Fix,GT,37.4493559000,-122.2775856000,135.07250732570174,30.93586,0.1,129.74052,1626728294999,,,,
Fix,GT,37.4491776000,-122.2773177000,134.4445708115927,30.866177,0.1,129.98883,1626728295999,,,,
Fix,GT,37.4489983000,-122.2770507000,133.7595869550123,30.913094,0.1,130.17085,1626728296999,,,,
Fix,GT,37.4488181000,-122.2767840000,132.9876043916729,30.981474,0.1,130.45155,1626728297999,,,,
Fix,GT,37.4486355000,-122.2765185000,132.13265133958885,31.076864,0.1,130.96286,1626728298999,,,,
Fix,GT,37.4484511000,-122.2762535000,131.22964160204629,31.149137,0.1,131.22205,1626728299999,,,,
Fix,GT,37.4482657000,-122.2759890000,130.35065770799974,31.184214,0.1,131.36104,1626728300999,,,,
Fix,GT,37.4480799000,-122.2757246000,129.45964982162423,31.199076,0.1,131.44887,1626728301999,,,,
Fix,GT,37.4478935000,-122.2754605000,128.55065876071512,31.216135,0.1,131.41101,1626728302999,,,,
Fix,GT,37.4477081000,-122.2751954000,127.65466639428087,31.174006,0.1,131.12926,1626728303999,,,,
Fix,GT,37.4475235000,-122.2749299000,126.74763835228441,31.167507,0.1,130.95512,1626728304999,,,,
Fix,GT,37.4473390000,-122.2746642000,125.85464854753445,31.213278,0.1,131.14046,1626728305999,,,,
Fix,GT,37.4471533000,-122.2743984000,124.95565706682555,31.336033,0.1,131.25452,1626728306999,,,,
Fix,GT,37.4469661000,-122.2741315000,124.09462917700876,31.58579,0.1,131.33781,1626728307999,,,,
Fix,GT,37.4467770000,-122.2738625000,123.33158784865645,31.894823,0.1,131.39465,1626728308999,,,,
Fix,GT,37.4465860000,-122.2735907000,122.65754069578361,32.21918,0.1,131.3169,1626728309999,,,,
Fix,GT,37.4463935000,-122.2733158000,122.12348595400908,32.46349,0.1,131.35622,1626728310999,,,,
Fix,GT,37.4462003000,-122.2730417000,121.81843348111579,32.32018,0.1,131.59479,1626728311999,,,,
Fix,GT,37.4460072000,-122.2727675000,121.57242941603181,32.433537,0.1,131.21971,1626728312999,,,,
Fix,GT,37.4458162000,-122.2724889000,121.41942961569293,32.58373,0.1,130.20828,1626728313999,,,,
Fix,GT,37.4456295000,-122.2722049000,121.29738942774293,32.449703,0.1,128.70073,1626728314999,,,,
Fix,GT,37.4454511000,-122.2719165000,121.23036047820824,32.174503,0.1,126.83603,1626728315999,,,,
Fix,GT,37.4452810000,-122.2716235000,121.23932864529252,31.928967,0.1,125.23861,1626728316999,,,,
Fix,GT,37.4451193000,-122.2713278000,121.32630309971682,31.535957,0.1,123.55864,1626728317999,,,,
Fix,GT,37.4449664000,-122.2710289000,121.50227366767103,31.303997,0.1,121.76357,1626728318999,,,,
Fix,GT,37.4448217000,-122.2707264000,121.82124955406016,31.105116,0.1,120.11275,1626728319999,,,,
Fix,GT,37.4446850000,-122.2704207000,122.12726657195071,30.906868,0.1,118.46582,1626728320999,,,,
Fix,GT,37.4445561000,-122.2701125000,122.49022442031037,30.68834,0.1,116.93194,1626728321999,,,,
Fix,GT,37.4444347000,-122.2698021000,122.8661953053379,30.482065,0.1,115.40553,1626728322999,,,,
Fix,GT,37.4443212000,-122.2694894000,123.15517568420091,30.31234,0.1,113.55863,1626728323999,,,,
Fix,GT,37.4442157000,-122.2691743000,123.47221868552333,30.148775,0.1,112.051674,1626728324999,,,,
Fix,GT,37.4441177000,-122.2688579000,123.90117405837918,29.929033,0.1,110.38579,1626728325999,,,,
Fix,GT,37.4440275000,-122.2685400000,124.2292501116699,29.785135,0.1,108.7996,1626728326999,,,,
Fix,GT,37.4439450000,-122.2682205000,124.57625012645622,29.633265,0.1,107.15165,1626728327999,,,,
Fix,GT,37.4438695000,-122.2679001000,124.91722771032255,29.490404,0.1,105.89199,1626728328999,,,,
Fix,GT,37.4437997000,-122.2675789000,125.25921350585668,29.4293,0.1,104.52954,1626728329999,,,,
Fix,GT,37.4437370000,-122.2672556000,125.61223126358163,29.436008,0.1,102.8368,1626728330999,,,,
Fix,GT,37.4436823000,-122.2669302000,125.94522722644797,29.4175,0.1,101.07471,1626728331999,,,,
Fix,GT,37.4436354000,-122.2666029000,126.27622894281922,29.411316,0.1,99.3765,1626728332999,,,,
Fix,GT,37.4435959000,-122.2662742000,126.57924373321657,29.42309,0.1,97.78423,1626728333999,,,,
Fix,GT,37.4435637000,-122.2659440000,126.86824154866372,29.439278,0.1,96.2723,1626728334999,,,,
Fix,GT,37.4435379000,-122.2656127000,127.09728056951553,29.471872,0.1,94.91366,1626728335999,,,,
Fix,GT,37.4435189000,-122.2652803000,127.27630250918992,29.47176,0.1,93.35772,1626728336999,,,,
Fix,GT,37.4435070000,-122.2649475000,127.42129967025812,29.507015,0.1,91.78034,1626728337999,,,,
Fix,GT,37.4435026000,-122.2646137000,127.50434875488281,29.561275,0.1,90.167564,1626728338999,,,,
Fix,GT,37.4435055000,-122.2642791000,127.50538413161485,29.652178,0.1,88.57802,1626728339999,,,,
Fix,GT,37.4435155000,-122.2639437000,127.45928679792632,29.734901,0.1,87.25407,1626728340999,,,,
Fix,GT,37.4435321000,-122.2636077000,127.43035785991833,29.807537,0.1,85.8358,1626728341999,,,,
Fix,GT,37.4435557000,-122.2632718000,127.39340247488508,29.863106,0.1,83.90063,1626728342999,,,,
Fix,GT,37.4435884000,-122.2629360000,127.14147465628957,29.998007,0.1,82.21732,1626728343999,,,,
Fix,GT,37.4436272000,-122.2625995000,126.81947571358432,30.131409,0.1,81.5861,1626728344999,,,,
Fix,GT,37.4436658000,-122.2622637000,126.4764664055956,29.91258,0.1,82.106606,1626728345999,,,,
Fix,GT,37.4437015000,-122.2619301000,126.1404501517236,29.706171,0.1,82.43431,1626728346999,,,,
Fix,GT,37.4437371000,-122.2615972000,125.88842995285995,29.759872,0.1,82.22148,1626728347999,,,,
Fix,GT,37.4437732000,-122.2612636000,125.70142637977733,29.833641,0.1,82.217445,1626728348999,,,,
Fix,GT,37.4438098000,-122.2609290000,125.51241588570429,29.94107,0.1,82.04671,1626728349999,,,,
Fix,GT,37.4438472000,-122.2605935000,125.33743171658716,30.009506,0.1,81.92505,1626728350999,,,,
Fix,GT,37.4438845000,-122.2602572000,125.09745494842718,30.083216,0.1,82.17832,1626728351999,,,,
Fix,GT,37.4439195000,-122.2599196000,124.76748195178789,30.16165,0.1,82.920074,1626728352999,,,,
Fix,GT,37.4439511000,-122.2595808000,124.34751624072578,30.210304,0.1,83.68076,1626728353999,,,,
Fix,GT,37.4439764000,-122.2592413000,123.87851146190405,30.150782,0.1,85.74862,1626728354999,,,,
Fix,GT,37.4439917000,-122.2589011000,123.37855114344529,30.196407,0.1,87.600266,1626728355999,,,,
Fix,GT,37.4439988000,-122.2585597000,122.80356084074901,30.278,0.1,89.5133,1626728356999,,,,
Fix,GT,37.4439957000,-122.2582171000,122.13861095557695,30.388107,0.1,91.79178,1626728357999,,,,
Fix,GT,37.4439829000,-122.2578736000,121.41262776898566,30.445244,0.1,93.53133,1626728358999,,,,
Fix,GT,37.4439613000,-122.2575315000,120.61063689952516,30.308687,0.1,95.50897,1626728359999,,,,
Fix,GT,37.4439301000,-122.2571923000,119.73568418760351,30.161718,0.1,97.53755,1626728360999,,,,
Fix,GT,37.4438904000,-122.2568558000,118.80169331503203,30.063648,0.1,99.363106,1626728361999,,,,
Fix,GT,37.4438415000,-122.2565222000,117.79473046434396,29.994669,0.1,101.303535,1626728362999,,,,
Fix,GT,37.4437844000,-122.2561907000,116.7017611628944,30.066902,0.1,103.190346,1626728363999,,,,
Fix,GT,37.4437183000,-122.2558608000,115.56577084721357,30.159483,0.1,104.94546,1626728364999,,,,
Fix,GT,37.4436433000,-122.2555327000,114.32579854313371,30.299273,0.1,106.8855,1626728365999,,,,
Fix,GT,37.4435590000,-122.2552063000,113.09178720241289,30.458893,0.1,109.01226,1626728366999,,,,
Fix,GT,37.4434645000,-122.2548820000,111.83880721917922,30.670282,0.1,111.007355,1626728367999,,,,
Fix,GT,37.4433607000,-122.2545596000,110.59081018625602,30.894184,0.1,112.85766,1626728368999,,,,
Fix,GT,37.4432481000,-122.2542390000,109.33980786672873,31.108997,0.1,114.64857,1626728369999,,,,
Fix,GT,37.4431264000,-122.2539212000,108.05982413909078,31.314356,0.1,116.58726,1626728370999,,,,
Fix,GT,37.4429957000,-122.2536066000,106.79180099203495,31.50342,0.1,118.52075,1626728371999,,,,
Fix,GT,37.4428552000,-122.2532964000,105.51779937138872,31.67131,0.1,120.72878,1626728372999,,,,
Fix,GT,37.4427043000,-122.2529919000,104.24981278131054,31.821995,0.1,123.02248,1626728373999,,,,
Fix,GT,37.4425429000,-122.2526937000,102.96982548981578,31.971554,0.1,125.29283,1626728374999,,,,
Fix,GT,37.4423724000,-122.2524025000,101.67979593964264,31.981747,0.1,127.27034,1626728375999,,,,
