     2.11           OBSERVATION DATA    M (MIXED)           RINEX VERSION / TYPE 
CONVBIN 2.4.2                           20240629 131238 UTC PGM / RUN BY / DATE 
log: rtk_base.rtcm3                                         COMMENT             
format: RTCM 3, station ID: 3793                            COMMENT             
HNOI                                                        MARKER NAME         
0001                                                        MARKER NUMBER       
                                                            OBSERVER / AGENCY   
1832414             LEICA GR50          4.20                REC # / TYPE / VERS 
                    GPPNULLANTENNA                          ANT # / TYPE        
 -1619893.6000  5730732.7900  2276112.2500                  APPROX POSITION XYZ 
        0.0000        0.0000        0.0000                  ANTENNA: DELTA H/E/N
     1     1                                                WAVELENGTH FACT L1/2
     6    C1    L1    P1    P2    L2    C2                  # / TYPES OF OBSERV 
  2024     6    29    13     6   20.0000000     GPS         TIME OF FIRST OBS   
  2024     6    29    13    11   12.0000000     GPS         TIME OF LAST OBS    
                                                            END OF HEADER       
 24  6 29 13  6 20.0000000  0 26G10G23G31G32R02R12R13E07E08E13E26E27
                                E30J02J04C01C02C03C04C05C06C08C09C10
                                C13C16
  20139308.529   105832780.393                    20139313.336    82467121.624  
  20139312.907  
  21540263.928   113194851.351                    21540269.271    88203802.362  
  21540269.128  
  21938800.088   115289172.896                    21938806.879    89835746.924  
  21938807.254  
  21847330.936   114808499.126                    21847335.297    89461185.794  
  21847335.493  
  21337873.995   113862983.857                    21337879.606    88560121.657  
  21337879.570  
  19250132.044   102830750.631                    19250136.887    79979492.811  
  19250136.833  
  20400124.574   108935527.747                    20400132.204    84727664.716  
  20400132.258  
  24867441.481   130679287.247                                                  
                
  27873731.694   146477448.979                                                  
                
  27624171.472   145166000.855                                                  
                
  25295420.538   132928333.373                                                  
                
  24397672.444   128210634.250                                                  
                
  25562265.788   134330613.853                                                  
                
  38106949.739   200253372.583                                   156041613.924  
  38106955.922  
  37893732.018   199132905.460                                   155168512.292  
  37893735.449  
                 195255680.558                                   195255680.558  
  37496800.603  
                 189859092.713                                   189859092.713  
  36460442.587  
                 188257011.094                                   188257011.094  
  36152779.700  
                 204440883.404                                   204440883.404  
  39260722.246  
                 200782358.874                                   200782358.874  
  38558141.032  
                 189255799.031                                   189255799.031  
  36344586.364  
                 187612778.314                                   187612778.314  
  36029061.518  
                 192371475.714                                   192371475.714  
  36942919.394  
                 207715622.144                                   207715622.144  
  39889601.317  
                 185510064.879                                   185510064.879  
  35625257.462  
                 192232754.371                                   192232754.371  
  36916279.397  
 24  6 29 13  6 21.0000000  0 26G10G23G31G32R02R12R13E07E08E13E26E27
                                E30J02J04C01C02C03C04C05C06C08C09C10
                                C13C16
  20139331.723   105832902.342                    20139336.548    82467216.650  
  20139336.101  
  21540742.192   113197364.791                    21540747.553    88205760.882  
  21540747.410  
  21938437.115   115287265.543                    21938443.923    89834260.682  
  21938444.280  
  21847219.988   114807916.069                    21847224.330    89460731.463  
  21847224.544  
  21337454.698   113860746.365                    21337460.309    88558381.386  
  21337460.274  
  19250227.590   102831260.908                    19250232.415    79979889.691  
  19250232.361  
  20399562.915   108932528.485                    20399570.545    84725331.959  
  20399570.599  
  24867478.416   130679481.388                                                  
                
  27873927.181   146478476.154                                                  
                
  27624672.966   145168636.187                                                  
                
  25295800.809   132930331.671                                                  
                
  24397355.680   128208969.579                                                  
                
  25562419.497   134331421.530                                                  
                
  38107010.601   200253692.549                                   156041863.251  
  38107016.801  
  37893523.379   199131809.115                                   155167657.998  
  37893526.828  
                 195255716.858                                   195255716.858  
  37496807.572  
                 189859118.275                                   189859118.275  
  36460447.501  
                 188257048.328                                   188257048.328  
  36152786.847  
                 204440916.646                                   204440916.646  
  39260728.661  
                 200782364.003                                   200782364.003  
  38558142.033  
                 189256334.869                                   189256334.869  
  36344689.254  
                 187613350.822                                   187613350.822  
  36029171.466  
                 192371970.957                                   192371970.957  
  36943014.511  
                 207714911.110                                   207714911.110  
  39889464.779  
                 185510391.378                                   185510391.378  
  35625320.182  
                 192233352.613                                   192233352.613  
  36916394.277  
 24  6 29 13  6 22.0000000  0 26G10G23G31G32R02R12R13E07E08E13E26E27
                                E30J02J04C01C02C03C04C05C06C08C09C10
                                C13C16
  20139355.114   105833025.217                    20139359.938    82467312.389  
  20139359.492  
  21541220.635   113199878.979                    21541225.996    88207719.997  
  21541225.853  
  21938074.302   115285358.909                    21938081.093    89832774.999  
  21938081.450  
  21847109.093   114807333.317                    21847113.435    89460277.373  
  21847113.649  
  21337035.438   113858509.177                    21337041.048    88556641.351  
  21337041.031  
  19250323.314   102831772.331                    19250328.157    79980287.465  
  19250328.085  
  20399001.417   108929530.152                    20399009.047    84722999.933  
  20399009.100  
  24867515.423   130679675.807                                                  
                
  27874122.704   146479503.639                                                  
                
  27625174.478   145171271.644                                                  
                
  25296181.169   132932330.464                                                  
                
  24397039.005   128207305.518                                                  
                
  25562573.314   134332229.903                                                  
                
  38107071.570   200254012.876                                   156042112.856  
  38107077.770  
  37893314.812   199130713.058                                   155166803.922  
  37893318.261  
                 195255753.426                                   195255753.426  
  37496814.576  
                 189859144.140                                   189859144.140  
  36460452.450  
                 188257085.829                                   188257085.829  
  36152794.066  
                 204440950.152                                   204440950.152  
  39260735.094  
                 200782369.420                                   200782369.420  
  38558143.069  
                 189256871.004                                   189256871.004  
  36344792.233  
                 187613923.833                                   187613923.833  
  36029281.521  
                 192372466.499                                   192372466.499  
  36943109.646  
                 207714200.232                                   207714200.232  
  39889328.260  
                 185510718.372                                   185510718.372  
  35625382.974  
                 192233951.123                                   192233951.123  
  36916509.211  
 24  6 29 13  6 23.0000000  0 26G10G23G31G32R02R12R13E07E08E13E26E27
                                E30J02J04C01C02C03C04C05C06C08C09C10
                                C13C16
  20139378.594   105833148.672                    20139383.418    82467408.588  
  20139382.989  
  21541699.150   113202393.582                    21541704.511    88209679.420  
  21541704.350  
  21937711.543   115283452.635                    21937718.334    89831289.598  
  21937718.709  
  21846998.180   114806750.527                    21847002.522    89459823.253  
  21847002.736  
  21336616.195   113856271.954                    21336621.805    88554901.293  
  21336621.770  
  19250419.200   102832284.562                    19250424.042    79980685.871  
  19250423.988  
  20398440.043   108926532.393                    20398447.673    84720668.344  
  20398447.709  
  24867552.394   130679870.146                                                  
                
  27874318.227   146480531.107                                                  
                
  27625675.937   145173906.890                                                  
                
  25296561.529   132934329.390                                                  
                
  24396722.401   128205641.747                                                  
                
  25562727.219   134333038.661                                                  
                
  38107132.521   200254333.204                                   156042362.464  
  38107138.722  
  37893106.227   199129616.944                                   155165949.810  
  37893109.676  
                 195255789.942                                   195255789.942  
  37496821.617  
                 189859169.946                                   189859169.946  
  36460457.418  
                 188257123.281                                   188257123.281  
  36152801.250  
                 204440983.583                                   204440983.583  
  39260741.509  
                 200782374.765                                   200782374.765  
  38558144.088  
                 189257407.069                                   189257407.069  
  36344895.177  
                 187614496.975                                   187614496.975  
  36029391.577  
                 192372962.021                                   192372962.021  
  36943204.816  
                 207713489.174                                   207713489.174  
  39889191.723  
                 185511045.531                                   185511045.531  
  35625445.802  
                 192234549.569                                   192234549.569  
  36916624.144  
 24  6 29 13  6 24.0000000  0 26G10G23G31G32R02R12R13E07E08E13E26E27
                                E30J02J04C01C02C03C04C05C06C08C09C10
                                C13C16
  20139402.199   105833272.664                    20139407.023    82467505.205  
  20139406.594  
  21542177.736   113204908.551                    21542183.097    88211639.138  
  21542182.954  
  21937348.838   115281546.676                    21937355.646    89829804.440  
  21937356.003  
  21846887.284   114806167.654                    21846891.609    89459369.069  
  21846891.841  
  21336196.916   113854034.623                    21336202.527    88553161.144  
  21336202.491  
  19250515.246   102832797.581                    19250520.070    79981084.888  
  19250520.017  
  20397878.742   108923535.112                    20397886.372    84718337.125  
  20397886.425  
  24867589.365   130680064.369                                                  
                
  27874513.732   146481558.501                                                  
                
  27626177.359   145176541.893                                                  
                
  25296941.942   132936328.436                                                  
                
  24396405.834   128203978.208                                                  
                
  25562881.179   134333847.750                                                  
                
  38107193.472   200254653.513                                   156042612.059  
  38107199.691  
  37892897.624   199128520.734                                   155165095.618  
  37892901.073  
                 195255826.359                                   195255826.359  
  37496828.604  
                 189859195.651                                   189859195.651  
  36460462.350  
                 188257160.646                                   188257160.646  
  36152808.451  
                 204441016.926                                   204441016.926  
  39260747.888  
                 200782380.060                                   200782380.060  
  38558145.124  
                 189257943.047                                   189257943.047  
  36344998.102  
                 187615070.234                                   187615070.234  
  36029501.668  
                 192373457.491                                   192373457.491  
  36943299.986  
                 207712777.913                                   207712777.913  
  39889055.114  
                 185511372.777                                   185511372.777  
  35625508.629  
                 192235147.924                                   192235147.924  
  36916739.024  
 24  6 29 13  6 25.0000000  0 26G10G23G31G32R02R12R13E07E08E13E26E27
                                E30J02J04C01C02C03C04C05C06C08C09C10
                                C13C16
  20139425.911   105833397.240                    20139430.718    82467602.275  
  20139430.307  
  21542656.393   113207423.957                    21542661.754    88213599.195  
  21542661.611  
  21936986.222   115279641.112                    21936993.012    89828319.592  
  21936993.369  
  21846776.353   114805584.785                    21846780.678    89458914.885  
  21846780.910  
  21335777.637   113851797.235                    21335783.248    88551420.958  
  21335783.212  
  19250611.434   102833311.429                    19250616.277    79981484.548  
  19250616.205  
  20397317.565   108920538.418                    20397325.177    84716006.368  
  20397325.213  
  24867626.318   130680258.544                                                  
                
  27874709.237   146482585.904                                                  
                
  27626678.746   145179176.702                                                  
                
  25297322.392   132938327.643                                                  
                
  24396089.338   128202314.975                                                  
                
  25563035.228   134334657.223                                                  
                
  38107254.424   200254973.829                                   156042861.660  
  38107260.642  
  37892689.021   199127424.486                                   155164241.399  
  37892692.470  
                 195255862.750                                   195255862.750  
  37496835.573  
                 189859221.318                                   189859221.318  
  36460467.282  
                 188257197.953                                   188257197.953  
  36152815.599  
                 204441050.258                                   204441050.258  
  39260754.303  
                 200782385.276                                   200782385.276  
  38558146.089  
                 189258478.985                                   189258478.985  
  36345101.028  
                 187615643.649                                   187615643.649  
  36029611.794  
                 192373952.958                                   192373952.958  
  36943395.139  
                 207712066.480                                   207712066.480  
  39888918.488  
                 185511700.178                                   185511700.178  
  35625571.510  
                 192235746.236                                   192235746.236  
  36916853.958  
 24  6 29 13  6 26.0000000  0 26G10G23G31G32R02R12R13E07E08E13E26E27
                                E30J02J04C01C02C03C04C05C06C08C09C10
                                C13C16
  20139449.748   105833522.456                    20139454.573    82467699.846  
  20139454.126  
  21543135.158   113209939.844                    21543140.519    88215559.627  
  21543140.376  
  21936623.695   115277735.974                    21936630.467    89826835.078  
  21936630.825  
  21846665.440   114805001.927                    21846669.783    89458460.712  
  21846669.997  
  21335358.340   113849559.845                    21335363.951    88549680.770  
  21335363.916  
  19250707.802   102833826.154                    19250712.627    79981884.894  
  19250712.555  
  20396756.478   108917542.335                    20396764.125    84713676.081  
  20396764.161  
  24867663.253   130680452.711                                                  
                
  27874904.760   146483613.355                                                  
                
  27627180.097   145181811.352                                                  
                
  25297702.859   132940327.077                                                  
                
  24395772.895   128200652.093                                                  
                
  25563189.330   134335467.143                                                  
                
  38107315.393   200255294.221                                   156043111.314  
  38107321.593  
  37892480.418   199126328.252                                   155163387.193  
  37892483.849  
                 195255899.141                                   195255899.141  
  37496842.542  
                 189859246.999                                   189859246.999  
  36460472.196  
                 188257235.277                                   188257235.277  
  36152822.764  
                 204441083.581                                   204441083.581  
  39260760.718  
                 200782390.542                                   200782390.542  
  38558147.108  
                 189259014.933                                   189259014.933  
  36345203.935  
                 187616217.315                                   187616217.315  
  36029721.957  
                 192374448.460                                   192374448.460  
  36943490.274  
                 207711354.972                                   207711354.972  
  39888781.861  
                 185512027.805                                   185512027.805  
  35625634.427  
                 192236344.553                                   192236344.553  
  36916968.838  
 24  6 29 13  6 27.0000000  0 26G10G23G31G32R02R12R13E07E08E13E26E27
                                E30J02J04C01C02C03C04C05C06C08C09C10
                                C13C16
  20139473.675   105833648.215                    20139478.499    82467797.840  
  20139478.053  
  21543613.976   113212456.078                    21543619.355    88217520.331  
  21543619.194  
  21936261.204   115275831.148                    21936267.976    89825350.807  
  21936268.334  
  21846554.510   114804418.990                    21846558.834    89458006.483  
  21846559.048  
  21334939.044   113847322.353                    21334944.655    88547940.501  
  21334944.619  
  19250804.295   102834341.648                    19250809.137    79982285.839  
  19250809.048  
  20396195.497   108914546.778                    20396203.145    84711346.198  
  20396203.181  
  24867700.189   130680646.745                                                  
                
  27875100.283   146484640.720                                                  
                
  27627681.395   145184445.739                                                  
                
  25298083.362   132942326.586                                                  
                
  24395456.506   128198989.426                                                  
                
  25563343.522   134336277.391                                                  
                
  38107376.362   200255614.566                                   156043360.935  
  38107382.562  
  37892271.797   199125231.889                                   155162532.884  
  37892275.210  
                 195255935.429                                   195255935.429  
  37496849.528  
                 189859272.570                                   189859272.570  
  36460477.110  
                 188257272.482                                   188257272.482  
  36152829.894  
                 204441116.764                                   204441116.764  
  39260767.061  
                 200782395.692                                   200782395.692  
  38558148.108  
                 189259550.783                                   189259550.783  
  36345306.843  
                 187616791.056                                   187616791.056  
  36029832.155  
                 192374943.871                                   192374943.871  
  36943585.408  
                 207710643.199                                   207710643.199  
  39888645.181  
                 185512355.505                                   185512355.505  
  35625697.362  
                 192236942.743                                   192236942.743  
  36917083.735  
 24  6 29 13  6 28.0000000  0 26G10G23G31G32R02R12R13E07E08E13E26E27
                                E30J02J04C01C02C03C04C05C06C08C09C10
                                C13C16
  20139497.744   105833774.628                    20139502.551    82467896.341  
  20139502.122  
  21544092.902   113214972.817                    21544098.281    88219481.426  
  21544098.120  
  21935898.802   115273926.785                    21935905.593    89823866.892  
  21935905.950  
  21846443.579   114803836.103                    21846447.921    89457552.289  
  21846448.135  
  21334519.729   113845084.924                    21334525.358    88546200.281  
  21334525.322  
  19250900.966   102834858.050                    19250905.791    79982687.484  
  19250905.719  
  20395634.660   108911551.855                    20395642.290    84709016.819  
  20395642.326  
  24867737.124   130680840.809                                                  
                
  27875295.788   146485668.146                                                  
                
  27628182.693   145187080.014                                                  
                
  25298463.883   132944326.328                                                  
                
  24395140.171   128197327.128                                                  
                
  25563497.785   134337088.079                                                  
                
  38107437.313   200255934.984                                   156043610.616  
  38107443.531  
  37892063.159   199124135.562                                   155161678.603  
  37892066.589  
                 195255971.742                                   195255971.742  
  37496856.515  
                 189859298.164                                   189859298.164  
  36460482.042  
                 188257309.734                                   188257309.734  
  36152837.059  
                 204441150.018                                   204441150.018  
  39260773.459  
                 200782400.845                                   200782400.845  
  38558149.091  
                 189260086.665                                   189260086.665  
  36345409.751  
                 187617365.012                                   187617365.012  
  36029942.354  
                 192375439.356                                   192375439.356  
  36943680.579  
                 207709931.335                                   207709931.335  
  39888508.447  
                 185512683.452                                   185512683.452  
  35625760.332  
                 192237540.939                                   192237540.939  
  36917198.580  
 24  6 29 13  6 29.0000000  0 26G10G23G31G32R02R12R13E07E08E13E26E27
                                E30J02J04C01C02C03C04C05C06C08C09C10
                                C13C16
  20139521.903   105833901.642                    20139526.728    82467995.311  
  20139526.281  
  21544571.917   113217489.989                    21544577.278    88221442.859  
  21544577.117  
  21935536.490   115272022.818                    21935543.262    89822383.286  
  21935543.620  
  21846332.666   114803253.216                    21846336.990    89457098.092  
  21846337.204  
  21334100.451   113842847.527                    21334106.061    88544460.086  
  21334106.044  
  19250997.781   102835375.271                    19251002.623    79983089.770  
  19251002.552  
  20395073.930   108908557.562                    20395081.543    84706687.924  
  20395081.578  
  24867774.041   130681034.811                                                  
                
  27875491.311   146486695.582                                                  
                
  27628683.919   145189714.066                                                  
                
  25298844.439   132946326.254                                                  
                
  24394823.907   128195665.133                                                  
                
  25563652.138   134337899.193                                                  
                
  38107498.300   200256255.446                                   156043860.332  
  38107504.518  
  37891854.538   199123039.202                                   155160824.297  
  37891857.951  
                 195256008.025                                   195256008.025  
  37496863.466  
                 189859323.744                                   189859323.744  
  36460486.938  
                 188257346.950                                   188257346.950  
  36152844.225  
                 204441183.227                                   204441183.227  
  39260779.838  
                 200782405.997                                   200782405.997  
  38558150.092  
                 189260622.518                                   189260622.518  
  36345512.658  
                 187617939.172                                   187617939.172  
  36030052.623  
                 192375934.843                                   192375934.843  
  36943775.713  
                 207709219.341                                   207709219.341  
  39888371.713  
                 185513011.562                                   185513011.562  
  35625823.338  
                 192238139.108                                   192238139.108  
  36917313.442  
 24  6 29 13  6 30.0000000  0 26G10G23G31G32R02R12R13E07E08E13E26E27
                                E30J02J04C01C02C03C04C05C06C08C09C10
                                C13C16
  20139546.169   105834029.177                    20139550.994    82468094.691  
  20139550.565  
  21545050.985   113220007.535                    21545056.346    88223404.583  
  21545056.203  
  21935174.214   115270119.162                    21935181.022    89820899.920  
  21935181.379  
  21846221.717   114802670.244                    21846226.059    89456643.832  
  21846226.273  
  21333681.136   113840610.029                    21333686.765    88542719.812  
  21333686.711  
  19251094.756   102835893.263                    19251099.598    79983492.659  
  19251099.509  
  20394513.272   108905563.760                    20394520.902    84704359.412  
  20394520.956  
  24867810.923   130681228.699                                                  
                
  27875686.816   146487722.944                                                  
                
  27629185.127   145192347.888                                                  
                
  25299225.050   132948326.275                                                  
                
  24394507.679   128194003.364                                                  
                
  25563806.544   134338710.618                                                  
                
  38107559.269   200256575.859                                   156044110.004  
  38107565.470  
  37891645.881   199121942.731                                   155159969.901  
  37891649.312  
                 195256044.195                                   195256044.195  
  37496870.417  
                 189859349.222                                   189859349.222  
  36460491.834  
                 188257384.068                                   188257384.068  
  36152851.319  
                 204441216.324                                   204441216.324  
  39260786.181  
                 200782411.036                                   200782411.036  
  38558151.039  
                 189261158.275                                   189261158.275  
  36345615.548  
                 187618513.437                                   187618513.437  
  36030162.893  
                 192376430.260                                   192376430.260  
  36943870.848  
                 207708507.086                                   207708507.086  
  39888234.926  
                 185513339.763                                   185513339.763  
  35625886.362  
                 192238737.173                                   192238737.173  
  36917428.322  
 24  6 29 13  6 31.0000000  0 26G10G23G31G32R02R12R13E07E08E13E26E27
                                E30J02J04C01C02C03C04C05C06C08C09C10
                                C13C16
  20139570.561   105834157.259                    20139575.367    82468194.493  
  20139574.938  
  21545530.125   113222525.447                    21545535.486    88225366.590  
  21545535.343  
  21934812.026   115268215.846                    21934818.834    89819416.819  
  21934819.192  
  21846110.768   114802087.207                    21846115.092    89456189.520  
  21846115.307  
  21333261.822   113838372.415                    21333267.415    88540979.448  
  21333267.379  
  19251191.856   102836412.065                    19251196.699    79983896.177  
  19251196.645  
  20393952.756   108902570.528                    20393960.369    84702031.347  
  20393960.404  
  24867847.805   130681422.481                                                  
                
  27875882.285   146488750.250                                                  
                
  27629686.281   145194981.462                                                  
                
  25299605.660   132950326.398                                                  
                
  24394191.487   128192341.856                                                  
                
  25563961.022   134339522.366                                                  
                
  38107620.238   200256896.245                                   156044359.658  
  38107626.457  
  37891437.207   199120846.166                                   155159115.435  
  37891440.655  
                 195256080.289                                   195256080.289  
  37496877.350  
                 189859374.627                                   189859374.627  
  36460496.730  
                 188257421.090                                   188257421.090  
  36152858.431  
                 204441249.347                                   204441249.347  
  39260792.543  
                 200782415.991                                   200782415.991  
  38558152.004  
                 189261693.919                                   189261693.919  
  36345718.402  
                 187619087.809                                   187619087.809  
  36030273.216  
                 192376925.628                                   192376925.628  
  36943965.983  
                 207707794.623                                   207707794.623  
  39888098.121  
                 185513668.047                                   185513668.047  
  35625949.404  
                 192239335.141                                   192239335.141  
  36917543.148  
 24  6 29 13  6 32.0000000  0 26G10G23G31G32R02R12R13E07E08E13E26E27
                                E30J02J04C01C02C03C04C05C06C08C09C10
                                C13C16
  20139595.077   105834286.126                    20139599.901    82468294.908  
  20139599.455  
  21546009.373   113225043.979                    21546014.733    88227329.085  
  21546014.590  
  21934449.946   115266313.085                    21934456.754    89817934.151  
  21934457.112  
  21845999.855   114801504.326                    21846004.179    89455735.334  
  21846004.394  
  21332842.525   113836134.941                    21332848.118    88539239.195  
  21332848.082  
  19251289.171   102836931.873                    19251294.013    79984300.472  
  19251293.942  
  20393392.330   108899578.030                    20393399.978    84699703.851  
  20393400.014  
  24867884.704   130681616.393                                                  
                
  27876077.825   146489777.736                                                  
                
  27630187.418   145197615.009                                                  
                
  25299986.324   132952326.882                                                  
                
  24393875.401   128190680.820                                                  
                
  25564115.589   134340334.712                                                  
                
  38107681.243   200257216.833                                   156044609.469  
  38107687.444  
  37891228.586   199119749.753                                   155158261.087  
  37891231.999  
                 195256116.537                                   195256116.537  
  37496884.319  
                 189859400.146                                   189859400.146  
  36460501.626  
                 188257458.260                                   188257458.260  
  36152865.560  
                 204441282.516                                   204441282.516  
  39260798.904  
                 200782421.088                                   200782421.088  
  38558152.986  
                 189262229.748                                   189262229.748  
  36345821.292  
                 187619662.527                                   187619662.527  
  36030383.593  
                 192377421.182                                   192377421.182  
  36944061.171  
                 207707082.193                                   207707082.193  
  39887961.315  
                 185513996.683                                   185513996.683  
  35626012.518  
                 192239933.241                                   192239933.241  
  36917657.992  
 24  6 29 13  6 33.0000000  0 26G10G23G31G32R02R12R13E07E08E13E26E27
                                E30J02J04C01C02C03C04C05C06C08C09C10
                                C13C16
  20139619.718   105834415.693                    20139624.543    82468395.868  
  20139624.096  
  21546488.745   113227563.032                    21546494.106    88229291.984  
  21546493.963  
  21934087.956   115264410.820                    21934094.764    89816451.866  
  21934095.121  
  21845888.942   114800921.538                    21845893.266    89455281.214  
  21845893.499  
  21332423.210   113833897.545                    21332428.839    88537498.998  
  21332428.803  
  19251386.664   102837452.605                    19251391.489    79984705.491  
  19251391.435  
  20392832.083   108896586.250                    20392839.695    84697376.915  
  20392839.731  
  24867921.622   130681810.351                                                  
                
  27876273.384   146490805.318                                                  
                
  27630688.537   145200248.462                                                  
                
  25300367.041   132954327.624                                                  
                
  24393559.388   128189020.186                                                  
                
  25564270.263   134341147.537                                                  
                
  38107742.266   200257537.545                                   156044859.379  
  38107748.466  
  37891019.929   199118653.393                                   155157406.776  
  37891023.378  
                 195256152.832                                   195256152.832  
  37496891.270  
                 189859425.752                                   189859425.752  
  36460506.540  
                 188257495.488                                   188257495.488  
  36152872.726  
                 204441315.723                                   204441315.723  
  39260805.283  
                 200782426.221                                   200782426.221  
  38558153.951  
                 189262765.621                                   189262765.621  
  36345924.200  
                 187620237.530                                   187620237.530  
  36030494.006  
                 192377916.800                                   192377916.800  
  36944156.342  
                 207706369.661                                   207706369.661  
  39887824.457  
                 185514325.590                                   185514325.590  
  35626075.685  
                 192240531.396                                   192240531.396  
  36917772.890  
 24  6 29 13  6 34.0000000  0 26G10G23G31G32R02R12R13E07E08E13E26E27
                                E30J02J04C01C02C03C04C05C06C08C09C10
                                C13C16
  20139644.574   105834546.221                    20139649.381    82468497.577  
  20139648.952  
  21546968.260   113230082.893                    21546973.621    88231255.514  
  21546973.460  
  21933726.108   115262509.301                    21933732.898    89814970.170  
  21933733.273  
  21845778.118   114800339.103                    21845782.443    89454827.366  
  21845782.657  
  21332004.003   113831660.497                    21332009.596    88535759.076  
  21332009.560  
  19251484.354   102837974.537                    19251489.197    79985111.438  
  19251489.143  
  20392271.978   108893595.395                    20392279.590    84695050.701  
  20392279.644  
  24867958.575   130682004.629                                                  
                
  27876468.996   146491833.261                                                  
                
  27631189.674   145202882.089                                                  
                
  25300747.901   132956328.903                                                  
                
  24393243.499   128187360.216                                                  
                
  25564425.098   134341961.148                                                  
                
  38107803.360   200257858.656                                   156045109.604  
  38107809.561  
  37890811.380   199117557.362                                   155156552.726  
  37890814.811  
                 195256189.467                                   195256189.467  
  37496898.311  
                 189859451.683                                   189859451.683  
  36460511.508  
                 188257533.065                                   188257533.065  
  36152879.945  
                 204441349.290                                   204441349.290  
  39260811.734  
                 200782431.763                                   200782431.763  
  38558155.041  
                 189263301.829                                   189263301.829  
  36346027.161  
                 187620813.048                                   187620813.048  
  36030604.526  
                 192378412.799                                   192378412.799  
  36944251.583  
                 207705657.379                                   207705657.379  
  39887687.651  
                 185514655.032                                   185514655.032  
  35626138.923  
                 192241129.867                                   192241129.867  
  36917887.788  
 24  6 29 13  6 35.0000000  0 26G10G23G31G32R02R12R13E07E08E13E26E27
                                E30J02J04C01C02C03C04C05C06C08C09C10
                                C13C16
  20139669.519   105834677.320                    20139674.326    82468599.735  
  20139673.897  
  21547447.847   113232603.159                    21547453.208    88233219.355  
  21547453.065  
  21933364.332   115260608.157                    21933371.122    89813488.766  
  21933371.479  
  21845667.277   114799756.633                    21845671.583    89454373.495  
  21845671.816  
  21331584.760   113829423.384                    21331590.353    88534019.104  
  21331590.335  
  19251582.223   102838497.280                    19251587.047    79985518.016  
  19251586.994  
  20391711.999   108890605.127                    20391719.629    84692724.940  
  20391719.665  
  24867995.546   130682198.828                                                  
                
  27876664.591   146492861.192                                                  
                
  27631690.811   145205515.519                                                  
                
  25301128.744   132958330.317                                                  
                
  24392927.682   128185700.527                                                  
                
  25564579.987   134342775.114                                                  
                
  38107864.490   200258179.770                                   156045359.825  
  38107870.673  
  37890602.813   199116461.284                                   155155698.644  
  37890606.226  
                 195256226.038                                   195256226.038  
  37496905.333  
                 189859477.553                                   189859477.553  
  36460516.475  
                 188257570.555                                   188257570.555  
  36152887.146  
                 204441382.799                                   204441382.799  
  39260818.167  
                 200782437.189                                   200782437.189  
  38558156.078  
                 189263837.984                                   189263837.984  
  36346130.123  
                 187621388.711                                   187621388.711  
  36030715.064  
                 192378908.760                                   192378908.760  
  36944346.843  
                 207704944.911                                   207704944.911  
  39887550.828  
                 185514984.622                                   185514984.622  
  35626202.233  
                 192241728.278                                   192241728.278  
  36918002.721  
 24  6 29 13  6 36.0000000  0 26G10G23G31G32R02R12R13E07E08E13E26E27
                                E30J02J04C01C02C03C04C05C06C08C09C10
                                C13C16
  20139694.554   105834808.912                    20139699.378    82468702.270  
  20139698.932  
  21547927.505   113235123.768                    21547932.866    88235183.466  
  21547932.723  
  21933002.591   115258707.300                    21933009.399    89812007.586  
  21933009.757  
  21845556.417   114799174.054                    21845560.742    89453919.542  
  21845560.956  
  21331165.499   113827186.148                    21331171.092    88532279.034  
  21331171.074  
  19251680.216   102839020.778                    19251685.059    79985925.183  
  19251685.005  
  20391152.109   108887615.312                    20391159.721    84690399.533  
  20391159.757  
  24868032.481   130682392.877                                                  
                
  27876860.203   146493889.018                                                  
                
  27632191.894   145208148.646                                                  
                
  25301509.604   132960331.816                                                  
                
  24392611.883   128184041.041                                                  
                
  25564734.929   134343589.379                                                  
                
  38107925.566   200258500.801                                   156045609.984  
  38107931.767  
  37890394.192   199115365.050                                   155154844.434  
  37890397.623  
                 195256262.469                                   195256262.469  
  37496912.320  
                 189859503.302                                   189859503.302  
  36460521.425  
                 188257607.926                                   188257607.926  
  36152894.330  
                 204441416.146                                   204441416.146  
  39260824.564  
                 200782442.484                                   200782442.484  
  38558157.061  
                 189264374.009                                   189264374.009  
  36346233.066  
                 187621964.444                                   187621964.444  
  36030825.637  
                 192379404.620                                   192379404.620  
  36944442.049  
                 207704232.170                                   207704232.170  
  39887413.952  
                 185515314.262                                   185515314.262  
  35626265.543  
                 192242326.549                                   192242326.549  
  36918117.601  
 24  6 29 13  6 37.0000000  0 26G10G23G31G32R02R12R13E07E08E13E26E27
                                E30J02J04C01C02C03C04C05C06C08C09C10
                                C13C16
  20139719.731   105834941.180                    20139724.538    82468805.333  
  20139724.127  
  21548407.253   113237644.870                    21548412.631    88237147.963  
  21548412.470  
  21932640.976   115256806.904                    21932647.748    89810526.760  
  21932648.106  
  21845445.576   114798591.533                    21845449.882    89453465.626  
  21845450.115  
  21330746.238   113824948.945                    21330751.849    88530538.992  
  21330751.814  
  19251778.389   102839545.191                    19251783.231    79986333.058  
  19251783.160  
  20390592.326   108884626.207                    20390599.938    84688074.674  
  20390599.992  
  24868069.398   130682586.932                                                  
                
  27877055.797   146494916.909                                                  
                
  27632692.905   145210781.642                                                  
                
  25301890.500   132962333.541                                                  
                
  24392296.155   128182381.918                                                  
                
  25564889.979   134344404.117                                                  
                
  38107986.660   200258821.933                                   156045860.219  
  38107992.861  
  37890185.589   199114268.858                                   155153990.258  
  37890189.038  
                 195256298.942                                   195256298.942  
  37496919.325  
                 189859529.097                                   189859529.097  
  36460526.392  
                 188257645.337                                   188257645.337  
  36152901.495  
                 204441449.544                                   204441449.544  
  39260830.961  
                 200782447.828                                   200782447.828  
  38558158.097  
                 189264910.080                                   189264910.080  
  36346336.027  
                 187622540.407                                   187622540.407  
  36030936.229  
                 192379900.561                                   192379900.561  
  36944537.291  
                 207703519.350                                   207703519.350  
  39887277.075  
                 185515644.148                                   185515644.148  
  35626328.906  
                 192242924.849                                   192242924.849  
  36918232.499  
 24  6 29 13  6 38.0000000  0 26G10G23G31G32R02R12R13E07E08E13E26E27
                                E30J02J04C01C02C03C04C05C06C08C09C10
                                C13C16
  20139745.034   105835074.063                    20139749.823    82468908.879  
  20139749.412  
  21548887.089   113240166.424                    21548892.450    88239112.810  
  21548892.307  
  21932279.414   115254906.911                    21932286.186    89809046.252  
  21932286.544  
  21845334.716   114798009.010                    21845339.041    89453011.711  
  21845339.255  
  21330326.995   113822711.731                    21330332.588    88528798.943  
  21330332.553  
  19251876.722   102840070.431                    19251881.547    79986741.577  
  19251881.475  
  20390032.668   108881637.684                    20390040.298    84685750.269  
  20390040.334  
  24868106.316   130682780.978                                                  
                
  27877251.409   146495944.822                                                  
                
  27633193.917   145213414.467                                                  
                
  25302271.468   132964335.463                                                  
                
  24391980.499   128180723.115                                                  
                
  25565045.082   134345219.254                                                  
                
  38108047.790   200259143.093                                   156046110.481  
  38108053.991  
  37889976.986   199113172.642                                   155153136.066  
  37889980.435  
                 195256335.391                                   195256335.391  
  37496926.311  
                 189859554.865                                   189859554.865  
  36460531.324  
                 188257682.743                                   188257682.743  
  36152908.696  
                 204441482.891                                   204441482.891  
  39260837.358  
                 200782453.173                                   200782453.173  
  38558159.115  
                 189265446.122                                   189265446.122  
  36346438.953  
                 187623116.579                                   187623116.579  
  36031046.891  
                 192380396.507                                   192380396.507  
  36944632.533  
                 207702806.399                                   207702806.399  
  39887140.180  
                 185515974.207                                   185515974.207  
  35626392.270  
                 192243523.123                                   192243523.123  
  36918347.415  
 24  6 29 13  6 39.0000000  0 26G10G23G31G32R02R12R13E07E08E13E26E27
                                E30J02J04C01C02C03C04C05C06C08C09C10
                                C13C16
  20139770.408   105835207.528                    20139775.232    82469012.877  
  20139774.786  
  21549366.998   113242688.400                    21549372.358    88241077.985  
  21549372.233  
  21931917.924   115253007.295                    21931924.696    89807566.037  
  21931925.071  
  21845223.875   114797426.481                    21845228.163    89452557.797  
  21845228.396  
  21329907.734   113820474.504                    21329913.327    88527058.878  
  21329913.292  
  19251975.198   102840596.488                    19251980.041    79987150.735  
  19251979.951  
  20389473.117   108878649.718                    20389480.730    84683426.298  
  20389480.765  
  24868143.233   130682974.951                                                  
                
  27877447.004   146496972.701                                                  
                
  27633694.893   145216047.107                                                  
                
  25302652.435   132966337.529                                                  
                
  24391664.896   128179064.612                                                  
                
  25565200.274   134346034.787                                                  
                
  38108108.902   200259464.304                                   156046360.775  
  38108115.103  
  37889768.383   199112076.384                                   155152281.837  
  37889771.796  
                 195256371.805                                   195256371.805  
  37496933.298  
                 189859580.558                                   189859580.558  
  36460536.256  
                 188257720.090                                   188257720.090  
  36152915.862  
                 204441516.246                                   204441516.246  
  39260843.773  
                 200782458.471                                   200782458.471  
  38558160.152  
                 189265982.129                                   189265982.129  
  36346541.896  
                 187623692.896                                   187623692.896  
  36031157.572  
                 192380892.436                                   192380892.436  
  36944727.757  
                 207702093.219                                   207702093.219  
  39887003.178  
                 185516304.399                                   185516304.399  
  35626455.687  
                 192244121.345                                   192244121.345  
  36918462.277  
 24  6 29 13  6 40.0000000  0 26G10G23G31G32R02R12R13E07E08E13E26E27
                                E30J02J04C01C02C03C04C05C06C08C09C10
                                C13C16
  20139795.925   105835341.559                    20139800.731    82469117.315  
  20139800.303  
  21549847.013   113245210.764                    21549852.374    88243043.461  
  21549852.213  
  21931556.505   115251108.024                    21931563.295    89806086.085  
  21931563.652  
  21845112.998   114796843.882                    21845117.322    89452103.821  
  21845117.536  
  21329488.456   113818237.215                    21329494.049    88525318.767  
  21329494.031  
  19252073.835   102841123.338                    19252078.642    79987560.510  
  19252078.588  
  20388913.674   108875662.319                    20388921.304    84681102.762  
  20388921.340  
  24868180.115   130683168.833                                                  
                
  27877642.634   146498000.568                                                  
                
  27634195.815   145218679.486                                                  
                
  25303033.439   132968339.723                                                  
                
  24391349.329   128177406.355                                                  
                
  25565355.538   134346850.658                                                  
                
  38108170.014   200259785.470                                   156046611.039  
  38108176.197  
  37889559.762   199110980.057                                   155151427.556  
  37889563.175  
                 195256408.152                                   195256408.152  
  37496940.285  
                 189859606.228                                   189859606.228  
  36460541.188  
                 188257757.350                                   188257757.350  
  36152923.009  
                 204441549.511                                   204441549.511  
  39260850.152  
                 200782463.661                                   200782463.661  
  38558161.117  
                 189266518.063                                   189266518.063  
  36346644.822  
                 187624269.397                                   187624269.397  
  36031268.271  
                 192381388.328                                   192381388.328  
  36944822.999  
                 207701379.911                                   207701379.911  
  39886866.212  
                 185516634.745                                   185516634.745  
  35626519.140  
                 192244719.479                                   192244719.479  
  36918577.139  
 24  6 29 13  6 41.0000000  0 26G10G23G31G32R02R12R13E07E08E13E26E27
                                E30J02J04C01C02C03C04C05C06C08C09C10
                                C13C16
  20139821.549   105835476.224                    20139826.356    82469222.246  
  20139825.945  
  21550327.065   113247733.586                    21550332.425    88245009.293  
  21550332.282  
  21931195.157   115249209.171                    21931201.948    89804606.465  
  21931202.305  
  21845002.156   114796261.300                    21845006.445    89451649.864  
  21845006.677  
  21329069.195   113815999.932                    21329074.788    88523578.662  
  21329074.752  
  19252172.615   102841651.069                    19252177.440    79987970.967  
  19252177.386  
  20388354.338   108872675.489                    20388361.968    84678779.677  
  20388362.004  
  24868217.014   130683362.692                                                  
                
  27877838.210   146499028.435                                                  
                
  27634696.702   145221311.716                                                  
                
  25303414.496   132970342.118                                                  
                
  24391033.851   128175748.439                                                  
                
  25565510.856   134347666.968                                                  
                
