MessageType,Provider,LatitudeDegrees,LongitudeDegrees,AltitudeMeters,SpeedMps,AccuracyMeters,BearingDegrees,UnixTimeMillis,SpeedAccuracyMps,BearingAccuracyDegrees,elapsedRealtimeNanos,VerticalAccuracyMeters
Fix,GT,37.6922077000,-122.0883989000,21.07734998830108,0.001,0.1,288.26688,1694115208448,,,,
Fix,GT,37.6922077000,-122.0883989000,21.077350616455078,0.0010899621,0.1,288.26736,1694115209448,,,,
Fix,GT,37.6922077000,-122.0883989000,21.077350616455078,0.0022700652,0.1,288.2682,1694115210448,,,,
Fix,GT,37.6922077000,-122.0883989000,21.07734998830108,0.0026276244,0.1,288.26733,1694115211448,,,,
Fix,GT,37.6922077000,-122.0883989000,21.077350616455078,0.0005125543,0.1,288.26718,1694115212448,,,,
Fix,GT,37.6922077000,-122.0883990000,21.077350616455078,0.001212307,0.1,288.2677,1694115213448,,,,
Fix,GT,37.6922077000,-122.0883990000,21.077350616455078,0.0015414386,0.1,288.26736,1694115214448,,,,
Fix,GT,37.6922077000,-122.0883990000,21.078349438954888,0.0,0.1,288.26578,1694115215448,,,,
Fix,GT,37.6922077000,-122.0883990000,21.078350067138672,0.0014142136,0.1,288.26584,1694115216448,,,,
Fix,GT,37.6922076000,-122.0883985000,21.08083805368551,0.12971762,0.1,288.2738,1694115217448,,,,
Fix,GT,37.6922070000,-122.0883958000,21.09083667649554,0.38594192,0.1,288.43427,1694115218448,,,,
Fix,GT,37.6922060000,-122.0883895000,21.108324681142676,0.69286597,0.1,290.67453,1694115219448,,,,
Fix,GT,37.6922057000,-122.0883791000,21.131325398186505,0.918916,0.1,300.35657,1694115220448,,,,
Fix,GT,37.6922036000,-122.0883668000,21.151837829463318,0.77693856,0.1,312.48785,1694115221448,,,,
Fix,GT,37.6922025000,-122.0883637000,21.161375345265697,0.026469503,0.1,315.67615,1694115222448,,,,
Fix,GT,37.6922026000,-122.0883636000,21.156862432661114,0.012915282,0.1,315.83685,1694115223448,,,,
Fix,GT,37.6922053000,-122.0883667000,21.140375436937575,0.9450749,0.1,316.5148,1694115224448,,,,
Fix,GT,37.6922169000,-122.0883775000,21.09542559845886,2.3108482,0.1,320.51163,1694115225448,,,,
Fix,GT,37.6922399000,-122.0883944000,21.011500946013996,3.6474526,0.1,328.15594,1694115226448,,,,
Fix,GT,37.6922751000,-122.0884118000,20.893400484121457,4.850439,0.1,338.87024,1694115227448,,,,
Fix,GT,37.6923201000,-122.0884234000,20.83993797348421,5.2394514,0.1,349.17957,1694115228448,,,,
Fix,GT,37.6923689000,-122.0884325000,20.738374391312846,5.951297,0.1,351.0987,1694115229448,,,,
Fix,GT,37.6924258000,-122.0884491000,20.60003739388401,6.9694633,0.1,344.87134,1694115230448,,,,
Fix,GT,37.6924880000,-122.0884800000,20.41611393519588,7.5959916,0.1,336.6547,1694115231448,,,,
Fix,GT,37.6925504000,-122.0885185000,20.222063820587437,7.804305,0.1,332.73315,1694115232448,,,,
Fix,GT,37.6926122000,-122.0885613000,20.026163791199167,7.844652,0.1,330.67245,1694115233448,,,,
Fix,GT,37.6926736000,-122.0886058000,19.871013413251603,7.8650703,0.1,329.75717,1694115234448,,,,
Fix,GT,37.6927346000,-122.0886512000,19.69916353044823,7.8714447,0.1,329.1783,1694115235448,,,,
Fix,GT,37.6927938000,-122.0886957000,19.540551396484318,7.2424507,0.1,328.89093,1694115236448,,,,
Fix,GT,37.6928462000,-122.0887339000,19.400986856152656,6.2106447,0.1,330.5003,1694115237448,,,,
Fix,GT,37.6928932000,-122.0887616000,19.302012575557455,5.3954973,0.1,336.25296,1694115238448,,,,
Fix,GT,37.6929376000,-122.0887719000,19.193936870479433,4.9279566,0.1,352.17468,1694115239448,,,,
Fix,GT,37.6929805000,-122.0887714000,19.147450166833266,4.5237594,0.1,359.55234,1694115240448,,,,
Fix,GT,37.6930167000,-122.0887741000,19.069426119131492,3.428304,0.1,356.34195,1694115241448,,,,
Fix,GT,37.6930420000,-122.0887789000,19.031812762262746,2.2086525,0.1,352.18652,1694115242448,,,,
Fix,GT,37.6930576000,-122.0887836000,19.016350359211856,1.361131,0.1,349.24667,1694115243448,,,,
Fix,GT,37.6930653000,-122.0887860000,19.007862627781947,0.36354852,0.1,347.82993,1694115244448,,,,
Fix,GT,37.6930676000,-122.0887868000,18.99686201881525,0.18876955,0.1,347.36105,1694115245448,,,,
Fix,GT,37.6930681000,-122.0887869000,18.991349607963855,0.024095941,0.1,347.25363,1694115246448,,,,
Fix,GT,37.6930684000,-122.0887871000,18.985887999930128,0.14167121,0.1,347.17615,1694115247448,,,,
Fix,GT,37.6930735000,-122.0887889000,18.956912836132688,1.0045022,0.1,346.27695,1694115248448,,,,
Fix,GT,37.6930851000,-122.0887938000,18.833088974140992,1.7747159,0.1,344.32584,1694115249448,,,,
Fix,GT,37.6931006000,-122.0888008000,18.72342585642764,1.7212172,0.1,340.91602,1694115250448,,,,
Fix,GT,37.6931146000,-122.0888089000,18.530887523648744,1.7089328,0.1,337.39005,1694115251448,,,,
Fix,GT,37.6931273000,-122.0888179000,18.62627562650465,1.6542444,0.1,333.07938,1694115252448,,,,
Fix,GT,37.6931396000,-122.0888323000,18.730736689099615,1.7967651,0.1,322.43613,1694115253448,,,,
Fix,GT,37.6931480000,-122.0888504000,18.83222462613088,1.5937898,0.1,308.2358,1694115254448,,,,
Fix,GT,37.6931514000,-122.0888662000,18.905299909078337,1.1422575,0.1,296.51398,1694115255448,,,,
Fix,GT,37.6931536000,-122.0888831000,18.92832437668244,2.0609436,0.1,286.94495,1694115256448,,,,
Fix,GT,37.6931570000,-122.0889162000,18.961787971790784,3.621718,0.1,279.72623,1694115257448,,,,
Fix,GT,37.6931608000,-122.0889630000,19.02527524129937,4.4349036,0.1,275.20447,1694115258448,,,,
Fix,GT,37.6931600000,-122.0890135000,19.076836798030058,4.316251,0.1,268.21637,1694115259448,,,,
Fix,GT,37.6931545000,-122.0890628000,19.103274354858968,4.489135,0.1,261.43048,1694115260448,,,,
Fix,GT,37.6931443000,-122.0891117000,19.140274439755274,4.32017,0.1,254.67398,1694115261448,,,,
Fix,GT,37.6931308000,-122.0891557000,19.192786756596206,3.7363727,0.1,248.62401,1694115262448,,,,
Fix,GT,37.6931189000,-122.0891881000,19.231813531162686,2.559843,0.1,245.63635,1694115263448,,,,
Fix,GT,37.6931104000,-122.0892095000,19.259813409926835,1.6794721,0.1,244.02553,1694115264448,,,,
Fix,GT,37.6931045000,-122.0892235000,19.281324442415723,1.1918961,0.1,242.93811,1694115265448,,,,
Fix,GT,37.6931006000,-122.0892330000,19.29783768277622,0.6773795,0.1,242.6216,1694115266448,,,,
Fix,GT,37.6930988000,-122.0892372000,19.300837367040003,0.2725876,0.1,242.63388,1694115267448,,,,
Fix,GT,37.6930979000,-122.0892394000,19.304349899291992,0.11782093,0.1,242.64594,1694115268448,,,,
Fix,GT,37.6930977000,-122.0892400000,19.3033504486084,0.009402777,0.1,242.65135,1694115269448,,,,
Fix,GT,37.6930977000,-122.0892400000,19.302349090576172,0.001714461,0.1,242.6518,1694115270448,,,,
Fix,GT,37.6930977000,-122.0892400000,19.301349639892578,0.0016025159,0.1,242.649,1694115271448,,,,
Fix,GT,37.6930977000,-122.0892400000,19.301349639892578,0.00048744562,0.1,242.64886,1694115272448,,,,
Fix,GT,37.6930977000,-122.0892400000,19.301349639892578,0.0,0.1,242.64888,1694115273448,,,,
Fix,GT,37.6930977000,-122.0892400000,19.301350215117623,0.0,0.1,242.64877,1694115274448,,,,
Fix,GT,37.6930977000,-122.0892400000,19.301349064667534,0.0,0.1,242.64853,1694115275448,,,,
Fix,GT,37.6930977000,-122.0892400000,19.301349064667534,0.0005125543,0.1,242.6484,1694115276448,,,,
Fix,GT,37.6930977000,-122.0892400000,19.301349639892578,0.0,0.1,242.64838,1694115277448,,,,
Fix,GT,37.6930977000,-122.0892400000,19.301350215117623,0.0,0.1,242.64838,1694115278448,,,,
Fix,GT,37.6930977000,-122.0892400000,19.301350215117623,0.0,0.1,242.64812,1694115279448,,,,
Fix,GT,37.6930977000,-122.0892400000,19.301349064667534,0.0,0.1,242.64818,1694115280448,,,,
Fix,GT,37.6930977000,-122.0892400000,19.301349639892578,0.0,0.1,242.64818,1694115281448,,,,
Fix,GT,37.6930977000,-122.0892400000,19.301349064667534,0.0,0.1,242.64787,1694115282448,,,,
Fix,GT,37.6930977000,-122.0892400000,19.301349064667534,0.00068935246,0.1,242.64778,1694115283448,,,,
Fix,GT,37.6930977000,-122.0892400000,19.301349064667534,0.0005125542,0.1,242.64775,1694115284448,,,,
Fix,GT,37.6930977000,-122.0892400000,19.301349639892578,0.0030931658,0.1,242.64755,1694115285448,,,,
Fix,GT,37.6930973000,-122.0892411000,19.298349380493164,0.37121734,0.1,242.65906,1694115286448,,,,
Fix,GT,37.6930944000,-122.0892481000,19.310323770403272,0.99287546,0.1,242.6886,1694115287448,,,,
Fix,GT,37.6930884000,-122.0892630000,19.32629942303231,2.097137,0.1,242.78705,1694115288448,,,,
Fix,GT,37.6930775000,-122.0892902000,19.364300105873554,3.2837381,0.1,242.93715,1694115289448,,,,
Fix,GT,37.6930617000,-122.0893296000,19.42622504900646,4.440557,0.1,243.13655,1694115290448,,,,
Fix,GT,37.6930426000,-122.0893779000,19.50373698592739,5.268736,0.1,243.50461,1694115291448,,,,
Fix,GT,37.6930199000,-122.0894378000,19.638560871587572,6.456635,0.1,244.59279,1694115292448,,,,
Fix,GT,37.6929948000,-122.0895105000,19.81266225856507,7.420297,0.1,246.79716,1694115293448,,,,
Fix,GT,37.6929698000,-122.0895902000,19.944737564132595,7.913956,0.1,248.37936,1694115294448,,,,
Fix,GT,37.6929416000,-122.0896789000,20.169873612176048,8.916901,0.1,247.95445,1694115295448,,,,
Fix,GT,37.6929064000,-122.0897764000,20.42802463406241,10.001854,0.1,244.5135,1694115296448,,,,
Fix,GT,37.6928637000,-122.0898840000,20.692536853628496,11.29958,0.1,243.31308,1694115297448,,,,
Fix,GT,37.6928167000,-122.0900075000,21.07177301070874,12.866032,0.1,244.73492,1694115298448,,,,
Fix,GT,37.6927643000,-122.0901470000,21.623495247107883,14.318392,0.1,244.04082,1694115299448,,,,
Fix,GT,37.6927018000,-122.0902978000,22.286522063923712,15.646753,0.1,241.42747,1694115300448,,,,
Fix,GT,37.6926302000,-122.0904577000,22.89267240583513,16.63404,0.1,239.99593,1694115301448,,,,
Fix,GT,37.6925526000,-122.0906229000,23.46415897582301,17.170872,0.1,238.90527,1694115302448,,,,
Fix,GT,37.6924717000,-122.0907876000,24.001747234898403,16.863428,0.1,237.6607,1694115303448,,,,
Fix,GT,37.6923905000,-122.0909455000,24.53377362479614,16.276936,0.1,236.2211,1694115304448,,,,
Fix,GT,37.6923074000,-122.0910970000,25.10469670476664,16.322615,0.1,235.26381,1694115305448,,,,
Fix,GT,37.6922226000,-122.0912509000,25.582747363863405,16.735048,0.1,234.88054,1694115306448,,,,
Fix,GT,37.6921338000,-122.0914079000,25.90156177433539,17.267702,0.1,234.4455,1694115307448,,,,
Fix,GT,37.6920417000,-122.0915695000,26.093611607708112,17.792374,0.1,233.98642,1694115308448,,,,
Fix,GT,37.6919457000,-122.0917342000,26.23830045720871,18.216274,0.1,233.53352,1694115309448,,,,
Fix,GT,37.6918469000,-122.0919018000,26.388737208907855,18.59085,0.1,233.2735,1694115310448,,,,
Fix,GT,37.6917460000,-122.0920729000,26.395912945462896,19.036243,0.1,233.52528,1694115311448,,,,
Fix,GT,37.6916439000,-122.0922497000,26.133238896425155,19.47968,0.1,234.35283,1694115312448,,,,
Fix,GT,37.6915427000,-122.0924303000,25.75212880908566,19.479145,0.1,235.08772,1694115313448,,,,
Fix,GT,37.6914428000,-122.0926118000,25.054968323381104,19.486252,0.1,235.63661,1694115314448,,,,
Fix,GT,37.6913444000,-122.0927979000,24.098129227475454,20.049541,0.1,236.60732,1694115315448,,,,
Fix,GT,37.6912459000,-122.0929925000,23.465752604835927,20.681173,0.1,238.21225,1694115316448,,,,
Fix,GT,37.6911504000,-122.0931967000,23.24622473488978,21.047554,0.1,240.94429,1694115317448,,,,
Fix,GT,37.6910674000,-122.0934091000,23.526997930151992,20.712936,0.1,246.12802,1694115318448,,,,
Fix,GT,37.6909997000,-122.0936261000,23.666661746907266,20.542925,0.1,250.4255,1694115319448,,,,
Fix,GT,37.6909448000,-122.0938489000,23.7809131758346,20.670929,0.1,254.24321,1694115320448,,,,
Fix,GT,37.6909019000,-122.0940780000,23.7829130551213,20.931858,0.1,258.17868,1694115321448,,,,
Fix,GT,37.6908702000,-122.0943140000,23.627062617110255,21.361046,0.1,261.6298,1694115322448,,,,
Fix,GT,37.6908462000,-122.0945570000,23.278440237382142,21.86916,0.1,263.4045,1694115323448,,,,
Fix,GT,37.6908254000,-122.0948066000,22.838515044804353,22.404938,0.1,264.16855,1694115324448,,,,
Fix,GT,37.6908065000,-122.0950627000,22.298028600166447,22.96223,0.1,264.87433,1694115325448,,,,
Fix,GT,37.6907900000,-122.0953247000,21.72312854350082,23.3022,0.1,265.71606,1694115326448,,,,
Fix,GT,37.6907764000,-122.0955890000,21.10071604033874,23.53652,0.1,266.49756,1694115327448,,,,
Fix,GT,37.6907650000,-122.0958596000,20.456103867302886,24.343672,0.1,267.03043,1694115328448,,,,
Fix,GT,37.6907562000,-122.0961400000,19.963390459937727,25.076286,0.1,268.0068,1694115329448,,,,
Fix,GT,37.6907529000,-122.0964242000,19.703651385400917,25.005283,0.1,270.26874,1694115330448,,,,
Fix,GT,37.6907602000,-122.0967059000,19.528887273051964,24.737415,0.1,273.14117,1694115331448,,,,
Fix,GT,37.6907792000,-122.0969834000,19.422988722294463,24.41641,0.1,276.40613,1694115332448,,,,
Fix,GT,37.6908095000,-122.0972563000,19.36886232764016,24.357418,0.1,279.08185,1694115333448,,,,
Fix,GT,37.6908496000,-122.0975297000,19.379275317472775,24.704891,0.1,281.26898,1694115334448,,,,
Fix,GT,37.6908989000,-122.0978051000,19.420299273842545,25.124172,0.1,283.77737,1694115335448,,,,
Fix,GT,37.6909583000,-122.0980822000,19.4562744007726,25.54425,0.1,286.0821,1694115336448,,,,
Fix,GT,37.6910254000,-122.0983624000,19.48032499780095,26.127012,0.1,286.97137,1694115337448,,,,
Fix,GT,37.6910985000,-122.0986481000,19.491937796030697,26.84901,0.1,288.56195,1694115338448,,,,
Fix,GT,37.6911815000,-122.0989366000,19.50086322744346,27.178932,0.1,291.10016,1694115339448,,,,
Fix,GT,37.6912771000,-122.0992204000,19.459862861351667,27.229435,0.1,294.5108,1694115340448,,,,
Fix,GT,37.6913848000,-122.0994981000,19.329912971746694,27.321285,0.1,297.33313,1694115341448,,,,
Fix,GT,37.6915039000,-122.0997696000,19.18750151964673,27.413769,0.1,300.03812,1694115342448,,,,
Fix,GT,37.6916326000,-122.1000353000,19.082962911771006,27.48972,0.1,302.4552,1694115343448,,,,
Fix,GT,37.6917704000,-122.1002945000,19.00001200402943,27.554348,0.1,305.04428,1694115344448,,,,
Fix,GT,37.6919187000,-122.1005451000,18.88706344407592,27.606213,0.1,308.25546,1694115345448,,,,
Fix,GT,37.6920775000,-122.1007864000,18.724063332406615,27.689486,0.1,310.76022,1694115346448,,,,
Fix,GT,37.6922446000,-122.1010199000,18.548188713193667,27.772383,0.1,313.04578,1694115347448,,,,
Fix,GT,37.6924187000,-122.1012467000,18.33311321030328,27.886541,0.1,314.8238,1694115348448,,,,
Fix,GT,37.6925993000,-122.1014682000,18.13157654905683,28.154041,0.1,316.65765,1694115349448,,,,
Fix,GT,37.6927895000,-122.1016837000,17.92808835317669,28.734892,0.1,319.08026,1694115350448,,,,
Fix,GT,37.6929925000,-122.1018937000,17.707164011685563,29.726053,0.1,322.0396,1694115351448,,,,
Fix,GT,37.6932105000,-122.1020998000,17.53606305335711,30.805965,0.1,323.74493,1694115352448,,,,
Fix,GT,37.6934367000,-122.1023038000,17.362013016165974,30.820028,0.1,324.61563,1694115353448,,,,
Fix,GT,37.6936625000,-122.1025047000,17.141164026944352,30.573376,0.1,324.70023,1694115354448,,,,
Fix,GT,37.6938863000,-122.1027039000,16.915189296246353,30.254326,0.1,324.5945,1694115355448,,,,
Fix,GT,37.6941079000,-122.1029001000,16.686726584006465,29.892231,0.1,324.81393,1694115356448,,,,
Fix,GT,37.6943270000,-122.1030938000,16.427726783434423,29.547203,0.1,324.74112,1694115357448,,,,
Fix,GT,37.6945434000,-122.1032856000,16.165650842955074,29.207777,0.1,324.59094,1694115358448,,,,
Fix,GT,37.6947569000,-122.1034757000,15.989088238333267,28.849974,0.1,324.59357,1694115359448,,,,
Fix,GT,37.6949675000,-122.1036643000,15.76911403928466,28.51352,0.1,324.28253,1694115360448,,,,
Fix,GT,37.6951752000,-122.1038513000,15.59306321762756,28.219265,0.1,324.41122,1694115361448,,,,
Fix,GT,37.6953815000,-122.1040364000,15.456189180081424,28.033627,0.1,324.31253,1694115362448,,,,
Fix,GT,37.6955862000,-122.1042206000,15.252475434435723,27.803757,0.1,324.30783,1694115363448,,,,
Fix,GT,37.6957893000,-122.1044027000,15.040189302683757,27.545815,0.1,324.65054,1694115364448,,,,
Fix,GT,37.6959922000,-122.1045825000,14.802113592090365,27.600403,0.1,324.66507,1694115365448,,,,
Fix,GT,37.6961961000,-122.1047636000,14.61691316718526,27.782467,0.1,324.68744,1694115366448,,,,
Fix,GT,37.6964015000,-122.1049457000,14.409675994077162,28.012941,0.1,324.72647,1694115367448,,,,
Fix,GT,37.6966087000,-122.1051295000,14.204676497866046,28.262632,0.1,324.68036,1694115368448,,,,
Fix,GT,37.6968178000,-122.1053151000,13.967600750790155,28.526302,0.1,324.5734,1694115369448,,,,
Fix,GT,37.6970283000,-122.1055034000,13.751676424552329,28.780525,0.1,324.51758,1694115370448,,,,
Fix,GT,37.6972403000,-122.1056924000,13.547601085689166,28.839684,0.1,324.63315,1694115371448,,,,
Fix,GT,37.6974517000,-122.1058803000,13.349601130273413,28.597996,0.1,324.59995,1694115372448,,,,
Fix,GT,37.6976612000,-122.1060670000,13.148575396799316,28.440384,0.1,324.57095,1694115373448,,,,
Fix,GT,37.6978700000,-122.1062533000,12.9325263432155,28.34169,0.1,324.50806,1694115374448,,,,
Fix,GT,37.6980775000,-122.1064382000,12.705213875679362,28.096806,0.1,324.6933,1694115375448,,,,
Fix,GT,37.6982834000,-122.1066208000,12.524600934938263,27.798164,0.1,324.69714,1694115376448,,,,
Fix,GT,37.6984871000,-122.1068019000,12.304676851440774,27.641533,0.1,324.52792,1694115377448,,,,
Fix,GT,37.6986907000,-122.1069837000,12.150525769878442,27.769672,0.1,324.5507,1694115378448,,,,
Fix,GT,37.6988942000,-122.1071655000,12.067400504380657,27.58499,0.1,324.49557,1694115379448,,,,
Fix,GT,37.6990951000,-122.1073464000,12.089762172326658,27.238392,0.1,324.2461,1694115380448,,,,
Fix,GT,37.6992921000,-122.1075270000,12.117887614039716,26.85566,0.1,323.33636,1694115381448,,,,
Fix,GT,37.6994840000,-122.1077100000,11.97708895331175,26.669939,0.1,322.33286,1694115382448,,,,
Fix,GT,37.6996737000,-122.1078983000,11.776601141478295,27.013927,0.1,320.97546,1694115383448,,,,
Fix,GT,37.6998626000,-122.1080951000,11.58413869607864,27.393196,0.1,319.70532,1694115384448,,,,
Fix,GT,37.7000502000,-122.1083001000,11.346239212449063,27.740488,0.1,318.3266,1694115385448,,,,
Fix,GT,37.7002353000,-122.1085136000,11.054365277160116,27.957472,0.1,316.51688,1694115386448,,,,
Fix,GT,37.7004162000,-122.1087356000,10.710827455769419,28.12681,0.1,314.89224,1694115387448,,,,
Fix,GT,37.7005933000,-122.1089650000,10.209515318926265,28.25055,0.1,313.44638,1694115388448,,,,
Fix,GT,37.7007668000,-122.1092004000,9.566415513023458,28.373672,0.1,312.06485,1694115389448,,,,
Fix,GT,37.7009358000,-122.1094416000,8.95174139099663,28.314793,0.1,310.60843,1694115390448,,,,
Fix,GT,37.7010986000,-122.1096879000,8.28332931723969,28.154823,0.1,308.83142,1694115391448,,,,
Fix,GT,37.7012557000,-122.1099382000,7.402605235855134,28.171303,0.1,307.80344,1694115392448,,,,
Fix,GT,37.7014122000,-122.1101921000,6.371705731762631,28.54514,0.1,307.67905,1694115393448,,,,
Fix,GT,37.7015709000,-122.1104498000,5.364580438759617,28.956455,0.1,307.6006,1694115394448,,,,
Fix,GT,37.7017316000,-122.1107111000,4.526741266373648,29.305681,0.1,307.66318,1694115395448,,,,
Fix,GT,37.7018942000,-122.1109750000,3.8325153845772775,29.557154,0.1,307.80038,1694115396448,,,,
Fix,GT,37.7020576000,-122.1112400000,3.3718269735765674,29.606033,0.1,307.5835,1694115397448,,,,
Fix,GT,37.7022208000,-122.1115057000,3.12506322272953,29.612398,0.1,307.57382,1694115398448,,,,
Fix,GT,37.7023845000,-122.1117709000,2.942988073451957,29.630653,0.1,307.84732,1694115399448,,,,
Fix,GT,37.7025492000,-122.1120364000,2.7985257145974884,29.797783,0.1,307.84515,1694115400448,,,,
Fix,GT,37.7027145000,-122.1123042000,2.627088500740385,30.02388,0.1,307.61063,1694115401448,,,,
Fix,GT,37.7028805000,-122.1125746000,2.442088553430935,30.235065,0.1,307.5581,1694115402448,,,,
Fix,GT,37.7030477000,-122.1128473000,2.244088410739387,30.54858,0.1,307.51443,1694115403448,,,,
Fix,GT,37.7032167000,-122.1131232000,2.055601034957675,30.905296,0.1,307.52774,1694115404448,,,,
Fix,GT,37.7033874000,-122.1134022000,1.8530885488878717,31.181099,0.1,307.39218,1694115405448,,,,
Fix,GT,37.7035587000,-122.1136836000,1.6635507523508508,31.342854,0.1,307.31915,1694115406448,,,,
Fix,GT,37.7037308000,-122.1139663000,1.465575899847103,31.431416,0.1,307.4019,1694115407448,,,,
Fix,GT,37.7039036000,-122.1142492000,1.2620633943224604,31.489878,0.1,307.45276,1694115408448,,,,
Fix,GT,37.7040772000,-122.1145317000,1.1144754953781941,31.507732,0.1,307.7869,1694115409448,,,,
Fix,GT,37.7042515000,-122.1148139000,1.0424253845518905,31.53836,0.1,307.6918,1694115410448,,,,
Fix,GT,37.7044248000,-122.1150960000,0.9385507840083491,31.288528,0.1,307.51868,1694115411448,,,,
Fix,GT,37.7045954000,-122.1153771000,0.6543143315181368,31.17537,0.1,306.95792,1694115412448,,,,
Fix,GT,37.7047630000,-122.1156616000,0.21800255565426685,31.281818,0.1,306.0225,1694115413448,,,,
Fix,GT,37.7049281000,-122.1159498000,-0.3244598086770871,31.329624,0.1,305.34363,1694115414448,,,,
Fix,GT,37.7050898000,-122.1162400000,-0.978259096475913,31.167953,0.1,304.55945,1694115415448,,,,
Fix,GT,37.7052483000,-122.1165314000,-1.744158737091901,31.169716,0.1,304.07086,1694115416448,,,,
Fix,GT,37.7054050000,-122.1168259000,-2.59398295478983,31.334946,0.1,303.27692,1694115417448,,,,
Fix,GT,37.7055589000,-122.1171246000,-3.5454453427449835,31.420597,0.1,302.45023,1694115418448,,,,
Fix,GT,37.7057094000,-122.1174260000,-4.46954577003379,31.314816,0.1,301.67847,1694115419448,,,,
Fix,GT,37.7058564000,-122.1177283000,-5.395083422818459,31.193073,0.1,301.00626,1694115420448,,,,
Fix,GT,37.7059997000,-122.1180317000,-6.327058418161073,31.056093,0.1,300.17648,1694115421448,,,,
Fix,GT,37.7061392000,-122.1183362000,-7.24144572786976,30.934914,0.1,299.64154,1694115422448,,,,
Fix,GT,37.7062760000,-122.1186412000,-8.214420479129899,30.82773,0.1,299.04312,1694115423448,,,,
Fix,GT,37.7064102000,-122.1189469000,-9.269832694268871,30.846798,0.1,298.6125,1694115424448,,,,
Fix,GT,37.7065442000,-122.1192548000,-10.333857939949326,31.0581,0.1,298.5661,1694115425448,,,,
Fix,GT,37.7066797000,-122.1195643000,-11.32400794288165,31.248428,0.1,298.81564,1694115426448,,,,
Fix,GT,37.7068166000,-122.1198749000,-12.313244498533805,31.358952,0.1,298.9691,1694115427448,,,,
Fix,GT,37.7069548000,-122.1201848000,-13.488194486453466,31.31472,0.1,299.49384,1694115428448,,,,
Fix,GT,37.7070985000,-122.1204897000,-14.690219231066976,31.21421,0.1,302.13806,1694115429448,,,,
Fix,GT,37.7072539000,-122.1207836000,-15.697496139712939,31.111443,0.1,304.8326,1694115430448,,,,
Fix,GT,37.7074194000,-122.1210671000,-16.641982100633243,30.958416,0.1,307.6744,1694115431448,,,,
Fix,GT,37.7075957000,-122.1213390000,-17.573495601363675,30.994385,0.1,310.51907,1694115432448,,,,
Fix,GT,37.7077830000,-122.1216000000,-18.36633482143816,31.066254,0.1,313.28403,1694115433448,,,,
Fix,GT,37.7079783000,-122.1218525000,-18.87063566222082,31.059546,0.1,314.56992,1694115434448,,,,
Fix,GT,37.7081754000,-122.1221021000,-19.27312230339885,31.0174,0.1,314.7619,1694115435448,,,,
Fix,GT,37.7083723000,-122.1223516000,-19.608348159114826,30.979172,0.1,314.53305,1694115436448,,,,
Fix,GT,37.7085682000,-122.1226010000,-19.775574156372556,30.871391,0.1,314.57233,1694115437448,,,,
Fix,GT,37.7087633000,-122.1228495000,-19.74880015363624,30.735588,0.1,314.61505,1694115438448,,,,
Fix,GT,37.7089580000,-122.1230964000,-19.665237504516654,30.653877,0.1,314.70535,1694115439448,,,,
Fix,GT,37.7091523000,-122.1233434000,-19.57741320785317,30.647964,0.1,314.51987,1694115440448,,,,
Fix,GT,37.7093463000,-122.1235914000,-19.331513852935586,30.721767,0.1,314.43295,1694115441448,,,,
Fix,GT,37.7095402000,-122.1238406000,-18.999052551067734,30.786766,0.1,314.24954,1694115442448,,,,
Fix,GT,37.7097326000,-122.1240924000,-18.609152011435526,30.817513,0.1,313.18948,1694115443448,,,,
Fix,GT,37.7099200000,-122.1243497000,-18.161764128250752,30.718851,0.1,311.74286,1694115444448,,,,
Fix,GT,37.7101008000,-122.1246127000,-17.61586548233072,30.58898,0.1,309.74078,1694115445448,,,,
Fix,GT,37.7102735000,-122.1248821000,-17.08430245890969,30.4467,0.1,307.93115,1694115446448,,,,
Fix,GT,37.7104387000,-122.1251571000,-16.555789806618918,30.354172,0.1,306.21072,1694115447448,,,,
Fix,GT,37.7105976000,-122.1254371000,-16.011765503309164,30.329453,0.1,304.6328,1694115448448,,,,
Fix,GT,37.7107501000,-122.1257226000,-15.58861367844628,30.32172,0.1,303.12125,1694115449448,,,,
Fix,GT,37.7108976000,-122.1260120000,-15.225277563331474,30.285387,0.1,302.2175,1694115450448,,,,
Fix,GT,37.7110433000,-122.1263011000,-14.575729026255061,30.032278,0.1,302.27966,1694115451448,,,,
Fix,GT,37.7111870000,-122.1265854000,-13.547492800365859,29.392855,0.1,302.43555,1694115452448,,,,
Fix,GT,37.7113281000,-122.1268629000,-12.536342076064386,28.7142,0.1,302.3845,1694115453448,,,,
Fix,GT,37.7114661000,-122.1271355000,-11.62970336097078,28.332912,0.1,302.366,1694115454448,,,,
Fix,GT,37.7116026000,-122.1274050000,-10.83455322559314,28.040258,0.1,302.4943,1694115455448,,,,
Fix,GT,37.7117394000,-122.1276709000,-10.29817714687988,27.84592,0.1,303.01538,1694115456448,,,,
Fix,GT,37.7118785000,-122.1279330000,-9.86673990038338,27.761223,0.1,304.42615,1694115457448,,,,
Fix,GT,37.7120232000,-122.1281896000,-9.385227195290327,27.760696,0.1,305.9626,1694115458448,,,,
Fix,GT,37.7121741000,-122.1284407000,-8.9531771285113,27.784086,0.1,308.02576,1694115459448,,,,
Fix,GT,37.7123322000,-122.1286850000,-8.526739725384175,27.838102,0.1,310.00055,1694115460448,,,,
Fix,GT,37.7124968000,-122.1289240000,-8.106152360129244,27.978313,0.1,311.527,1694115461448,,,,
Fix,GT,37.7126682000,-122.1291585000,-7.7390258754483625,28.252346,0.1,313.39944,1694115462448,,,,
Fix,GT,37.7128471000,-122.1293887000,-7.449976124950709,28.550232,0.1,315.16852,1694115463448,,,,
Fix,GT,37.7130338000,-122.1296134000,-7.233825559108936,28.81147,0.1,317.0707,1694115464448,,,,
Fix,GT,37.7132279000,-122.1298323000,-7.131287966067134,29.082232,0.1,319.0087,1694115465448,,,,
Fix,GT,37.7134296000,-122.1300452000,-7.062237579837671,29.380772,0.1,320.71573,1694115466448,,,,
Fix,GT,37.7136385000,-122.1302523000,-6.985262936794982,29.651642,0.1,322.6512,1694115467448,,,,
Fix,GT,37.7138545000,-122.1304526000,-6.905212436482515,29.915884,0.1,324.34888,1694115468448,,,,
Fix,GT,37.7140765000,-122.1306457000,-6.828262902939628,29.957783,0.1,326.33728,1694115469448,,,,
Fix,GT,37.7143031000,-122.1308269000,-6.750800414184141,29.64274,0.1,328.51633,1694115470448,,,,
Fix,GT,37.7145317000,-122.1309961000,-6.681212661509335,29.23505,0.1,330.35223,1694115471448,,,,
Fix,GT,37.7147613000,-122.1311536000,-6.607675125349857,28.866053,0.1,332.2902,1694115472448,,,,
Fix,GT,37.7149935000,-122.1313004000,-6.549187612031233,28.851818,0.1,333.94513,1694115473448,,,,
Fix,GT,37.7152284000,-122.1314385000,-6.485212364956766,28.6585,0.1,335.83286,1694115474448,,,,
Fix,GT,37.7154640000,-122.1315661000,-6.372338033153085,28.275307,0.1,337.2713,1694115475448,,,,
Fix,GT,37.7156983000,-122.1316854000,-6.181699896663233,27.868763,0.1,338.4854,1694115476448,,,,
Fix,GT,37.7159311000,-122.1317992000,-6.294223341526205,27.56366,0.1,338.68875,1694115477448,,,,
Fix,GT,37.7161617000,-122.1319114000,-6.577011986838244,27.319218,0.1,338.83508,1694115478448,,,,
Fix,GT,37.7163904000,-122.1320221000,-6.86342459928062,27.099571,0.1,338.7284,1694115479448,,,,
Fix,GT,37.7166181000,-122.1321327000,-7.110424351533936,27.08825,0.1,338.79214,1694115480448,,,,
Fix,GT,37.7168455000,-122.1322436000,-7.195262950087425,27.046991,0.1,338.6264,1694115481448,,,,
Fix,GT,37.7170722000,-122.1323548000,-7.095338271620321,26.950127,0.1,338.507,1694115482448,,,,
Fix,GT,37.7172979000,-122.1324658000,-6.908800370076449,26.840515,0.1,338.49133,1694115483448,,,,
Fix,GT,37.7175226000,-122.1325767000,-6.733850566444914,26.726452,0.1,338.4618,1694115484448,,,,
Fix,GT,37.7177457000,-122.1326867000,-6.476563756847099,26.41154,0.1,338.5682,1694115485448,,,,
Fix,GT,37.7179655000,-122.1327946000,-6.052789573204407,25.921518,0.1,338.6114,1694115486448,,,,
Fix,GT,37.7181813000,-122.1329019000,-5.519789558869476,25.654022,0.1,338.25397,1694115487448,,,,
Fix,GT,37.7183953000,-122.1330102000,-5.017176499234438,25.553635,0.1,337.68112,1694115488448,,,,
Fix,GT,37.7186077000,-122.1331212000,-4.56917654000398,25.486824,0.1,337.16788,1694115489448,,,,
Fix,GT,37.7188188000,-122.1332344000,-4.1466891778430295,25.457012,0.1,336.54092,1694115490448,,,,
Fix,GT,37.7190294000,-122.1333508000,-3.6742266901017615,25.647892,0.1,336.00174,1694115491448,,,,
Fix,GT,37.7192421000,-122.1334708000,-3.2936138028048987,26.110134,0.1,335.56644,1694115492448,,,,
Fix,GT,37.7194575000,-122.1335954000,-2.997463435672678,26.50041,0.1,334.93262,1694115493448,,,,
Fix,GT,37.7196749000,-122.1337251000,-2.7628755770713482,26.894722,0.1,334.20084,1694115494448,,,,
Fix,GT,37.7198943000,-122.1338603000,-2.626262834026676,27.322433,0.1,333.56625,1694115495448,,,,
Fix,GT,37.7201148000,-122.1339995000,-2.5741374284685037,27.301119,0.1,332.98682,1694115496448,,,,
Fix,GT,37.7203322000,-122.1341408000,-2.625524691462857,27.011059,0.1,332.2319,1694115497448,,,,
Fix,GT,37.7205458000,-122.1342838000,-2.786936837828094,26.694569,0.1,331.64438,1694115498448,,,,
Fix,GT,37.7207559000,-122.1344278000,-3.0277864302858006,26.40107,0.1,331.06192,1694115499448,,,,
Fix,GT,37.7209628000,-122.1345729000,-3.349711343394148,26.146214,0.1,330.54825,1694115500448,,,,
Fix,GT,37.7211663000,-122.1347197000,-3.7665606468388972,25.929224,0.1,329.6529,1694115501448,,,,
Fix,GT,37.7213666000,-122.1348692000,-4.266460343509522,25.74823,0.1,328.9819,1694115502448,,,,
Fix,GT,37.7215649000,-122.1350195000,-4.891722120049323,25.620808,0.1,328.8053,1694115503448,,,,
Fix,GT,37.7217617000,-122.1351704000,-5.634722297481915,25.53595,0.1,328.3462,1694115504448,,,,
Fix,GT,37.7219574000,-122.1353214000,-6.388209741701473,25.425053,0.1,328.4694,1694115505448,,,,
Fix,GT,37.7221532000,-122.1354726000,-7.118335118172524,25.651548,0.1,328.3536,1694115506448,,,,
Fix,GT,37.7223518000,-122.1356258000,-7.652123621424067,26.044704,0.1,328.3675,1694115507448,,,,
Fix,GT,37.7225515000,-122.1357802000,-7.942424207556769,25.896858,0.1,328.39966,1694115508448,,,,
Fix,GT,37.7227493000,-122.1359335000,-8.04511243336026,25.733324,0.1,328.11377,1694115509448,,,,
Fix,GT,37.7229471000,-122.1360875000,-7.997212622408142,25.912518,0.1,328.27295,1694115510448,,,,
Fix,GT,37.7231470000,-122.1362419000,-7.971599748739379,26.153145,0.1,328.44724,1694115511448,,,,
Fix,GT,37.7233494000,-122.1363967000,-7.978624785441781,26.433964,0.1,328.71722,1694115512448,,,,
Fix,GT,37.7235546000,-122.1365525000,-8.086474162936867,26.763403,0.1,328.77127,1694115513448,,,,
Fix,GT,37.7237632000,-122.1367077000,-8.174137206413604,26.95446,0.1,330.12024,1694115514448,,,,
Fix,GT,37.7239753000,-122.1368529000,-8.001538955194093,26.622524,0.1,332.39838,1694115515448,,,,
Fix,GT,37.7241893000,-122.1369861000,-7.625176460712737,26.500574,0.1,334.5666,1694115516448,,,,
Fix,GT,37.7244070000,-122.1371096000,-7.091427235112178,26.514233,0.1,336.72913,1694115517448,,,,
Fix,GT,37.7246283000,-122.1372221000,-6.375702706138071,26.461418,0.1,338.89868,1694115518448,,,,
Fix,GT,37.7248521000,-122.1373238000,-5.558115274529541,26.383657,0.1,341.0059,1694115519448,,,,
Fix,GT,37.7250779000,-122.1374152000,-4.75914006884085,26.2924,0.1,342.99017,1694115520448,,,,
Fix,GT,37.7253054000,-122.1374967000,-3.9990396790225446,26.24131,0.1,345.00272,1694115521448,,,,
Fix,GT,37.7255349000,-122.1375668000,-3.3204522300444808,26.21846,0.1,347.3751,1694115522448,,,,
Fix,GT,37.7257662000,-122.1376258000,-2.7333518175361604,26.209488,0.1,349.40695,1694115523448,,,,
Fix,GT,37.7259992000,-122.1376743000,-2.2028643403488886,26.23653,0.1,351.2636,1694115524448,,,,
Fix,GT,37.7262333000,-122.1377156000,-1.6033768738776075,26.233704,0.1,352.58026,1694115525448,,,,
Fix,GT,37.7264681000,-122.1377513000,-1.1320761655701332,26.27567,0.1,353.20676,1694115526448,,,,
Fix,GT,37.7267036000,-122.1377867000,-0.8255885904524582,26.37114,0.1,352.9817,1694115527448,,,,
Fix,GT,37.7269396000,-122.1378227000,-0.3797891432627729,26.369291,0.1,352.998,1694115528448,,,,
Fix,GT,37.7271750000,-122.1378582000,0.17801030406201335,26.247467,0.1,353.19717,1694115529448,,,,
Fix,GT,37.7274091000,-122.1378930000,0.8769100771848279,26.081593,0.1,353.0298,1694115530448,,,,
Fix,GT,37.7276416000,-122.1379287000,1.5395980743745739,25.835583,0.1,352.9187,1694115531448,,,,
Fix,GT,37.7278709000,-122.1379651000,2.0827483348847267,25.562645,0.1,352.62344,1694115532448,,,,
Fix,GT,37.7280990000,-122.1380034000,2.48884887115333,25.55969,0.1,351.98868,1694115533448,,,,
Fix,GT,37.7283280000,-122.1380453000,2.76207434362383,25.834774,0.1,351.33453,1694115534448,,,,
Fix,GT,37.7285592000,-122.1380908000,2.9192247989285036,26.104506,0.1,350.70264,1694115535448,,,,
Fix,GT,37.7287926000,-122.1381404000,2.9829377941837265,26.414711,0.1,349.86014,1694115536448,,,,
Fix,GT,37.7290259000,-122.1381955000,2.9500129876378764,26.20929,0.1,348.8437,1694115537448,,,,
Fix,GT,37.7292559000,-122.1382544000,2.8645005392324165,25.868929,0.1,348.1859,1694115538448,,,,
Fix,GT,37.7294825000,-122.1383149000,2.637238453075156,25.547768,0.1,347.7339,1694115539448,,,,
Fix,GT,37.7297060000,-122.1383767000,2.367475359390383,25.267326,0.1,347.42972,1694115540448,,,,
Fix,GT,37.7299269000,-122.1384389000,2.17301279028689,24.960344,0.1,347.21793,1694115541448,,,,
Fix,GT,37.7301450000,-122.1385001000,1.995012930483842,24.65699,0.1,347.31717,1694115542448,,,,
Fix,GT,37.7303615000,-122.1385613000,1.9344252523479568,24.632853,0.1,347.1631,1694115543448,,,,
Fix,GT,37.7305782000,-122.1386227000,1.9414365122642323,24.659279,0.1,347.24866,1694115544448,,,,
Fix,GT,37.7307952000,-122.1386842000,1.9173501109287159,24.733091,0.1,347.03122,1694115545448,,,,
Fix,GT,37.7310127000,-122.1387472000,1.864737216700803,24.804382,0.1,346.8436,1694115546448,,,,
Fix,GT,37.7312305000,-122.1388106000,1.8732748445975176,24.74938,0.1,346.95837,1694115547448,,,,
Fix,GT,37.7314464000,-122.1388723000,1.807274913093682,24.413157,0.1,347.19345,1694115548448,,,,
Fix,GT,37.7316594000,-122.1389325000,1.7894001520379845,24.061613,0.1,347.21802,1694115549448,,,,
Fix,GT,37.7318695000,-122.1389917000,1.7588875162443856,23.728256,0.1,347.32,1694115550448,,,,
Fix,GT,37.7320772000,-122.1390503000,1.7294752190005909,23.635939,0.1,347.19916,1694115551448,,,,
Fix,GT,37.7322868000,-122.1391087000,1.7009126000998975,24.018429,0.1,347.47748,1694115552448,,,,
Fix,GT,37.7324997000,-122.1391666000,1.6718875060817915,24.349419,0.1,347.91165,1694115553448,,,,
Fix,GT,37.7327161000,-122.1392232000,1.6423750282473648,24.660927,0.1,348.33545,1694115554448,,,,
Fix,GT,37.7329342000,-122.1392781000,1.6163750058956268,24.704456,0.1,348.7919,1694115555448,,,,
Fix,GT,37.7331528000,-122.1393309000,1.578887572630368,24.72865,0.1,349.2058,1694115556448,,,,
Fix,GT,37.7333721000,-122.1393820000,1.5524252210152554,24.798414,0.1,349.565,1694115557448,,,,
Fix,GT,37.7335923000,-122.1394319000,1.5109127034647862,24.848572,0.1,349.6694,1694115558448,,,,
Fix,GT,37.7338128000,-122.1394822000,1.4764000824128374,24.903307,0.1,349.59268,1694115559448,,,,
Fix,GT,37.7340328000,-122.1395328000,1.4747873985575026,24.69677,0.1,349.46255,1694115560448,,,,
Fix,GT,37.7342512000,-122.1395827000,1.5721495662441498,24.61878,0.1,349.63217,1694115561448,,,,
Fix,GT,37.7344694000,-122.1396320000,1.792949071071689,24.622272,0.1,349.77957,1694115562448,,,,
Fix,GT,37.7346881000,-122.1396810000,2.1400743632534045,24.689743,0.1,349.6603,1694115563448,,,,
Fix,GT,37.7349074000,-122.1397315000,2.4169991507259283,24.788593,0.1,349.52927,1694115564448,,,,
Fix,GT,37.7351278000,-122.1397816000,2.7473865361468484,24.947231,0.1,349.63675,1694115565448,,,,
Fix,GT,37.7353499000,-122.1398325000,3.192236147569929,25.139412,0.1,349.51086,1694115566448,,,,
Fix,GT,37.7355731000,-122.1398845000,3.725673603227449,25.270401,0.1,349.47455,1694115567448,,,,
Fix,GT,37.7357976000,-122.1399371000,4.237723686006902,25.370811,0.1,349.2442,1694115568448,,,,
Fix,GT,37.7360222000,-122.1399917000,4.760698772572255,25.40283,0.1,348.8883,1694115569448,,,,
Fix,GT,37.7362464000,-122.1400514000,5.271236166520069,25.45287,0.1,346.8768,1694115570448,,,,
Fix,GT,37.7364689000,-122.1401230000,5.698411747638374,25.513487,0.1,344.4351,1694115571448,,,,
Fix,GT,37.7366894000,-122.1402075000,6.028461780854514,25.632252,0.1,341.6998,1694115572448,,,,
Fix,GT,37.7369072000,-122.1403063000,6.350974306816511,25.730656,0.1,338.62344,1694115573448,,,,
Fix,GT,37.7371213000,-122.1404199000,6.66248691832314,25.825895,0.1,335.74908,1694115574448,,,,
Fix,GT,37.7373321000,-122.1405456000,6.912999416211278,25.95551,0.1,333.58313,1694115575448,,,,
Fix,GT,37.7375397000,-122.1406833000,7.125500504094916,26.074923,0.1,330.82327,1694115576448,,,,
Fix,GT,37.7377422000,-122.1408347000,7.171299696579055,26.177292,0.1,327.82224,1694115577448,,,,
Fix,GT,37.7379392000,-122.1409995000,7.135424918093776,26.310604,0.1,325.06085,1694115578448,,,,
Fix,GT,37.7381312000,-122.1411766000,7.027037621872012,26.485294,0.1,322.68265,1694115579448,,,,
Fix,GT,37.7383179000,-122.1413655000,6.824675473738239,26.638594,0.1,319.70084,1694115580448,,,,
Fix,GT,37.7384969000,-122.1415658000,6.448488635828767,26.523224,0.1,316.95383,1694115581448,,,,
Fix,GT,37.7386683000,-122.1417747000,5.90500077858222,26.382538,0.1,315.10138,1694115582448,,,,
Fix,GT,37.7388362000,-122.1419857000,5.25271373167277,26.277975,0.1,314.94998,1694115583448,,,,
Fix,GT,37.7390030000,-122.1421965000,4.5243515826743135,26.240608,0.1,314.8958,1694115584448,,,,
Fix,GT,37.7391728000,-122.1424068000,3.687914250245001,26.708153,0.1,316.03204,1694115585448,,,,
Fix,GT,37.7393506000,-122.1426182000,2.7236520696862954,27.685856,0.1,316.8926,1694115586448,,,,
Fix,GT,37.7395345000,-122.1428333000,1.6852146991032058,27.906399,0.1,317.0353,1694115587448,,,,
Fix,GT,37.7397194000,-122.1430480000,0.5957271981528329,27.930416,0.1,317.28784,1694115588448,,,,
Fix,GT,37.7399056000,-122.1432611000,-0.5068104200293213,27.938202,0.1,317.73898,1694115589448,,,,
Fix,GT,37.7400945000,-122.1434704000,-1.5723230828943215,27.908813,0.1,319.3436,1694115590448,,,,
Fix,GT,37.7402889000,-122.1436701000,-2.328748578214146,27.800308,0.1,322.07144,1694115591448,,,,
Fix,GT,37.7404902000,-122.1438558000,-2.8965867131338427,27.617962,0.1,324.99542,1694115592448,,,,
Fix,GT,37.7406955000,-122.1440299000,-3.1276249884631397,27.319223,0.1,326.7983,1694115593448,,,,
Fix,GT,37.7409026000,-122.1441931000,-3.0873129172759306,26.940914,0.1,328.63144,1694115594448,,,,
Fix,GT,37.7411095000,-122.1443486000,-2.8984878421581257,26.527351,0.1,329.3331,1694115595448,,,,
Fix,GT,37.7413143000,-122.1445005000,-2.5840504498318566,26.321625,0.1,329.34198,1694115596448,,,,
Fix,GT,37.7415183000,-122.1446526000,-2.2465629907591875,26.305664,0.1,329.3078,1694115597448,,,,
Fix,GT,37.7417222000,-122.1448045000,-1.9046131042032357,26.287031,0.1,329.38864,1694115598448,,,,
Fix,GT,37.7419268000,-122.1449573000,-1.5546130139684422,26.605213,0.1,329.02945,1694115599448,,,,
Fix,GT,37.7421335000,-122.1451155000,-1.2170504978666656,27.054821,0.1,328.30206,1694115600448,,,,
Fix,GT,37.7423412000,-122.1452809000,-0.8914378650322838,27.485973,0.1,326.74927,1694115601448,,,,
Fix,GT,37.7425448000,-122.1454569000,-0.6464127742620072,27.233667,0.1,324.36633,1694115602448,,,,
Fix,GT,37.7427406000,-122.1456399000,-0.5023377236319568,26.916664,0.1,322.26715,1694115603448,,,,
Fix,GT,37.7429290000,-122.1458324000,-0.36628764148323967,26.997643,0.1,319.5348,1694115604448,,,,
Fix,GT,37.7431111000,-122.1460377000,-0.15602539282035188,27.209438,0.1,316.842,1694115605448,,,,
Fix,GT,37.7432868000,-122.1462546000,0.1948995433720082,27.377262,0.1,314.20776,1694115606448,,,,
Fix,GT,37.7434562000,-122.1464815000,0.5348244722426472,27.485855,0.1,312.33688,1694115607448,,,,
Fix,GT,37.7436212000,-122.1467132000,0.9841367764900184,27.284727,0.1,311.41132,1694115608448,,,,
Fix,GT,37.7437830000,-122.1469424000,1.5814241362497086,26.758022,0.1,311.87445,1694115609448,,,,
Fix,GT,37.7439427000,-122.1471654000,2.2984492737096502,26.153389,0.1,311.84937,1694115610448,,,,
Fix,GT,37.7440990000,-122.1473828000,3.0579366629083964,25.543121,0.1,312.05252,1694115611448,,,,
Fix,GT,37.7442524000,-122.1475942000,3.785936706877237,24.972288,0.1,312.44644,1694115612448,,,,
Fix,GT,37.7444054000,-122.1477992000,4.546836575640754,24.65157,0.1,313.8705,1694115613448,,,,
Fix,GT,37.7445625000,-122.1479942000,5.4027865909826005,24.339672,0.1,316.34692,1694115614448,,,,
Fix,GT,37.7447237000,-122.1481796000,6.235374334310848,24.165287,0.1,318.4418,1694115615448,,,,
Fix,GT,37.7448903000,-122.1483558000,6.979961647217351,24.248787,0.1,320.9342,1694115616448,,,,
Fix,GT,37.7450646000,-122.1485250000,7.647599719237277,24.634745,0.1,323.32355,1694115617448,,,,
Fix,GT,37.7452477000,-122.1486871000,8.20601127828192,25.080576,0.1,325.9784,1694115618448,,,,
Fix,GT,37.7454392000,-122.1488422000,8.790262559627536,25.401718,0.1,328.20895,1694115619448,,,,
Fix,GT,37.7456354000,-122.1489863000,9.226849465847295,25.012783,0.1,330.81287,1694115620448,,,,
Fix,GT,37.7458330000,-122.1491166000,9.58794958963017,24.535915,0.1,333.36688,1694115621448,,,,
Fix,GT,37.7460324000,-122.1492355000,9.856050078568245,24.543003,0.1,335.51895,1694115622448,,,,
Fix,GT,37.7462360000,-122.1493463000,10.221237408393478,24.692062,0.1,337.2989,1694115623448,,,,
Fix,GT,37.7464429000,-122.1494507000,10.731236569800728,24.804516,0.1,338.62732,1694115624448,,,,
Fix,GT,37.7466524000,-122.1495515000,11.038125012256614,25.003698,0.1,338.86768,1694115625448,,,,
Fix,GT,37.7468634000,-122.1496544000,11.159200189415685,25.235409,0.1,338.56107,1694115626448,,,,
Fix,GT,37.7470762000,-122.1497586000,11.284199525905763,25.44492,0.1,338.60544,1694115627448,,,,
Fix,GT,37.7472909000,-122.1498635000,11.419612291741146,25.65541,0.1,338.70563,1694115628448,,,,
Fix,GT,37.7475059000,-122.1499680000,11.628537392915746,25.44143,0.1,338.7127,1694115629448,,,,
Fix,GT,37.7477192000,-122.1500722000,11.916974838366514,25.376045,0.1,338.6491,1694115630448,,,,
Fix,GT,37.7479327000,-122.1501766000,12.280337683433572,25.505531,0.1,338.66763,1694115631448,,,,
Fix,GT,37.7481477000,-122.1502816000,12.735187590524845,25.661198,0.1,338.65067,1694115632448,,,,
Fix,GT,37.7483640000,-122.1503869000,13.281161840040312,25.815329,0.1,338.78787,1694115633448,,,,
Fix,GT,37.7485812000,-122.1504924000,13.901474816440384,25.816965,0.1,338.71906,1694115634448,,,,
Fix,GT,37.7487962000,-122.1505974000,14.605449845218004,25.31922,0.1,338.76132,1694115635448,,,,
Fix,GT,37.7490064000,-122.1506997000,15.322962591004284,24.708973,0.1,338.71158,1694115636448,,,,
Fix,GT,37.7492124000,-122.1508004000,16.002986979055777,24.458889,0.1,338.5566,1694115637448,,,,
Fix,GT,37.7494175000,-122.1509014000,16.696011804415207,24.419758,0.1,338.4988,1694115638448,,,,
Fix,GT,37.7496223000,-122.1510020000,17.38950035295511,24.38958,0.1,338.5175,1694115639448,,,,
Fix,GT,37.7498267000,-122.1511027000,18.04557605582943,24.258022,0.1,338.47348,1694115640448,,,,
Fix,GT,37.7500289000,-122.1512011000,18.513387198343196,23.848614,0.1,338.9561,1694115641448,,,,
Fix,GT,37.7502283000,-122.1512947000,18.848950010683666,23.39189,0.1,339.72885,1694115642448,,,,
Fix,GT,37.7504249000,-122.1513822000,19.156413388073133,22.922218,0.1,341.13193,1694115643448,,,,
Fix,GT,37.7506203000,-122.1514560000,19.60075089798056,22.397491,0.1,345.33588,1694115644448,,,,
Fix,GT,37.7508151000,-122.1515080000,20.061311630838475,21.871834,0.1,349.9272,1694115645448,,,,
Fix,GT,37.7510080000,-122.1515421000,20.45443781939423,21.40746,0.1,353.47974,1694115646448,,,,
Fix,GT,37.7511979000,-122.1515628000,20.764512593582367,20.96389,0.1,355.88104,1694115647448,,,,
Fix,GT,37.7513846000,-122.1515748000,21.04543682446223,20.531551,0.1,357.6695,1694115648448,,,,
Fix,GT,37.7515675000,-122.1515794000,21.32197563326679,20.12085,0.1,359.41043,1694115649448,,,,
Fix,GT,37.7517467000,-122.1515752000,21.5425627909205,19.653656,0.1,2.046185,1694115650448,,,,
Fix,GT,37.7519212000,-122.1515611000,21.73476246865971,19.221088,0.1,4.7761064,1694115651448,,,,
Fix,GT,37.7520914000,-122.1515368000,21.872974687320095,18.84118,0.1,7.083655,1694115652448,,,,
Fix,GT,37.7522579000,-122.1515061000,21.88445041672213,18.538603,0.1,9.012207,1694115653448,,,,
Fix,GT,37.7524195000,-122.1514685000,21.660387339965382,17.821642,0.1,11.529726,1694115654448,,,,
Fix,GT,37.7525704000,-122.1514236000,21.29594970265589,16.619688,0.1,14.286705,1694115655448,,,,
Fix,GT,37.7527073000,-122.1513739000,20.786098751449288,14.998419,0.1,17.040075,1694115656448,,,,
Fix,GT,37.7528262000,-122.1513228000,20.192074515957984,12.675467,0.1,19.642262,1694115657448,,,,
Fix,GT,37.7529207000,-122.1512761000,19.632974552502333,9.911709,0.1,22.044352,1694115658448,,,,
Fix,GT,37.7529915000,-122.1512365000,19.11890020938398,7.4669347,0.1,24.365812,1694115659448,,,,
Fix,GT,37.7530448000,-122.1512041000,18.678850641312067,5.8295364,0.1,25.817194,1694115660448,,,,
Fix,GT,37.7530868000,-122.1511773000,18.317262420936345,4.7340555,0.1,26.797096,1694115661448,,,,
Fix,GT,37.7531249000,-122.1511523000,17.987749180416472,4.967286,0.1,27.452562,1694115662448,,,,
Fix,GT,37.7531669000,-122.1511242000,17.64277481886552,5.7850204,0.1,27.966112,1694115663448,,,,
Fix,GT,37.7532151000,-122.1510905000,17.326699467098535,6.3195066,0.1,29.275026,1694115664448,,,,
Fix,GT,37.7532646000,-122.1510541000,17.107036991841596,6.3900633,0.1,30.418135,1694115665448,,,,
Fix,GT,37.7533141000,-122.1510162000,16.975962509217652,6.5289774,0.1,31.324356,1694115666448,,,,
Fix,GT,37.7533660000,-122.1509775000,16.979836804586853,6.772998,0.1,29.81661,1694115667448,,,,
Fix,GT,37.7534222000,-122.1509491000,17.0672749478897,6.518443,0.1,18.595713,1694115668448,,,,
Fix,GT,37.7534799000,-122.1509402000,17.0998881190028,6.2544518,0.1,3.4514437,1694115669448,,,,
Fix,GT,37.7535349000,-122.1509530000,17.098324587737352,6.046301,0.1,344.93594,1694115670448,,,,
Fix,GT,37.7535827000,-122.1509893000,17.050425113360916,6.3592496,0.1,325.165,1694115671448,,,,
Fix,GT,37.7536245000,-122.1510466000,16.989036921986553,7.254273,0.1,309.59988,1694115672448,,,,
Fix,GT,37.7536640000,-122.1511190000,16.85649978550373,8.125813,0.1,303.6714,1694115673448,,,,
Fix,GT,37.7537062000,-122.1511996000,16.758525164438197,8.860113,0.1,303.4517,1694115674448,,,,
Fix,GT,37.7537525000,-122.1512859000,16.623599349809183,9.392699,0.1,303.95676,1694115675448,,,,
Fix,GT,37.7538002000,-122.1513739000,16.48562381628699,9.352814,0.1,304.1399,1694115676448,,,,
Fix,GT,37.7538456000,-122.1514631000,16.373011255001927,9.290016,0.1,300.9159,1694115677448,,,,
Fix,GT,37.7538836000,-122.1515570000,16.25349912675165,9.230835,0.1,295.58542,1694115678448,,,,
Fix,GT,37.7539195000,-122.1516484000,16.1518636826342,8.568674,0.1,297.11508,1694115679448,,,,
Fix,GT,37.7539549000,-122.1517255000,16.050400574921127,7.086913,0.1,300.94794,1694115680448,,,,
Fix,GT,37.7539850000,-122.1517831000,15.971962743337372,4.976346,0.1,303.5539,1694115681448,,,,
Fix,GT,37.7540042000,-122.1518184000,15.932450017366591,2.6065574,0.1,304.1226,1694115682448,,,,
Fix,GT,37.7540134000,-122.1518355000,15.888888137817446,1.1720922,0.1,304.12018,1694115683448,,,,
Fix,GT,37.7540160000,-122.1518405000,15.878375217933467,0.05099064,0.1,304.03906,1694115684448,,,,
Fix,GT,37.7540160000,-122.1518404000,15.87535047159642,0.001,0.1,304.04385,1694115685448,,,,
Fix,GT,37.7540160000,-122.1518404000,15.875349998474121,0.0016026052,0.1,304.04108,1694115686448,,,,
Fix,GT,37.7540160000,-122.1518404000,15.867349624633789,0.0004875181,0.1,304.04022,1694115687448,,,,
Fix,GT,37.7540160000,-122.1518404000,15.865349769592285,0.00048751832,0.1,304.04028,1694115688448,,,,
Fix,GT,37.7540160000,-122.1518404000,15.864350318908691,0.0,0.1,304.04044,1694115689448,,,,
Fix,GT,37.7540160000,-122.1518404000,15.864350318908691,0.0,0.1,304.0404,1694115690448,,,,
Fix,GT,37.7540160000,-122.1518404000,15.864862518487826,0.00051248114,0.1,304.04034,1694115691448,,,,
Fix,GT,37.7540160000,-122.1518404000,15.864350318908691,0.0,0.1,304.04022,1694115692448,,,,
Fix,GT,37.7540160000,-122.1518404000,15.864350791703174,0.001,0.1,304.04013,1694115693448,,,,
Fix,GT,37.7540160000,-122.1518403000,15.864350318908691,0.001,0.1,304.04016,1694115694448,,,,
Fix,GT,37.7540162000,-122.1518408000,15.855374503759919,0.2605363,0.1,304.03467,1694115695448,,,,
Fix,GT,37.7540211000,-122.1518498000,15.826887380916673,1.8923423,0.1,303.92596,1694115696448,,,,
Fix,GT,37.7540353000,-122.1518765000,15.782399991212856,3.7291439,0.1,303.83072,1694115697448,,,,
Fix,GT,37.7540574000,-122.1519204000,15.702961711888605,5.4076395,0.1,301.76627,1694115698448,,,,
Fix,GT,37.7540802000,-122.1519858000,15.573549634727442,7.021716,0.1,290.71982,1694115699448,,,,
Fix,GT,37.7540878000,-122.1520718000,15.480449857608733,7.9535923,0.1,270.11517,1694115700448,,,,
Fix,GT,37.7540686000,-122.1521643000,15.574563052168514,8.820432,0.1,250.97272,1694115701448,,,,
Fix,GT,37.7540309000,-122.1522616000,15.824537641477008,10.176815,0.1,240.82407,1694115702448,,,,
Fix,GT,37.7539787000,-122.1523646000,16.296476902369648,11.293364,0.1,236.21283,1694115703448,,,,
Fix,GT,37.7539149000,-122.1524715000,17.074252186401168,12.23044,0.1,229.83249,1694115704448,,,,
Fix,GT,37.7538325000,-122.1525684000,18.01605095494739,12.4286175,0.1,219.96822,1694115705448,,,,
Fix,GT,37.7537466000,-122.1526532000,18.888450942987788,11.652527,0.1,216.9441,1694115706448,,,,
Fix,GT,37.7536673000,-122.1527232000,19.724325642317353,9.677691,0.1,213.68288,1694115707448,,,,
Fix,GT,37.7535992000,-122.1527755000,20.40950198169702,8.04411,0.1,210.34831,1694115708448,,,,
Fix,GT,37.7535417000,-122.1528155000,20.97518942907959,6.544261,0.1,208.33784,1694115709448,,,,
Fix,GT,37.7534943000,-122.1528469000,21.541214384144666,5.367549,0.1,207.46486,1694115710448,,,,
Fix,GT,37.7534548000,-122.1528723000,21.99531310578095,4.7342367,0.1,206.53203,1694115711448,,,,
Fix,GT,37.7534166000,-122.1528949000,22.454951335544308,4.3726654,0.1,204.07251,1694115712448,,,,
Fix,GT,37.7533833000,-122.1529091000,22.838438279030925,3.3960657,0.1,197.6346,1694115713448,,,,
Fix,GT,37.7533557000,-122.1529115000,23.104100578035627,2.7103636,0.1,185.03966,1694115714448,,,,
Fix,GT,37.7533260000,-122.1529014000,23.344875210144664,4.212653,0.1,166.78902,1694115715448,,,,
Fix,GT,37.7532856000,-122.1528671000,23.639200235250655,6.3582573,0.1,143.78728,1694115716448,,,,
Fix,GT,37.7532401000,-122.1528033000,23.718300510208792,8.547323,0.1,129.41931,1694115717448,,,,
Fix,GT,37.7531886000,-122.1527151000,23.721861910404186,10.684979,0.1,126.129105,1694115718448,,,,
Fix,GT,37.7531253000,-122.1526112000,23.615423901509985,12.470301,0.1,128.13936,1694115719448,,,,
Fix,GT,37.7530448000,-122.1525000000,23.7554132021628,14.040326,0.1,134.94069,1694115720448,,,,
Fix,GT,37.7529430000,-122.1523942000,24.27513849222038,15.364027,0.1,143.97397,1694115721448,,,,
Fix,GT,37.7528192000,-122.1523034000,24.93106450340065,16.496925,0.1,153.00812,1694115722448,,,,
Fix,GT,37.7526771000,-122.1522291000,25.473750416551013,17.75632,0.1,159.86362,1694115723448,,,,
Fix,GT,37.7525191000,-122.1521684000,25.92251283088808,18.996796,0.1,165.47528,1694115724448,,,,
Fix,GT,37.7523454000,-122.1521302000,26.175101470760694,20.249947,0.1,173.95601,1694115725448,,,,
Fix,GT,37.7521580000,-122.1521178000,26.044848658538285,21.451706,0.1,178.67685,1694115726448,,,,
Fix,GT,37.7519599000,-122.1521148000,25.68674906116439,22.533539,0.1,180.05931,1694115727448,,,,
Fix,GT,37.7517520000,-122.1521126000,25.319723718853368,23.587303,0.1,178.90785,1694115728448,,,,
Fix,GT,37.7515351000,-122.1521002000,24.97309855033359,24.611074,0.1,176.15329,1694115729448,,,,
Fix,GT,37.7513096000,-122.1520724000,24.54697415771102,25.609798,0.1,172.83894,1694115730448,,,,
Fix,GT,37.7510775000,-122.1520272000,24.06207331985206,26.525784,0.1,169.74477,1694115731448,,,,
Fix,GT,37.7508390000,-122.1519644000,23.445735588570187,27.606644,0.1,166.9408,1694115732448,,,,
Fix,GT,37.7505907000,-122.1518839000,22.782711470430513,29.25893,0.1,163.84666,1694115733448,,,,
Fix,GT,37.7503326000,-122.1517791000,21.88477070628886,30.944527,0.1,160.29317,1694115734448,,,,
Fix,GT,37.7500662000,-122.1516495000,20.578196231965762,32.079456,0.1,157.4546,1694115735448,,,,
Fix,GT,37.7497989000,-122.1515081000,19.129634733243847,32.26281,0.1,156.8759,1694115736448,,,,
Fix,GT,37.7495301000,-122.1513680000,17.74743312292844,32.295876,0.1,157.87764,1694115737448,,,,
Fix,GT,37.7492603000,-122.1512324000,16.69191045895502,32.20452,0.1,158.3442,1694115738448,,,,
Fix,GT,37.7489907000,-122.1510997000,15.790547882294902,32.044235,0.1,158.73465,1694115739448,,,,
Fix,GT,37.7487222000,-122.1509687000,14.895984786986219,31.877483,0.1,158.71408,1694115740448,,,,
Fix,GT,37.7484549000,-122.1508386000,14.00344835194582,31.737516,0.1,158.72833,1694115741448,,,,
Fix,GT,37.7481886000,-122.1507084000,13.254147644547572,31.689896,0.1,158.55968,1694115742448,,,,
Fix,GT,37.7479229000,-122.1505778000,12.585560786517078,31.637136,0.1,158.55505,1694115743448,,,,
Fix,GT,37.7476576000,-122.1504476000,12.075435826696832,31.563059,0.1,158.59218,1694115744448,,,,
Fix,GT,37.7473928000,-122.1503183000,11.69679911000253,31.436064,0.1,158.72359,1694115745448,,,,
Fix,GT,37.7471291000,-122.1501900000,11.42957474689095,31.333996,0.1,158.71793,1694115746448,,,,
Fix,GT,37.7468669000,-122.1500620000,11.273599228608191,31.061749,0.1,158.81958,1694115747448,,,,
Fix,GT,37.7466071000,-122.1499357000,11.247025576176355,30.732325,0.1,158.72926,1694115748448,,,,
Fix,GT,37.7463510000,-122.1498101000,11.529975667190882,30.282303,0.1,158.58098,1694115749448,,,,
Fix,GT,37.7460995000,-122.1496832000,11.825050441078815,29.855413,0.1,157.43082,1694115750448,,,,
Fix,GT,37.7458543000,-122.1495486000,11.790211499039856,29.536953,0.1,155.11545,1694115751448,,,,
Fix,GT,37.7456164000,-122.1494010000,11.459386269552851,29.31414,0.1,152.25955,1694115752448,,,,
Fix,GT,37.7453859000,-122.1492403000,10.979361309650983,29.151508,0.1,149.57909,1694115753448,,,,
Fix,GT,37.7451632000,-122.1490666000,10.543785256588933,28.978546,0.1,146.88506,1694115754448,,,,
Fix,GT,37.7449476000,-122.1488819000,9.893511047400125,28.88049,0.1,144.37422,1694115755448,,,,
Fix,GT,37.7447402000,-122.1486848000,9.179372589172146,28.789028,0.1,141.40892,1694115756448,,,,
Fix,GT,37.7445409000,-122.1484758000,8.383447713773307,28.750381,0.1,138.94615,1694115757448,,,,
Fix,GT,37.7443488000,-122.1482570000,7.4253480007546955,28.742764,0.1,136.62166,1694115758448,,,,
Fix,GT,37.7441653000,-122.1480266000,6.420434050320765,28.774227,0.1,133.79564,1694115759448,,,,
Fix,GT,37.7439882000,-122.1477873000,5.0473212748514555,28.896244,0.1,132.22498,1694115760448,,,,
Fix,GT,37.7438137000,-122.1475425000,3.5911713533901093,29.054901,0.1,131.52283,1694115761448,,,,
Fix,GT,37.7436396000,-122.1472955000,2.144659010221531,29.181519,0.1,131.5436,1694115762448,,,,
Fix,GT,37.7434639000,-122.1470481000,0.7469967316351891,29.30912,0.1,131.85347,1694115763448,,,,
Fix,GT,37.7432861000,-122.1468017000,-0.44127767209150726,29.356339,0.1,132.32625,1694115764448,,,,
Fix,GT,37.7431061000,-122.1465582000,-1.4397018752404982,29.297302,0.1,133.47946,1694115765448,,,,
Fix,GT,37.7429198000,-122.1463245000,-1.9881510500898685,29.093105,0.1,136.57141,1694115766448,,,,
Fix,GT,37.7427257000,-122.1461051000,-2.258912984181734,28.810638,0.1,139.2429,1694115767448,,,,
Fix,GT,37.7425259000,-122.1458998000,-2.390425461748265,28.494457,0.1,142.2635,1694115768448,,,,
Fix,GT,37.7423195000,-122.1457108000,-2.5395253200528742,28.181671,0.1,145.16418,1694115769448,,,,
Fix,GT,37.7421092000,-122.1455354000,-2.554799785945818,27.87312,0.1,147.61157,1694115770448,,,,
Fix,GT,37.7418955000,-122.1453709000,-2.4567248782386457,27.75539,0.1,149.07088,1694115771448,,,,
Fix,GT,37.7416804000,-122.1452110000,-2.377749833729297,27.663097,0.1,149.37978,1694115772448,,,,
Fix,GT,37.7414664000,-122.1450514000,-2.294187425338734,27.573954,0.1,149.16763,1694115773448,,,,
Fix,GT,37.7412533000,-122.1448914000,-2.2207497707867674,27.48498,0.1,149.00774,1694115774448,,,,
Fix,GT,37.7410414000,-122.1447312000,-2.1272871853012845,27.382748,0.1,149.08647,1694115775448,,,,
Fix,GT,37.7408300000,-122.1445725000,-1.971386985849108,27.270191,0.1,149.16719,1694115776448,,,,
Fix,GT,37.7406194000,-122.1444119000,-1.6646117058012635,27.415346,0.1,148.28267,1694115777448,,,,
Fix,GT,37.7404104000,-122.1442441000,-1.2022739218677998,27.582897,0.1,146.54877,1694115778448,,,,
Fix,GT,37.7402049000,-122.1440666000,-0.7067364308584203,27.720997,0.1,144.31384,1694115779448,,,,
Fix,GT,37.7400054000,-122.1438765000,-0.07849844537484252,27.750748,0.1,141.38872,1694115780448,,,,
Fix,GT,37.7398143000,-122.1436735000,0.6444267071366525,27.737226,0.1,138.36174,1694115781448,,,,
Fix,GT,37.7396304000,-122.1434602000,1.2770889336714646,27.758015,0.1,135.95268,1694115782448,,,,
Fix,GT,37.7394531000,-122.1432385000,1.8831887083509606,27.586983,0.1,134.54463,1694115783448,,,,
Fix,GT,37.7392803000,-122.1430174000,2.4631388411899735,27.115612,0.1,134.64961,1694115784448,,,,
Fix,GT,37.7391088000,-122.1428004000,3.041138804051066,26.881618,0.1,134.82115,1694115785448,,,,
Fix,GT,37.7389382000,-122.1425854000,3.5641887364739375,26.712585,0.1,134.85635,1694115786448,,,,
Fix,GT,37.7387686000,-122.1423715000,4.000363421260559,26.584568,0.1,134.73253,1694115787448,,,,
Fix,GT,37.7385997000,-122.1421583000,4.337950743819675,26.483744,0.1,134.7915,1694115788448,,,,
Fix,GT,37.7384308000,-122.1419468000,4.586637658394878,26.416275,0.1,135.2236,1694115789448,,,,
Fix,GT,37.7382583000,-122.1417406000,4.7206127537276785,26.390553,0.1,137.58318,1694115790448,,,,
Fix,GT,37.7380783000,-122.1415455000,4.925487877769783,26.35571,0.1,140.56113,1694115791448,,,,
Fix,GT,37.7378905000,-122.1413626000,5.10471293571176,26.398907,0.1,143.44492,1694115792448,,,,
Fix,GT,37.7376954000,-122.1411909000,5.212737784966123,26.496384,0.1,146.46452,1694115793448,,,,
Fix,GT,37.7374920000,-122.1410325000,5.152374751447212,26.642803,0.1,149.54507,1694115794448,,,,
Fix,GT,37.7372814000,-122.1408861000,5.0440868979696205,26.80265,0.1,152.43965,1694115795448,,,,
Fix,GT,37.7370639000,-122.1407520000,4.834799362940316,26.987734,0.1,155.1531,1694115796448,,,,
Fix,GT,37.7368395000,-122.1406312000,4.527336676131966,27.231857,0.1,158.1265,1694115797448,,,,
Fix,GT,37.7366082000,-122.1405239000,4.158287041369249,27.5261,0.1,161.32747,1694115798448,,,,
Fix,GT,37.7363697000,-122.1404331000,3.7892618899585386,27.823341,0.1,164.63704,1694115799448,,,,
Fix,GT,37.7361254000,-122.1403575000,3.555474635531205,28.058743,0.1,167.27135,1694115800448,,,,
Fix,GT,37.7358771000,-122.1402933000,3.496474623222845,28.219036,0.1,169.18596,1694115801448,,,,
Fix,GT,37.7356263000,-122.1402358000,3.4250122251150685,28.388828,0.1,169.85916,1694115802448,,,,
Fix,GT,37.7353728000,-122.1401795000,3.213211894046381,28.767872,0.1,169.84451,1694115803448,,,,
Fix,GT,37.7351159000,-122.1401219000,2.849286730431068,29.145172,0.1,169.73778,1694115804448,,,,
Fix,GT,37.7348557000,-122.1400630000,2.4758741963852486,29.548735,0.1,169.52919,1694115805448,,,,
Fix,GT,37.7345922000,-122.1400022000,2.1565364175917594,29.907375,0.1,169.57942,1694115806448,,,,
Fix,GT,37.7343258000,-122.1399416000,1.778799302267771,30.14213,0.1,169.65138,1694115807448,,,,
Fix,GT,37.7340591000,-122.1398817000,1.4919374292960619,29.934742,0.1,169.83798,1694115808448,,,,
Fix,GT,37.7337952000,-122.1398226000,1.5461752660739876,29.571789,0.1,169.7682,1694115809448,,,,
Fix,GT,37.7335338000,-122.1397631000,1.7575629775286075,29.40989,0.1,169.36351,1694115810448,,,,
Fix,GT,37.7332736000,-122.1397007000,1.9782002629973974,29.381382,0.1,168.94826,1694115811448,,,,
Fix,GT,37.7330138000,-122.1396365000,2.071300113168917,29.403358,0.1,168.7353,1694115812448,,,,
Fix,GT,37.7327537000,-122.1395715000,2.110862576891293,29.459885,0.1,168.73178,1694115813448,,,,
Fix,GT,37.7324932000,-122.1395055000,2.1537876657267816,29.528597,0.1,168.22102,1694115814448,,,,
Fix,GT,37.7322326000,-122.1394360000,2.188350027452408,29.614407,0.1,167.7239,1694115815448,,,,
Fix,GT,37.7319716000,-122.1393634000,2.160987301140956,29.729595,0.1,167.28197,1694115816448,,,,
Fix,GT,37.7317097000,-122.1392895000,2.04198728083513,29.82373,0.1,167.2867,1694115817448,,,,
Fix,GT,37.7314476000,-122.1392150000,1.9114748405219757,29.809437,0.1,167.07045,1694115818448,,,,
Fix,GT,37.7311859000,-122.1391400000,1.8832500899198408,29.752098,0.1,167.06845,1694115819448,,,,
Fix,GT,37.7309249000,-122.1390658000,1.9135247514973344,29.663876,0.1,167.16927,1694115820448,,,,
Fix,GT,37.7306646000,-122.1389920000,1.9657376451383612,29.549244,0.1,167.12311,1694115821448,,,,
