% program   : RTKLIB ver.demo5 gdsc_2022
% inp file  : supplemental\gnss_log.obs
% inp file  : ..\slac2500.23o
% inp file  : ..\BRDM00DLR_S_20232500000_01D_MN.rnx
% obs start : 2023/09/07 19:33:44.4 GPST (week2278 416024.4s)
% obs end   : 2023/09/07 19:51:50.4 GPST (week2278 417110.4s)
% pos mode  : Kinematic
% freqs     : L1+L2/E5b+L5
% solution  : Combined-No Phase Reset
% elev mask : 5.0 deg
% dynamics  : on
% tidecorr  : off
% ionos opt : Broadcast
% tropo opt : Saastamoinen
% ephemeris : Broadcast
% navi sys  : GPS GLONASS Galileo
% amb res   : OFF
% amb glo   : OFF
% val thres : 3.0
% antenna1  :                       ( 0.0000  0.0000  0.0000)
% antenna2  :                       ( 0.0000  0.0000  0.0000)
% ref pos   : 37.416519040-122.204268280   63.7780
%
% (lat/lon/height=WGS84/ellipsoidal,Q=1:fix,2:float,3:sbas,4:dgps,5:single,6:ppp,ns=# of satellites)
%  GPST          latitude(deg) longitude(deg)  height(m)   Q  ns   sdn(m)   sde(m)   sdu(m)  sdne(m)  sdeu(m)  sdun(m) age(s)  ratio
2278 416024.434   37.692217145 -122.088409808    18.9181   2  13   0.0491   0.0439   0.0955  -0.0174  -0.0389   0.0261  14.43    0.0
2278 416025.434   37.692217191 -122.088409558    18.9537   2  13   0.0492   0.0439   0.0956  -0.0176  -0.0388   0.0264 -14.57    0.0
2278 416026.434   37.692217242 -122.088409482    18.9403   2  18   0.0491   0.0438   0.0954  -0.0176  -0.0387   0.0262 -13.57    0.0
2278 416027.434   37.692216684 -122.088410100    19.0394   2  17   0.0490   0.0437   0.0950  -0.0181  -0.0390   0.0257 -12.57    0.0
2278 416028.434   37.692216659 -122.088410319    19.0689   2  14   0.0490   0.0436   0.0947  -0.0180  -0.0389   0.0258 -11.57    0.0
2278 416029.434   37.692217063 -122.088410045    19.0526   2  17   0.0491   0.0436   0.0951  -0.0180  -0.0390   0.0256 -10.57    0.0
2278 416030.434   37.692216912 -122.088410000    19.0263   2  16   0.0491   0.0436   0.0943  -0.0180  -0.0386   0.0258  -9.57    0.0
2278 416031.434   37.692216885 -122.088409962    19.0248   2  17   0.0492   0.0436   0.0943  -0.0180  -0.0385   0.0258  -8.57    0.0
2278 416032.434   37.692216601 -122.088410349    19.0802   2  12   0.0493   0.0436   0.0943  -0.0181  -0.0386   0.0259  -7.57    0.0
2278 416033.434   37.692216867 -122.088409882    19.0135   2  15   0.0494   0.0436   0.0941  -0.0181  -0.0384   0.0258  -6.57    0.0
2278 416034.434   37.692216841 -122.088409946    19.0122   2  14   0.0496   0.0437   0.0942  -0.0182  -0.0385   0.0260  -5.57    0.0
2278 416035.434   37.692216637 -122.088409504    19.0021   2  13   0.0499   0.0439   0.0945  -0.0184  -0.0386   0.0262  -4.57    0.0
2278 416036.434   37.692216089 -122.088406842    19.0398   2  17   0.0499   0.0438   0.0945  -0.0180  -0.0385   0.0262  -3.57    0.0
2278 416037.434   37.692215059 -122.088400884    19.0492   2  17   0.0499   0.0438   0.0948  -0.0176  -0.0388   0.0262  -2.57    0.0
2278 416038.434   37.692214967 -122.088390492    19.0447   2  17   0.0502   0.0437   0.0952  -0.0167  -0.0384   0.0256  -1.57    0.0
2278 416039.434   37.692212971 -122.088379010    19.0604   2  15   0.0496   0.0428   0.0939  -0.0170  -0.0385   0.0249  -0.57    0.0
2278 416040.434   37.692211823 -122.088375724    19.0439   2  16   0.0492   0.0427   0.0938  -0.0162  -0.0384   0.0246   0.43    0.0
2278 416041.434   37.692211934 -122.088375708    19.0249   2  12   0.0489   0.0427   0.0938  -0.0160  -0.0384   0.0247   1.43    0.0
2278 416042.434   37.692213857 -122.088378360    18.9627   2  17   0.0485   0.0428   0.0937  -0.0152  -0.0379   0.0239   2.43    0.0
2278 416043.434   37.692225478 -122.088388770    18.9094   2  16   0.0484   0.0427   0.0937  -0.0156  -0.0382   0.0238   3.43    0.0
2278 416044.434   37.692248604 -122.088405747    18.8429   2  17   0.0481   0.0426   0.0938  -0.0162  -0.0388   0.0230   4.43    0.0
2278 416045.434   37.692283920 -122.088423587    18.8723   2  18   0.0480   0.0424   0.0932  -0.0162  -0.0386   0.0229   5.43    0.0
2278 416046.434   37.692329533 -122.088435633    18.7865   2  19   0.0480   0.0424   0.0928  -0.0163  -0.0383   0.0232   6.43    0.0
2278 416047.434   37.692378340 -122.088444693    18.7068   2  16   0.0481   0.0423   0.0928  -0.0164  -0.0382   0.0233   7.43    0.0
2278 416048.434   37.692434829 -122.088461222    18.5578   2  20   0.0479   0.0423   0.0925  -0.0163  -0.0381   0.0232   8.43    0.0
2278 416049.434   37.692496550 -122.088491864    18.3548   2  19   0.0481   0.0423   0.0926  -0.0163  -0.0381   0.0233   9.43    0.0
2278 416050.434   37.692558726 -122.088530191    18.1708   2  16   0.0483   0.0423   0.0927  -0.0168  -0.0381   0.0237  10.43    0.0
2278 416051.434   37.692620751 -122.088573100    18.0192   2  15   0.0483   0.0424   0.0929  -0.0168  -0.0383   0.0238  11.43    0.0
2278 416052.434   37.692682320 -122.088617600    17.9025   2  17   0.0480   0.0423   0.0926  -0.0165  -0.0382   0.0235  12.43    0.0
2278 416053.434   37.692743657 -122.088662936    17.7237   2  17   0.0478   0.0423   0.0926  -0.0161  -0.0381   0.0229  13.43    0.0
2278 416054.434   37.692802854 -122.088707850    17.5730   2  18   0.0477   0.0422   0.0924  -0.0161  -0.0380   0.0228  14.43    0.0
2278 416055.434   37.692855834 -122.088746315    17.4491   2  17   0.0478   0.0422   0.0922  -0.0162  -0.0378   0.0230 -14.57    0.0
2278 416056.434   37.692902955 -122.088774642    17.3742   2  20   0.0476   0.0421   0.0922  -0.0160  -0.0378   0.0227 -13.57    0.0
2278 416057.434   37.692947947 -122.088785291    17.3321   2  18   0.0476   0.0421   0.0920  -0.0161  -0.0378   0.0231 -12.57    0.0
2278 416058.434   37.692991831 -122.088784783    17.3134   2  20   0.0477   0.0422   0.0923  -0.0160  -0.0380   0.0231 -11.57    0.0
2278 416059.434   37.693027539 -122.088787270    17.1889   2  15   0.0477   0.0422   0.0922  -0.0161  -0.0380   0.0232 -10.57    0.0
2278 416060.434   37.693052671 -122.088792126    17.1539   2  15   0.0474   0.0422   0.0923  -0.0157  -0.0380   0.0229  -9.57    0.0
2278 416061.434   37.693067635 -122.088796793    17.0145   2  17   0.0474   0.0422   0.0926  -0.0157  -0.0381   0.0222  -8.57    0.0
2278 416062.434   37.693075815 -122.088799152    16.9706   2  13   0.0476   0.0422   0.0926  -0.0159  -0.0381   0.0222  -7.57    0.0
2278 416063.434   37.693077908 -122.088799715    16.9240   2  16   0.0471   0.0419   0.0914  -0.0149  -0.0371   0.0200  -6.57    0.0
2278 416064.434   37.693078486 -122.088800178    17.0125   2  14   0.0472   0.0419   0.0914  -0.0149  -0.0371   0.0197  -5.57    0.0
2278 416065.434   37.693078751 -122.088800375    17.0171   2  12   0.0469   0.0418   0.0908  -0.0147  -0.0369   0.0203  -4.57    0.0
2278 416066.434   37.693083635 -122.088802048    16.9856   2  15   0.0469   0.0418   0.0911  -0.0147  -0.0369   0.0202  -3.57    0.0
2278 416067.434   37.693095034 -122.088806566    16.8369   2  16   0.0467   0.0418   0.0905  -0.0147  -0.0368   0.0207  -2.57    0.0
2278 416068.434   37.693110485 -122.088813244    16.7351   2  15   0.0467   0.0418   0.0902  -0.0146  -0.0368   0.0213  -1.57    0.0
2278 416069.434   37.693124549 -122.088821187    16.8723   2  17   0.0468   0.0419   0.0904  -0.0147  -0.0368   0.0211  -0.57    0.0
2278 416070.434   37.693137475 -122.088830488    17.0042   2  17   0.0465   0.0418   0.0901  -0.0144  -0.0362   0.0212   0.43    0.0
2278 416071.434   37.693149515 -122.088844265    17.1047   2  20   0.0465   0.0419   0.0901  -0.0144  -0.0363   0.0209   1.43    0.0
2278 416072.434   37.693157798 -122.088862208    17.1040   2  20   0.0465   0.0419   0.0898  -0.0145  -0.0363   0.0210   2.43    0.0
2278 416073.434   37.693160539 -122.088877511    17.0443   2  19   0.0465   0.0419   0.0899  -0.0149  -0.0366   0.0205   3.43    0.0
2278 416074.434   37.693161761 -122.088893835    16.9691   2  14   0.0460   0.0417   0.0896  -0.0147  -0.0366   0.0192   4.43    0.0
2278 416075.434   37.693165053 -122.088926816    16.9909   2  17   0.0461   0.0418   0.0897  -0.0142  -0.0368   0.0189   5.43    0.0
2278 416076.434   37.693168587 -122.088973764    17.0800   2  19   0.0458   0.0419   0.0895  -0.0140  -0.0366   0.0179   6.43    0.0
2278 416077.434   37.693168329 -122.089024326    17.1866   2  21   0.0458   0.0419   0.0895  -0.0140  -0.0366   0.0178   7.43    0.0
2278 416078.434   37.693161807 -122.089071915    16.9235   2  15   0.0457   0.0419   0.0895  -0.0136  -0.0367   0.0176   8.43    0.0
2278 416079.434   37.693151504 -122.089120572    16.9393   2  18   0.0457   0.0419   0.0895  -0.0130  -0.0364   0.0166   9.43    0.0
2278 416080.434   37.693138306 -122.089163845    16.8278   2  13   0.0457   0.0417   0.0891  -0.0131  -0.0366   0.0170  10.43    0.0
2278 416081.434   37.693126523 -122.089194989    16.6082   2  17   0.0458   0.0419   0.0893  -0.0128  -0.0368   0.0166  11.43    0.0
2278 416082.434   37.693117999 -122.089216778    16.7595   2  17   0.0456   0.0418   0.0889  -0.0129  -0.0361   0.0170  12.43    0.0
2278 416083.434   37.693112072 -122.089230821    16.7896   2  17   0.0457   0.0418   0.0892  -0.0130  -0.0363   0.0168  13.43    0.0
2278 416084.434   37.693108031 -122.089240383    16.8066   2  14   0.0456   0.0416   0.0888  -0.0127  -0.0365   0.0168  14.43    0.0
2278 416085.434   37.693106920 -122.089245211    16.8200   2  15   0.0457   0.0416   0.0887  -0.0128  -0.0364   0.0169 -14.57    0.0
2278 416086.434   37.693105977 -122.089247382    16.8301   2  18   0.0457   0.0414   0.0885  -0.0132  -0.0360   0.0175 -13.57    0.0
2278 416087.434   37.693105733 -122.089247776    16.8364   2  16   0.0458   0.0414   0.0886  -0.0131  -0.0361   0.0176 -12.57    0.0
2278 416088.434   37.693105708 -122.089247983    16.8545   2  14   0.0458   0.0415   0.0887  -0.0130  -0.0361   0.0175 -11.57    0.0
2278 416089.434   37.693105567 -122.089247864    16.8464   2  16   0.0460   0.0416   0.0889  -0.0128  -0.0363   0.0175 -10.57    0.0
2278 416090.434   37.693105628 -122.089247908    16.8315   2  12   0.0457   0.0415   0.0885  -0.0131  -0.0361   0.0171  -9.57    0.0
2278 416091.434   37.693105532 -122.089247586    16.8233   2  17   0.0456   0.0414   0.0882  -0.0131  -0.0358   0.0169  -8.57    0.0
2278 416092.434   37.693105553 -122.089247548    16.8422   2  14   0.0456   0.0415   0.0884  -0.0132  -0.0358   0.0168  -7.57    0.0
2278 416093.434   37.693105517 -122.089247549    16.8492   2  18   0.0457   0.0416   0.0885  -0.0133  -0.0356   0.0169  -6.57    0.0
2278 416094.434   37.693105464 -122.089247648    16.8439   2  16   0.0452   0.0416   0.0885  -0.0130  -0.0357   0.0162  -5.57    0.0
2278 416095.434   37.693105346 -122.089247652    16.8365   2  17   0.0450   0.0417   0.0884  -0.0127  -0.0356   0.0155  -4.57    0.0
2278 416096.434   37.693105412 -122.089247783    16.8408   2  16   0.0449   0.0416   0.0882  -0.0128  -0.0355   0.0158  -3.57    0.0
2278 416097.434   37.693105300 -122.089247603    16.8275   2  16   0.0450   0.0415   0.0882  -0.0124  -0.0354   0.0157  -2.57    0.0
2278 416098.434   37.693105099 -122.089247983    16.8187   2  13   0.0448   0.0412   0.0879  -0.0130  -0.0358   0.0152  -1.57    0.0
2278 416099.434   37.693104948 -122.089247821    16.8049   2  18   0.0448   0.0412   0.0878  -0.0131  -0.0358   0.0152  -0.57    0.0
2278 416100.434   37.693104913 -122.089247881    16.8138   2  17   0.0449   0.0413   0.0880  -0.0131  -0.0360   0.0153   0.43    0.0
2278 416101.434   37.693104655 -122.089247703    16.7872   2  14   0.0448   0.0412   0.0878  -0.0131  -0.0358   0.0151   1.43    0.0
2278 416102.434   37.693104689 -122.089247692    16.7693   2  17   0.0448   0.0413   0.0878  -0.0130  -0.0358   0.0149   2.43    0.0
2278 416103.434   37.693104649 -122.089247610    16.7950   2  17   0.0448   0.0412   0.0878  -0.0131  -0.0358   0.0150   3.43    0.0
2278 416104.434   37.693104328 -122.089248779    16.8181   2  16   0.0448   0.0413   0.0878  -0.0132  -0.0357   0.0151   4.43    0.0
2278 416105.434   37.693101586 -122.089255549    16.7785   2  15   0.0448   0.0413   0.0879  -0.0134  -0.0356   0.0153   5.43    0.0
2278 416106.434   37.693095707 -122.089270094    16.7890   2  19   0.0448   0.0412   0.0879  -0.0134  -0.0356   0.0151   6.43    0.0
2278 416107.434   37.693084996 -122.089297168    16.8540   2  17   0.0447   0.0412   0.0878  -0.0135  -0.0356   0.0150   7.43    0.0
2278 416108.434   37.693069272 -122.089336344    16.9605   2  20   0.0447   0.0412   0.0878  -0.0134  -0.0357   0.0149   8.43    0.0
2278 416109.434   37.693050353 -122.089384583    17.0741   2  18   0.0448   0.0412   0.0880  -0.0135  -0.0358   0.0150   9.43    0.0
2278 416110.434   37.693027705 -122.089444325    17.2311   2  16   0.0449   0.0412   0.0880  -0.0134  -0.0357   0.0147  10.43    0.0
2278 416111.434   37.693002081 -122.089515895    17.1557   2  15   0.0449   0.0414   0.0883  -0.0137  -0.0360   0.0151  11.43    0.0
2278 416112.434   37.692976234 -122.089594365    16.9877   2  15   0.0448   0.0413   0.0883  -0.0135  -0.0359   0.0147  12.43    0.0
2278 416113.434   37.692948067 -122.089682754    17.2608   2  18   0.0448   0.0412   0.0879  -0.0135  -0.0356   0.0147  13.43    0.0
2278 416114.434   37.692913130 -122.089780034    17.5132   2  19   0.0448   0.0411   0.0877  -0.0133  -0.0354   0.0145  14.43    0.0
2278 416115.434   37.692871506 -122.089888186    17.7962   2  18   0.0447   0.0411   0.0877  -0.0131  -0.0354   0.0143 -14.57    0.0
2278 416116.434   37.692824485 -122.090011628    18.2255   2  18   0.0447   0.0412   0.0878  -0.0131  -0.0354   0.0143 -13.57    0.0
2278 416117.434   37.692772389 -122.090150904    18.8369   2  17   0.0448   0.0412   0.0879  -0.0131  -0.0354   0.0142 -12.57    0.0
2278 416118.434   37.692709762 -122.090301526    19.4478   2  14   0.0447   0.0411   0.0879  -0.0132  -0.0352   0.0145 -11.57    0.0
2278 416119.434   37.692638148 -122.090461093    19.9825   2  19   0.0447   0.0411   0.0882  -0.0133  -0.0353   0.0144 -10.57    0.0
2278 416120.434   37.692560496 -122.090626374    20.5214   2  16   0.0448   0.0411   0.0884  -0.0132  -0.0356   0.0140  -9.57    0.0
2278 416121.434   37.692479618 -122.090791134    20.9805   2  16   0.0446   0.0408   0.0875  -0.0139  -0.0354   0.0152  -8.57    0.0
2278 416122.434   37.692398475 -122.090949116    21.5465   2  18   0.0446   0.0407   0.0875  -0.0141  -0.0354   0.0153  -7.57    0.0
2278 416123.434   37.692315452 -122.091100545    22.1159   2  20   0.0446   0.0406   0.0873  -0.0143  -0.0353   0.0154  -6.57    0.0
2278 416124.434   37.692230570 -122.091254538    22.6029   2  18   0.0446   0.0406   0.0873  -0.0143  -0.0352   0.0153  -5.57    0.0
2278 416125.434   37.692141529 -122.091411297    22.8709   2  19   0.0446   0.0406   0.0873  -0.0143  -0.0353   0.0153  -4.57    0.0
2278 416126.434   37.692049365 -122.091573045    23.1024   2  19   0.0446   0.0406   0.0873  -0.0144  -0.0352   0.0153  -3.57    0.0
2278 416127.434   37.691953265 -122.091737608    23.2640   2  18   0.0446   0.0406   0.0873  -0.0143  -0.0353   0.0153  -2.57    0.0
2278 416128.434   37.691854591 -122.091905117    23.4326   2  18   0.0446   0.0406   0.0873  -0.0144  -0.0352   0.0153  -1.57    0.0
2278 416129.434   37.691753855 -122.092076274    23.4355   2  18   0.0447   0.0406   0.0873  -0.0144  -0.0351   0.0153  -0.57    0.0
2278 416130.434   37.691651181 -122.092252832    23.1417   2  18   0.0447   0.0405   0.0874  -0.0143  -0.0348   0.0155   0.43    0.0
2278 416131.434   37.691549724 -122.092433294    22.7268   2  18   0.0448   0.0406   0.0875  -0.0142  -0.0347   0.0156   1.43    0.0
2278 416132.434   37.691450048 -122.092614978    21.9852   2  19   0.0448   0.0406   0.0875  -0.0142  -0.0347   0.0154   2.43    0.0
2278 416133.434   37.691352134 -122.092801299    21.0343   2  21   0.0447   0.0406   0.0875  -0.0140  -0.0346   0.0152   3.43    0.0
2278 416134.434   37.691253627 -122.092996041    20.4676   2  19   0.0447   0.0406   0.0873  -0.0139  -0.0349   0.0152   4.43    0.0
2278 416135.434   37.691158337 -122.093199721    20.2675   2  17   0.0448   0.0407   0.0873  -0.0136  -0.0352   0.0150   5.43    0.0
2278 416136.434   37.691074534 -122.093412869    20.6150   2  16   0.0447   0.0408   0.0874  -0.0137  -0.0353   0.0150   6.43    0.0
2278 416137.434   37.691006972 -122.093629897    20.7483   2  17   0.0447   0.0409   0.0874  -0.0136  -0.0354   0.0151   7.43    0.0
2278 416138.434   37.690952022 -122.093852808    20.9270   2  15   0.0446   0.0407   0.0875  -0.0138  -0.0354   0.0150   8.43    0.0
2278 416139.434   37.690908702 -122.094080445    20.7477   2  17   0.0449   0.0408   0.0876  -0.0140  -0.0353   0.0153   9.43    0.0
2278 416140.434   37.690875714 -122.094313960    20.0576   2  17   0.0448   0.0406   0.0874  -0.0142  -0.0351   0.0156  10.43    0.0
2278 416141.434   37.690851483 -122.094556266    19.6027   2  16   0.0448   0.0405   0.0872  -0.0141  -0.0348   0.0153  11.43    0.0
2278 416142.434   37.690830503 -122.094805877    19.1715   2  18   0.0448   0.0405   0.0870  -0.0141  -0.0348   0.0155  12.43    0.0
2278 416143.434   37.690811642 -122.095061682    18.6403   2  18   0.0448   0.0405   0.0870  -0.0139  -0.0348   0.0152  13.43    0.0
2278 416144.434   37.690795362 -122.095323261    18.0747   2  16   0.0448   0.0405   0.0870  -0.0138  -0.0349   0.0151  14.43    0.0
2278 416145.434   37.690782214 -122.095587851    17.5423   2  12   0.0449   0.0406   0.0872  -0.0138  -0.0349   0.0151 -14.57    0.0
2278 416146.434   37.690770911 -122.095858271    16.9009   2  12   0.0449   0.0406   0.0873  -0.0138  -0.0348   0.0150 -13.57    0.0
2278 416147.434   37.690762040 -122.096138574    16.4197   2  16   0.0449   0.0408   0.0873  -0.0136  -0.0349   0.0149 -12.57    0.0
2278 416148.434   37.690758689 -122.096422711    16.1745   2  15   0.0449   0.0410   0.0873  -0.0132  -0.0351   0.0143 -11.57    0.0
2278 416149.434   37.690765889 -122.096704428    16.0312   2  14   0.0448   0.0407   0.0873  -0.0137  -0.0351   0.0142 -10.57    0.0
2278 416150.434   37.690784530 -122.096982779    16.0855   2  17   0.0448   0.0405   0.0875  -0.0143  -0.0349   0.0147  -9.57    0.0
2278 416151.434   37.690815777 -122.097256774    16.2678   2  14   0.0446   0.0402   0.0872  -0.0148  -0.0348   0.0151  -8.57    0.0
2278 416152.434   37.690855751 -122.097530002    16.3205   2  17   0.0447   0.0401   0.0871  -0.0146  -0.0346   0.0149  -7.57    0.0
2278 416153.434   37.690904771 -122.097804533    16.2303   2  18   0.0447   0.0401   0.0872  -0.0146  -0.0346   0.0148  -6.57    0.0
2278 416154.434   37.690964119 -122.098080743    16.0927   2  17   0.0446   0.0400   0.0870  -0.0146  -0.0345   0.0150  -5.57    0.0
2278 416155.434   37.691030798 -122.098360936    16.1397   2  16   0.0448   0.0401   0.0874  -0.0147  -0.0347   0.0154  -4.57    0.0
2278 416156.434   37.691103514 -122.098646770    16.0992   2  11   0.0446   0.0402   0.0878  -0.0151  -0.0352   0.0158  -3.57    0.0
2278 416157.434   37.691185777 -122.098934877    15.9384   2  14   0.0449   0.0404   0.0878  -0.0152  -0.0354   0.0166  -2.57    0.0
2278 416158.434   37.691280913 -122.099218638    15.8102   2  17   0.0446   0.0400   0.0868  -0.0152  -0.0345   0.0153  -1.57    0.0
2278 416159.434   37.691388461 -122.099496682    15.7886   2  17   0.0446   0.0402   0.0876  -0.0155  -0.0353   0.0155  -0.57    0.0
2278 416160.434   37.691507453 -122.099767174    15.3392   2  14   0.0449   0.0401   0.0864  -0.0150  -0.0339   0.0162   0.43    0.0
2278 416161.434   37.691636393 -122.100032994    15.2582   2  15   0.0448   0.0400   0.0861  -0.0150  -0.0338   0.0163   1.43    0.0
2278 416162.434   37.691774355 -122.100293341    15.4888   2  17   0.0450   0.0401   0.0860  -0.0151  -0.0337   0.0164   2.43    0.0
2278 416163.434   37.691922439 -122.100543689    15.3150   2  15   0.0454   0.0401   0.0862  -0.0150  -0.0337   0.0180   3.43    0.0
2278 416164.434   37.692081247 -122.100785759    15.1438   2  17   0.0457   0.0400   0.0861  -0.0151  -0.0342   0.0191   4.43    0.0
2278 416165.434   37.692248260 -122.101019569    15.0256   2  18   0.0455   0.0400   0.0858  -0.0148  -0.0340   0.0183   5.43    0.0
2278 416166.434   37.692422407 -122.101246459    14.8595   2  16   0.0455   0.0399   0.0857  -0.0147  -0.0339   0.0182   6.43    0.0
2278 416167.434   37.692602838 -122.101468234    14.6967   2  19   0.0456   0.0397   0.0856  -0.0150  -0.0340   0.0181   7.43    0.0
2278 416168.434   37.692792942 -122.101683942    14.4980   2  18   0.0457   0.0398   0.0856  -0.0147  -0.0338   0.0181   8.43    0.0
2278 416169.434   37.692995917 -122.101894161    14.3086   2  17   0.0458   0.0399   0.0858  -0.0148  -0.0339   0.0180   9.43    0.0
2278 416170.434   37.693213745 -122.102100255    14.1456   2  17   0.0457   0.0398   0.0857  -0.0147  -0.0339   0.0180  10.43    0.0
2278 416171.434   37.693439731 -122.102304573    13.9715   2  16   0.0455   0.0399   0.0857  -0.0145  -0.0340   0.0170  11.43    0.0
2278 416172.434   37.693665535 -122.102505174    13.7054   2  12   0.0455   0.0398   0.0852  -0.0144  -0.0337   0.0165  12.43    0.0
2278 416173.434   37.693889392 -122.102704493    13.4236   2  14   0.0453   0.0398   0.0848  -0.0142  -0.0338   0.0160  13.43    0.0
2278 416174.434   37.694110647 -122.102901175    13.2264   2  17   0.0451   0.0399   0.0847  -0.0142  -0.0339   0.0151  14.43    0.0
2278 416175.434   37.694330121 -122.103094270    12.8417   2  15   0.0451   0.0400   0.0849  -0.0141  -0.0342   0.0146 -14.57    0.0
2278 416176.434   37.694546518 -122.103285563    12.4275   2  15   0.0450   0.0399   0.0845  -0.0140  -0.0339   0.0138 -13.57    0.0
2278 416177.434   37.694760318 -122.103476456    12.4229   2  14   0.0450   0.0398   0.0839  -0.0137  -0.0336   0.0124 -12.57    0.0
2278 416178.434   37.694971150 -122.103665065    12.2283   2  16   0.0450   0.0397   0.0834  -0.0138  -0.0332   0.0127 -11.57    0.0
2278 416179.434   37.695178972 -122.103852429    12.0773   2  16   0.0449   0.0396   0.0833  -0.0137  -0.0330   0.0125 -10.57    0.0
2278 416180.434   37.695385330 -122.104037556    11.9574   2  18   0.0449   0.0396   0.0832  -0.0139  -0.0329   0.0124  -9.57    0.0
2278 416181.434   37.695590195 -122.104221738    11.7973   2  18   0.0449   0.0396   0.0832  -0.0139  -0.0329   0.0121  -8.57    0.0
2278 416182.434   37.695793585 -122.104403943    11.5821   2  14   0.0450   0.0396   0.0834  -0.0141  -0.0329   0.0124  -7.57    0.0
2278 416183.434   37.695996772 -122.104584222    11.3900   2  16   0.0450   0.0397   0.0836  -0.0138  -0.0333   0.0129  -6.57    0.0
2278 416184.434   37.696200674 -122.104764825    11.1923   2  14   0.0453   0.0399   0.0842  -0.0138  -0.0337   0.0141  -5.57    0.0
2278 416185.434   37.696406423 -122.104947404    11.1149   2  14   0.0451   0.0398   0.0839  -0.0137  -0.0336   0.0137  -4.57    0.0
2278 416186.434   37.696614474 -122.105133649    11.5650   2  16   0.0454   0.0398   0.0844  -0.0143  -0.0339   0.0156  -3.57    0.0
2278 416187.434   37.696824163 -122.105319698    11.4736   2  14   0.0453   0.0399   0.0842  -0.0144  -0.0339   0.0152  -2.57    0.0
2278 416188.434   37.697034780 -122.105507911    11.2463   2  15   0.0452   0.0398   0.0838  -0.0142  -0.0336   0.0146  -1.57    0.0
2278 416189.434   37.697246844 -122.105696937    11.0624   2  16   0.0452   0.0397   0.0837  -0.0140  -0.0334   0.0144  -0.57    0.0
2278 416190.434   37.697458049 -122.105884508    10.8044   2  16   0.0450   0.0397   0.0832  -0.0141  -0.0331   0.0129   0.43    0.0
2278 416191.434   37.697667612 -122.106071208    10.5779   2  16   0.0449   0.0396   0.0828  -0.0138  -0.0328   0.0121   1.43    0.0
2278 416192.434   37.697876466 -122.106257444    10.3537   2  16   0.0448   0.0395   0.0825  -0.0137  -0.0327   0.0118   2.43    0.0
2278 416193.434   37.698084051 -122.106442669    10.2097   2  15   0.0448   0.0396   0.0827  -0.0137  -0.0329   0.0117   3.43    0.0
2278 416194.434   37.698290022 -122.106625023     9.9865   2  17   0.0448   0.0396   0.0826  -0.0136  -0.0329   0.0112   4.43    0.0
2278 416195.434   37.698493714 -122.106806316     9.7732   2  17   0.0447   0.0395   0.0826  -0.0134  -0.0329   0.0115   5.43    0.0
2278 416196.434   37.698696843 -122.106988002     9.5640   2  17   0.0445   0.0395   0.0821  -0.0136  -0.0329   0.0104   6.43    0.0
2278 416197.434   37.698900145 -122.107169884     9.4568   2  14   0.0444   0.0395   0.0821  -0.0138  -0.0329   0.0101   7.43    0.0
2278 416198.434   37.699101165 -122.107350631     9.4501   2  16   0.0443   0.0396   0.0821  -0.0135  -0.0329   0.0098   8.43    0.0
2278 416199.434   37.699298364 -122.107531239     9.4608   2  17   0.0444   0.0394   0.0821  -0.0134  -0.0327   0.0097   9.43    0.0
2278 416200.434   37.699490038 -122.107714128     9.2917   2  14   0.0444   0.0394   0.0819  -0.0134  -0.0326   0.0087  10.43    0.0
2278 416201.434   37.699679515 -122.107902344     9.0624   2  19   0.0446   0.0394   0.0821  -0.0132  -0.0326   0.0094  11.43    0.0
2278 416202.434   37.699868538 -122.108098872     8.8576   2  14   0.0446   0.0394   0.0821  -0.0130  -0.0326   0.0086  12.43    0.0
2278 416203.434   37.700056403 -122.108303402     8.5256   2  15   0.0448   0.0394   0.0822  -0.0128  -0.0327   0.0082  13.43    0.0
2278 416204.434   37.700241361 -122.108516871     8.1821   2  17   0.0447   0.0394   0.0820  -0.0129  -0.0325   0.0089  14.43    0.0
2278 416205.434   37.700422504 -122.108738717     7.8303   2  14   0.0449   0.0394   0.0823  -0.0130  -0.0326   0.0096 -14.57    0.0
2278 416206.434   37.700599319 -122.108967967     7.2555   2  12   0.0449   0.0395   0.0823  -0.0130  -0.0327   0.0096 -13.57    0.0
2278 416207.434   37.700772910 -122.109203435     6.6426   2  16   0.0445   0.0395   0.0823  -0.0130  -0.0328   0.0082 -12.57    0.0
2278 416208.434   37.700942138 -122.109444896     6.1550   2  15   0.0443   0.0394   0.0823  -0.0130  -0.0328   0.0072 -11.57    0.0
2278 416209.434   37.701104777 -122.109691492     5.6455   2  16   0.0442   0.0394   0.0821  -0.0130  -0.0329   0.0065 -10.57    0.0
2278 416210.434   37.701261936 -122.109941724     4.7594   2  12   0.0441   0.0395   0.0823  -0.0131  -0.0331   0.0057  -9.57    0.0
2278 416211.434   37.701418342 -122.110195703     3.6526   2  18   0.0440   0.0398   0.0823  -0.0127  -0.0329   0.0055  -8.57    0.0
2278 416212.434   37.701577141 -122.110453419     2.7133   2  16   0.0439   0.0397   0.0824  -0.0129  -0.0333   0.0039  -7.57    0.0
2278 416213.434   37.701737895 -122.110714602     1.9221   2  14   0.0440   0.0400   0.0832  -0.0130  -0.0340   0.0029  -6.57    0.0
2278 416214.434   37.701900611 -122.110977632     1.0904   2  12   0.0440   0.0405   0.0844  -0.0129  -0.0351   0.0040  -5.57    0.0
2278 416215.434   37.702063332 -122.111240979     0.2379   2  11   0.0445   0.0412   0.0855  -0.0152  -0.0369   0.0123  -4.57    0.0
2278 416216.434   37.702226811 -122.111507458     0.1333   2  14   0.0445   0.0407   0.0840  -0.0147  -0.0353   0.0107  -3.57    0.0
2278 416217.434   37.702390516 -122.111772256    -0.0538   2  11   0.0444   0.0407   0.0841  -0.0147  -0.0355   0.0105  -2.57    0.0
2278 416218.434   37.702554928 -122.112038080    -0.2071   2  13   0.0443   0.0405   0.0834  -0.0144  -0.0349   0.0085  -1.57    0.0
2278 416219.434   37.702720226 -122.112306060    -0.2441   2  11   0.0441   0.0406   0.0838  -0.0145  -0.0354   0.0083  -0.57    0.0
2278 416220.434   37.702886785 -122.112578954     0.1038   2  15   0.0442   0.0406   0.0840  -0.0143  -0.0353   0.0075   0.43    0.0
2278 416221.434   37.703053325 -122.112849360    -0.5309   2  13   0.0442   0.0413   0.0861  -0.0151  -0.0373   0.0100   1.43    0.0
2278 416222.434   37.703221860 -122.113124186    -0.9977   2  11   0.0441   0.0411   0.0851  -0.0148  -0.0367   0.0082   2.43    0.0
2278 416223.434   37.703392947 -122.113403425    -1.1669   2  10   0.0439   0.0409   0.0844  -0.0138  -0.0359   0.0025   3.43    0.0
2278 416224.434   37.703564306 -122.113685213    -1.3139   2  12   0.0438   0.0407   0.0838  -0.0136  -0.0354  -0.0034   4.43    0.0
2278 416225.434   37.703736735 -122.113967390    -1.6193   2  12   0.0437   0.0405   0.0831  -0.0136  -0.0348  -0.0034   5.43    0.0
2278 416226.434   37.703909211 -122.114250908    -1.6894   2  14   0.0437   0.0413   0.0827  -0.0128  -0.0349  -0.0047   6.43    0.0
2278 416227.434   37.704082741 -122.114533358    -1.8005   2  11   0.0437   0.0409   0.0827  -0.0132  -0.0347  -0.0042   7.43    0.0
2278 416228.434   37.704256981 -122.114815613    -1.8614   2  13   0.0437   0.0407   0.0824  -0.0134  -0.0344  -0.0041   8.43    0.0
2278 416229.434   37.704429869 -122.115097596    -1.9947   2  14   0.0436   0.0405   0.0823  -0.0135  -0.0342  -0.0047   9.43    0.0
2278 416230.434   37.704600478 -122.115378663    -2.3140   2  12   0.0436   0.0405   0.0823  -0.0135  -0.0343  -0.0051  10.43    0.0
2278 416231.434   37.704768045 -122.115663460    -2.7255   2  16   0.0436   0.0409   0.0823  -0.0131  -0.0342  -0.0047  11.43    0.0
2278 416232.434   37.704933228 -122.115951931    -3.1667   2  16   0.0435   0.0405   0.0825  -0.0138  -0.0344  -0.0049  12.43    0.0
2278 416233.434   37.705095135 -122.116242600    -3.5867   2  12   0.0437   0.0407   0.0838  -0.0148  -0.0354   0.0026  13.43    0.0
2278 416234.434   37.705252013 -122.116530725    -4.8783   2  12   0.0467   0.0433   0.0913  -0.0186  -0.0416   0.0215  14.43    0.0
2278 416235.434   37.705407385 -122.116811389    -6.6839   2  11   0.0481   0.0442   0.0935  -0.0217  -0.0440   0.0273 -14.57    0.0
2278 416236.434   37.705563473 -122.117112119    -7.1040   2  15   0.0457   0.0422   0.0869  -0.0184  -0.0389   0.0177 -13.57    0.0
2278 416237.434   37.705714485 -122.117413648    -7.8923   2  17   0.0450   0.0415   0.0853  -0.0175  -0.0375   0.0146 -12.57    0.0
2278 416238.434   37.705861232 -122.117715641    -9.0149   2  15   0.0449   0.0413   0.0846  -0.0166  -0.0367   0.0129 -11.57    0.0
2278 416239.434   37.706004487 -122.118018196   -10.0562   2  18   0.0445   0.0411   0.0839  -0.0164  -0.0362   0.0103 -10.57    0.0
2278 416240.434   37.706144102 -122.118322843   -10.8732   2  16   0.0442   0.0410   0.0836  -0.0163  -0.0361   0.0088  -9.57    0.0
2278 416241.434   37.706280966 -122.118626994   -12.0258   2  14   0.0441   0.0412   0.0843  -0.0164  -0.0367   0.0083  -8.57    0.0
2278 416242.434   37.706415154 -122.118932688   -13.0610   2  14   0.0440   0.0410   0.0840  -0.0163  -0.0364   0.0071  -7.57    0.0
2278 416243.434   37.706549120 -122.119240468   -14.1193   2  14   0.0439   0.0411   0.0847  -0.0162  -0.0369   0.0064  -6.57    0.0
2278 416244.434   37.706684540 -122.119549595   -15.2333   2  14   0.0438   0.0408   0.0833  -0.0160  -0.0359   0.0046  -5.57    0.0
2278 416245.434   37.706821342 -122.119860176   -16.2251   2  12   0.0438   0.0409   0.0836  -0.0160  -0.0361   0.0037  -4.57    0.0
2278 416246.434   37.706959638 -122.120169774   -17.4757   2  11   0.0437   0.0408   0.0833  -0.0157  -0.0357  -0.0027  -3.57    0.0
2278 416247.434   37.707103156 -122.120474574   -18.7382   2  13   0.0436   0.0405   0.0829  -0.0154  -0.0353  -0.0045  -2.57    0.0
2278 416248.434   37.707258433 -122.120769027   -19.6046   2  16   0.0436   0.0405   0.0828  -0.0153  -0.0352  -0.0054  -1.57    0.0
2278 416249.434   37.707423958 -122.121053075   -20.4597   2  14   0.0436   0.0402   0.0822  -0.0150  -0.0346  -0.0061  -0.57    0.0
2278 416250.434   37.707600268 -122.121325803   -21.2190   2  15   0.0437   0.0401   0.0818  -0.0149  -0.0340  -0.0072   0.43    0.0
2278 416251.434   37.707787054 -122.121588342   -21.8033   2  12   0.0449   0.0404   0.0825  -0.0135  -0.0336   0.0025   1.43    0.0
2278 416252.434   37.707981852 -122.121839480   -22.7320   2  13   0.0470   0.0404   0.0824  -0.0137  -0.0330   0.0124   2.43    0.0
2278 416253.434   37.708177827 -122.122089687   -22.6032   2  14   0.0470   0.0408   0.0851  -0.0135  -0.0332   0.0119   3.43    0.0
2278 416254.434   37.708374122 -122.122339187   -22.2092   2  13   0.0475   0.0416   0.0889  -0.0164  -0.0350   0.0075   4.43    0.0
2278 416255.434   37.708572050 -122.122582518   -21.8228   2   4   0.0579   0.0478   0.1054  -0.0077  -0.0431  -0.0257   5.43    0.0
2278 416256.434   37.708758594 -122.122831138   -22.2048   2   6   0.0661   0.0657   0.1062  -0.0098  -0.0550   0.0359   6.43    0.0
2278 416257.434   37.708955304 -122.123072880   -23.3898   2  12   0.0633   0.0503   0.0988   0.0266  -0.0375  -0.0219   7.43    0.0
2278 416258.434   37.709147481 -122.123322578   -22.1260   2  14   0.0589   0.0485   0.0921   0.0255  -0.0335  -0.0161   8.43    0.0
2278 416259.434   37.709340965 -122.123570595   -21.3790   2  15   0.0584   0.0483   0.0914   0.0256  -0.0334  -0.0173   9.43    0.0
2278 416260.434   37.709534019 -122.123820181   -20.3903   2  11   0.0581   0.0472   0.0926   0.0245  -0.0336  -0.0197  10.43    0.0
2278 416261.434   37.709725156 -122.124073042   -18.9616   2  10   0.0559   0.0458   0.0941   0.0205  -0.0332  -0.0195  11.43    0.0
2278 416262.434   37.709912033 -122.124341562   -18.4421   2   8   0.0524   0.0437   0.0957   0.0125  -0.0316  -0.0158  12.43    0.0
2278 416263.434   37.710092975 -122.124604610   -17.9440   2  14   0.0522   0.0413   0.0933   0.0097  -0.0357  -0.0131  13.43    0.0
2278 416264.434   37.710265738 -122.124873676   -17.2283   2  13   0.0519   0.0414   0.0932   0.0094  -0.0365  -0.0136  14.43    0.0
2278 416265.434   37.710431288 -122.125148277   -16.6617   2  16   0.0517   0.0410   0.0915   0.0102  -0.0354  -0.0154 -14.57    0.0
2278 416266.434   37.710589989 -122.125428123   -16.1404   2  16   0.0514   0.0407   0.0898   0.0091  -0.0345  -0.0156 -13.57    0.0
2278 416267.434   37.710742474 -122.125713389   -15.6926   2  16   0.0512   0.0404   0.0892   0.0099  -0.0338  -0.0167 -12.57    0.0
2278 416268.434   37.710890054 -122.126003095   -15.2445   2  15   0.0512   0.0406   0.0898   0.0105  -0.0344  -0.0166 -11.57    0.0
2278 416269.434   37.711035634 -122.126292170   -14.6252   2  12   0.0513   0.0410   0.0901   0.0112  -0.0349  -0.0168 -10.57    0.0
2278 416270.434   37.711179662 -122.126576753   -13.5621   2  14   0.0514   0.0409   0.0902   0.0109  -0.0350  -0.0165  -9.57    0.0
2278 416271.434   37.711320637 -122.126854203   -12.5611   2  15   0.0512   0.0405   0.0903   0.0098  -0.0350  -0.0163  -8.57    0.0
2278 416272.434   37.711458571 -122.127127105   -11.6266   2  14   0.0513   0.0407   0.0906   0.0096  -0.0353  -0.0161  -7.57    0.0
2278 416273.434   37.711595208 -122.127396634   -10.8490   2  15   0.0513   0.0409   0.0908   0.0095  -0.0356  -0.0159  -6.57    0.0
2278 416274.434   37.711731954 -122.127662468   -10.3690   2  14   0.0514   0.0410   0.0908   0.0093  -0.0357  -0.0154  -5.57    0.0
2278 416275.434   37.711871039 -122.127924358    -9.9536   2  14   0.0516   0.0409   0.0904   0.0096  -0.0350  -0.0151  -4.57    0.0
2278 416276.434   37.712015611 -122.128181358    -9.4311   2  13   0.0516   0.0411   0.0908   0.0090  -0.0356  -0.0143  -3.57    0.0
2278 416277.434   37.712166250 -122.128433036    -8.9882   2  13   0.0515   0.0415   0.0912   0.0095  -0.0363  -0.0150  -2.57    0.0
2278 416278.434   37.712324431 -122.128676595    -8.7371   2  15   0.0517   0.0415   0.0913   0.0094  -0.0361  -0.0141  -1.57    0.0
2278 416279.434   37.712489176 -122.128916244    -8.1768   2  13   0.0518   0.0418   0.0919   0.0090  -0.0369  -0.0132  -0.57    0.0
2278 416280.434   37.712660889 -122.129151477    -7.6774   2  17   0.0521   0.0421   0.0919   0.0093  -0.0370  -0.0128   0.43    0.0
2278 416281.434   37.712839328 -122.129381889    -7.4134   2  13   0.0522   0.0421   0.0923   0.0074  -0.0377  -0.0121   1.43    0.0
2278 416282.434   37.713026024 -122.129607602    -6.9508   2  14   0.0522   0.0423   0.0925   0.0084  -0.0379  -0.0131   2.43    0.0
2278 416283.434   37.713220177 -122.129827033    -6.7921   2  14   0.0525   0.0428   0.0928   0.0101  -0.0382  -0.0133   3.43    0.0
2278 416284.434   37.713421751 -122.130040595    -6.6260   2  12   0.0524   0.0429   0.0940   0.0079  -0.0391  -0.0119   4.43    0.0
2278 416285.434   37.713630690 -122.130247584    -6.6635   2  14   0.0525   0.0433   0.0946   0.0074  -0.0400  -0.0104   5.43    0.0
2278 416286.434   37.713846754 -122.130447941    -6.5813   2  12   0.0526   0.0438   0.0955   0.0056  -0.0408  -0.0068   6.43    0.0
2278 416287.434   37.714069019 -122.130641852    -6.3608   2  15   0.0530   0.0448   0.0968   0.0051  -0.0424   0.0031   7.43    0.0
2278 416288.434   37.714296110 -122.130824381    -6.0854   2  13   0.0528   0.0456   0.0995  -0.0045  -0.0447   0.0100   8.43    0.0
2278 416289.434   37.714524759 -122.130994166    -5.9952   2  12   0.0539   0.0530   0.1088  -0.0108  -0.0554   0.0208   9.43    0.0
2278 416290.434   37.714753166 -122.131148356    -6.5334   2  11   0.0537   0.0442   0.1037  -0.0126  -0.0458   0.0221  10.43    0.0
2278 416291.434   37.714984605 -122.131294039    -6.7501   2  12   0.0529   0.0409   0.0932   0.0071  -0.0358   0.0038  11.43    0.0
2278 416292.434   37.715219564 -122.131432011    -6.8165   2  14   0.0526   0.0386   0.0902   0.0066  -0.0316  -0.0042  12.43    0.0
2278 416293.434   37.715455509 -122.131560144    -6.5682   2  17   0.0524   0.0384   0.0895   0.0070  -0.0313  -0.0079  13.43    0.0
2278 416294.434   37.715689992 -122.131680079    -6.3009   2  15   0.0522   0.0382   0.0888   0.0066  -0.0308  -0.0087  14.43    0.0
2278 416295.434   37.715922849 -122.131794646    -6.4070   2  18   0.0522   0.0381   0.0888   0.0067  -0.0306  -0.0093 -14.57    0.0
2278 416296.434   37.716153744 -122.131906805    -6.6626   2  17   0.0523   0.0381   0.0886   0.0073  -0.0305  -0.0094 -13.57    0.0
2278 416297.434   37.716382296 -122.132017895    -6.8891   2  15   0.0521   0.0381   0.0885   0.0067  -0.0305  -0.0101 -12.57    0.0
2278 416298.434   37.716610200 -122.132128457    -7.0801   2  17   0.0522   0.0381   0.0885   0.0066  -0.0304  -0.0099 -11.57    0.0
2278 416299.434   37.716837860 -122.132239365    -7.1968   2  17   0.0521   0.0381   0.0885   0.0066  -0.0304  -0.0102 -10.57    0.0
2278 416300.434   37.717064441 -122.132350821    -6.9868   2  17   0.0521   0.0381   0.0885   0.0070  -0.0306  -0.0104  -9.57    0.0
2278 416301.434   37.717289850 -122.132462485    -6.8586   2  15   0.0520   0.0378   0.0885   0.0055  -0.0308  -0.0111  -8.57    0.0
2278 416302.434   37.717514785 -122.132573184    -6.6720   2  15   0.0520   0.0379   0.0889   0.0053  -0.0311  -0.0112  -7.57    0.0
2278 416303.434   37.717738076 -122.132683640    -6.3243   2  15   0.0521   0.0380   0.0893   0.0050  -0.0315  -0.0111  -6.57    0.0
2278 416304.434   37.717957997 -122.132792155    -5.6718   2  16   0.0521   0.0380   0.0895   0.0045  -0.0317  -0.0107  -5.57    0.0
2278 416305.434   37.718173967 -122.132900095    -4.9774   2  12   0.0522   0.0380   0.0894   0.0042  -0.0317  -0.0105  -4.57    0.0
2278 416306.434   37.718388138 -122.133008584    -4.4085   2  15   0.0522   0.0380   0.0893   0.0038  -0.0315  -0.0104  -3.57    0.0
2278 416307.434   37.718600555 -122.133119712    -3.9636   2  16   0.0522   0.0380   0.0895   0.0044  -0.0316  -0.0107  -2.57    0.0
2278 416308.434   37.718811786 -122.133232820    -3.5292   2  16   0.0522   0.0381   0.0896   0.0043  -0.0318  -0.0100  -1.57    0.0
2278 416309.434   37.719022477 -122.133349176    -3.0149   2  15   0.0522   0.0382   0.0899   0.0040  -0.0321  -0.0093  -0.57    0.0
2278 416310.434   37.719235246 -122.133469120    -2.6490   2  15   0.0522   0.0383   0.0903   0.0038  -0.0325  -0.0083   0.43    0.0
2278 416311.434   37.719450817 -122.133594112    -2.2325   2  15   0.0523   0.0384   0.0904   0.0035  -0.0326  -0.0063   1.43    0.0
2278 416312.434   37.719668437 -122.133723972    -1.9078   2  15   0.0526   0.0387   0.0914   0.0023  -0.0332   0.0042   2.43    0.0
2278 416313.434   37.719888131 -122.133859688    -1.6247   2  14   0.0532   0.0393   0.0940  -0.0046  -0.0351   0.0133   3.43    0.0
2278 416314.434   37.720107442 -122.133997948    -1.9252   2  13   0.0529   0.0394   0.0949  -0.0074  -0.0362   0.0139   4.43    0.0
2278 416315.434   37.720325276 -122.134139672    -1.8604   2  14   0.0529   0.0393   0.0946  -0.0074  -0.0359   0.0133   5.43    0.0
2278 416316.434   37.720538569 -122.134282076    -2.2278   2  13   0.0527   0.0391   0.0937  -0.0068  -0.0354   0.0117   6.43    0.0
2278 416317.434   37.720748850 -122.134426233    -2.4099   2  13   0.0530   0.0397   0.0960  -0.0090  -0.0372   0.0156   7.43    0.0
2278 416318.434   37.720955501 -122.134571398    -2.7161   2  12   0.0530   0.0395   0.0954  -0.0083  -0.0366   0.0146   8.43    0.0
2278 416319.434   37.721159264 -122.134718353    -3.1096   2  15   0.0528   0.0393   0.0939  -0.0064  -0.0355   0.0109   9.43    0.0
2278 416320.434   37.721360070 -122.134868629    -3.4370   2  13   0.0528   0.0395   0.0937  -0.0057  -0.0354   0.0094  10.43    0.0
2278 416321.434   37.721558645 -122.135019300    -3.9856   2  16   0.0529   0.0395   0.0934  -0.0043  -0.0352   0.0092  11.43    0.0
2278 416322.434   37.721755903 -122.135171115    -4.5185   2  16   0.0530   0.0400   0.0944  -0.0053  -0.0360   0.0112  12.43    0.0
2278 416323.434   37.721952195 -122.135323887    -4.8739   2  14   0.0534   0.0416   0.0970  -0.0048  -0.0386   0.0141  13.43    0.0
2278 416324.434   37.722149138 -122.135476806    -5.1815   2  11   0.0551   0.0446   0.1008  -0.0058  -0.0419   0.0212  14.43    0.0
2278 416325.434   37.722349700 -122.135623935    -5.0926   2   8   0.0526   0.0384   0.0941  -0.0166  -0.0352   0.0167 -14.57    0.0
2278 416326.434   37.722548480 -122.135780145    -5.3426   2  14   0.0505   0.0359   0.0904  -0.0149  -0.0318  -0.0047 -13.57    0.0
2278 416327.434   37.722746904 -122.135934746    -5.1603   2  15   0.0503   0.0356   0.0899  -0.0146  -0.0314  -0.0082 -12.57    0.0
2278 416328.434   37.722945298 -122.136089019    -5.0248   2  16   0.0502   0.0353   0.0893  -0.0142  -0.0310  -0.0103 -11.57    0.0
2278 416329.434   37.723145453 -122.136243754    -4.8766   2  15   0.0501   0.0353   0.0892  -0.0139  -0.0310  -0.0108 -10.57    0.0
2278 416330.434   37.723347786 -122.136398918    -4.7744   2  13   0.0503   0.0355   0.0895  -0.0134  -0.0311  -0.0111  -9.57    0.0
2278 416331.434   37.723553050 -122.136554955    -4.8641   2  14   0.0504   0.0357   0.0903  -0.0133  -0.0316  -0.0107  -8.57    0.0
2278 416332.434   37.723762155 -122.136710230    -4.8589   2  14   0.0505   0.0358   0.0915  -0.0141  -0.0326  -0.0069  -7.57    0.0
2278 416333.434   37.723975817 -122.136856790    -4.2305   2  13   0.0509   0.0364   0.0931  -0.0149  -0.0340   0.0065  -6.57    0.0
2278 416334.434   37.724189950 -122.136989794    -3.9126   2  14   0.0508   0.0355   0.0900  -0.0137  -0.0309  -0.0055  -5.57    0.0
2278 416335.434   37.724408164 -122.137113607    -3.2339   2  15   0.0506   0.0350   0.0887  -0.0135  -0.0297  -0.0088  -4.57    0.0
2278 416336.434   37.724629211 -122.137226783    -2.4771   2  16   0.0501   0.0346   0.0878  -0.0137  -0.0294  -0.0123  -3.57    0.0
2278 416337.434   37.724852974 -122.137328994    -1.6018   2  16   0.0500   0.0346   0.0878  -0.0136  -0.0295  -0.0134  -2.57    0.0
2278 416338.434   37.725078610 -122.137420809    -0.7302   2  17   0.0500   0.0345   0.0874  -0.0135  -0.0292  -0.0138  -1.57    0.0
2278 416339.434   37.725305944 -122.137502420     0.0353   2  17   0.0500   0.0345   0.0873  -0.0135  -0.0291  -0.0141  -0.57    0.0
2278 416340.434   37.725535577 -122.137571848     0.3871   2  15   0.0500   0.0344   0.0868  -0.0136  -0.0288  -0.0139   0.43    0.0
2278 416341.434   37.725765655 -122.137629402     0.5500   2  13   0.0506   0.0345   0.0870  -0.0143  -0.0290  -0.0126   1.43    0.0
2278 416342.434   37.725999407 -122.137678392     0.9857   2  15   0.0502   0.0343   0.0867  -0.0137  -0.0285  -0.0136   2.43    0.0
2278 416343.434   37.726233283 -122.137719897     1.6386   2  16   0.0501   0.0343   0.0870  -0.0135  -0.0286  -0.0144   3.43    0.0
2278 416344.434   37.726468195 -122.137755902     2.1119   2  15   0.0502   0.0343   0.0872  -0.0135  -0.0286  -0.0149   4.43    0.0
2278 416345.434   37.726703620 -122.137790960     2.3530   2  14   0.0502   0.0344   0.0878  -0.0135  -0.0291  -0.0144   5.43    0.0
2278 416346.434   37.726939876 -122.137826966     2.7986   2  16   0.0501   0.0343   0.0875  -0.0132  -0.0288  -0.0155   6.43    0.0
2278 416347.434   37.727175317 -122.137862583     3.4036   2  14   0.0500   0.0342   0.0871  -0.0131  -0.0284  -0.0159   7.43    0.0
2278 416348.434   37.727409503 -122.137897515     4.1487   2  14   0.0500   0.0342   0.0872  -0.0130  -0.0283  -0.0162   8.43    0.0
2278 416349.434   37.727642051 -122.137933289     4.8290   2  14   0.0500   0.0342   0.0869  -0.0130  -0.0282  -0.0161   9.43    0.0
2278 416350.434   37.727870942 -122.137969573     5.3449   2  15   0.0503   0.0343   0.0869  -0.0136  -0.0283  -0.0151  10.43    0.0
2278 416351.434   37.728098723 -122.138008192     5.8753   2  16   0.0502   0.0342   0.0867  -0.0133  -0.0281  -0.0157  11.43    0.0
2278 416352.434   37.728328037 -122.138050368     6.2777   2  14   0.0501   0.0342   0.0865  -0.0131  -0.0280  -0.0163  12.43    0.0
2278 416353.434   37.728559100 -122.138095928     6.4626   2  14   0.0501   0.0342   0.0865  -0.0130  -0.0279  -0.0166  13.43    0.0
2278 416354.434   37.728792502 -122.138145438     6.4600   2  16   0.0501   0.0341   0.0863  -0.0129  -0.0277  -0.0171  14.43    0.0
2278 416355.434   37.729026423 -122.138200894     6.5099   2  16   0.0500   0.0341   0.0860  -0.0128  -0.0275  -0.0172 -14.57    0.0
2278 416356.434   37.729256368 -122.138260195     6.5809   2  16   0.0499   0.0341   0.0860  -0.0126  -0.0276  -0.0175 -13.57    0.0
2278 416357.434   37.729482849 -122.138320959     6.4449   2  17   0.0499   0.0340   0.0858  -0.0126  -0.0274  -0.0175 -12.57    0.0
2278 416358.434   37.729706523 -122.138382718     6.2570   2  16   0.0498   0.0340   0.0857  -0.0125  -0.0273  -0.0175 -11.57    0.0
2278 416359.434   37.729926698 -122.138446524     5.7368   2  17   0.0499   0.0341   0.0858  -0.0123  -0.0273  -0.0178 -10.57    0.0
2278 416360.434   37.730145903 -122.138507414     5.4354   2  17   0.0499   0.0341   0.0856  -0.0124  -0.0271  -0.0175  -9.57    0.0
2278 416361.434   37.730363323 -122.138569120     5.5092   2  17   0.0500   0.0342   0.0858  -0.0120  -0.0271  -0.0177  -8.57    0.0
2278 416362.434   37.730580361 -122.138630763     5.5529   2  15   0.0499   0.0341   0.0856  -0.0123  -0.0271  -0.0178  -7.57    0.0
2278 416363.434   37.730797936 -122.138691267     5.6694   2  16   0.0502   0.0344   0.0860  -0.0114  -0.0267  -0.0172  -6.57    0.0
2278 416364.434   37.731015928 -122.138754253     5.7157   2  18   0.0499   0.0340   0.0860  -0.0125  -0.0268  -0.0174  -5.57    0.0
2278 416365.434   37.731232974 -122.138818291     5.8141   2  12   0.0499   0.0341   0.0864  -0.0124  -0.0274  -0.0183  -4.57    0.0
2278 416366.434   37.731449004 -122.138879648     5.6857   2  16   0.0500   0.0341   0.0863  -0.0126  -0.0277  -0.0181  -3.57    0.0
2278 416367.434   37.731662098 -122.138940321     5.7477   2  17   0.0499   0.0340   0.0858  -0.0125  -0.0273  -0.0182  -2.57    0.0
2278 416368.434   37.731871839 -122.138999726     5.8130   2  15   0.0499   0.0340   0.0860  -0.0125  -0.0273  -0.0183  -1.57    0.0
2278 416369.434   37.732079760 -122.139058343     5.7430   2  15   0.0500   0.0341   0.0866  -0.0125  -0.0276  -0.0188  -0.57    0.0
2278 416370.434   37.732289256 -122.139117157     5.7931   2  15   0.0499   0.0340   0.0866  -0.0124  -0.0276  -0.0190   0.43    0.0
2278 416371.434   37.732502145 -122.139174699     5.6801   2  11   0.0499   0.0341   0.0869  -0.0124  -0.0278  -0.0189   1.43    0.0
2278 416372.434   37.732718365 -122.139231397     5.6354   2  12   0.0499   0.0341   0.0868  -0.0125  -0.0278  -0.0188   2.43    0.0
2278 416373.434   37.732936513 -122.139286316     5.6057   2  14   0.0499   0.0341   0.0867  -0.0125  -0.0277  -0.0186   3.43    0.0
2278 416374.434   37.733155159 -122.139339417     5.6292   2  14   0.0501   0.0341   0.0867  -0.0128  -0.0278  -0.0182   4.43    0.0
2278 416375.434   37.733374377 -122.139390574     5.6196   2  15   0.0500   0.0341   0.0866  -0.0129  -0.0278  -0.0181   5.43    0.0
2278 416376.434   37.733594680 -122.139440513     5.6010   2  12   0.0501   0.0342   0.0871  -0.0130  -0.0282  -0.0178   6.43    0.0
2278 416377.434   37.733813735 -122.139489030     4.9510   2  13   0.0501   0.0341   0.0869  -0.0131  -0.0281  -0.0176   7.43    0.0
2278 416378.434   37.734034140 -122.139539527     4.9341   2  16   0.0499   0.0340   0.0864  -0.0129  -0.0276  -0.0181   8.43    0.0
2278 416379.434   37.734252395 -122.139590227     5.3763   2  14   0.0500   0.0341   0.0862  -0.0130  -0.0276  -0.0179   9.43    0.0
2278 416380.434   37.734470806 -122.139640253     5.8774   2  17   0.0502   0.0341   0.0863  -0.0133  -0.0276  -0.0176  10.43    0.0
2278 416381.434   37.734689623 -122.139689189     6.2172   2  15   0.0502   0.0341   0.0861  -0.0133  -0.0275  -0.0177  11.43    0.0
2278 416382.434   37.734908851 -122.139739584     6.4457   2  17   0.0501   0.0340   0.0860  -0.0132  -0.0274  -0.0178  12.43    0.0
2278 416383.434   37.735129204 -122.139789815     6.7805   2  18   0.0502   0.0340   0.0860  -0.0132  -0.0274  -0.0179  13.43    0.0
2278 416384.434   37.735351245 -122.139840467     7.2412   2  17   0.0501   0.0340   0.0861  -0.0131  -0.0274  -0.0183  14.43    0.0
2278 416385.434   37.735575256 -122.139892886     7.8665   2  17   0.0501   0.0340   0.0862  -0.0131  -0.0274  -0.0184 -14.57    0.0
2278 416386.434   37.735799575 -122.139945510     8.3979   2  13   0.0502   0.0340   0.0864  -0.0132  -0.0275  -0.0184 -13.57    0.0
2278 416387.434   37.736024038 -122.140000212     8.9054   2  16   0.0501   0.0340   0.0863  -0.0133  -0.0275  -0.0183 -12.57    0.0
2278 416388.434   37.736248387 -122.140059717     9.4050   2  15   0.0501   0.0340   0.0863  -0.0133  -0.0276  -0.0181 -11.57    0.0
2278 416389.434   37.736470742 -122.140131165     9.8543   2  14   0.0501   0.0341   0.0865  -0.0133  -0.0277  -0.0181 -10.57    0.0
2278 416390.434   37.736691369 -122.140215615    10.1873   2  18   0.0501   0.0341   0.0866  -0.0134  -0.0278  -0.0179  -9.57    0.0
2278 416391.434   37.736909427 -122.140314320    10.6227   2  13   0.0503   0.0343   0.0874  -0.0136  -0.0283  -0.0173  -8.57    0.0
2278 416392.434   37.737123845 -122.140428447    11.1871   2  11   0.0503   0.0342   0.0871  -0.0136  -0.0280  -0.0169  -7.57    0.0
2278 416393.434   37.737334210 -122.140553954    11.2959   2  15   0.0512   0.0348   0.0898  -0.0144  -0.0292  -0.0084  -6.57    0.0
2278 416394.434   37.737540381 -122.140690203    11.0617   2  14   0.0509   0.0346   0.0891  -0.0144  -0.0291  -0.0111  -5.57    0.0
2278 416395.434   37.737742535 -122.140841647    11.0332   2  17   0.0509   0.0349   0.0902  -0.0145  -0.0298  -0.0097  -4.57    0.0
2278 416396.434   37.737939319 -122.141005801    10.9103   2  15   0.0509   0.0347   0.0898  -0.0144  -0.0292  -0.0106  -3.57    0.0
2278 416397.434   37.738131422 -122.141182484    10.7683   2  13   0.0509   0.0348   0.0895  -0.0143  -0.0291  -0.0115  -2.57    0.0
2278 416398.434   37.738318458 -122.141372112    10.7894   2  16   0.0509   0.0348   0.0894  -0.0141  -0.0290  -0.0119  -1.57    0.0
2278 416399.434   37.738497604 -122.141572522    10.4051   2  16   0.0511   0.0348   0.0893  -0.0139  -0.0289  -0.0121  -0.57    0.0
2278 416400.434   37.738669444 -122.141780753     9.8234   2  14   0.0513   0.0351   0.0897  -0.0135  -0.0296  -0.0126   0.43    0.0
2278 416401.434   37.738837370 -122.141991916     9.1735   2  15   0.0512   0.0349   0.0893  -0.0135  -0.0292  -0.0130   1.43    0.0
2278 416402.434   37.739004337 -122.142202740     8.4645   2  15   0.0512   0.0348   0.0890  -0.0135  -0.0288  -0.0139   2.43    0.0
2278 416403.434   37.739173805 -122.142412608     7.5218   2  15   0.0513   0.0348   0.0892  -0.0137  -0.0289  -0.0128   3.43    0.0
2278 416404.434   37.739351702 -122.142623649     6.5165   2  17   0.0513   0.0348   0.0890  -0.0135  -0.0287  -0.0135   4.43    0.0
2278 416405.434   37.739535622 -122.142838122     5.3724   2  13   0.0513   0.0347   0.0887  -0.0135  -0.0284  -0.0136   5.43    0.0
2278 416406.434   37.739720759 -122.143053213     4.3452   2  16   0.0514   0.0347   0.0886  -0.0133  -0.0282  -0.0143   6.43    0.0
2278 416407.434   37.739907188 -122.143266122     3.2290   2  15   0.0512   0.0346   0.0882  -0.0133  -0.0278  -0.0143   7.43    0.0
2278 416408.434   37.740095910 -122.143475515     2.1906   2  16   0.0515   0.0349   0.0884  -0.0128  -0.0277  -0.0135   8.43    0.0
2278 416409.434   37.740289783 -122.143675230     1.4700   2  14   0.0517   0.0347   0.0887  -0.0137  -0.0283  -0.0125   9.43    0.0
2278 416410.434   37.740490838 -122.143861179     0.8743   2  14   0.0517   0.0354   0.0919  -0.0146  -0.0313  -0.0091  10.43    0.0
2278 416411.434   37.740695344 -122.144034620     0.4065   2  13   0.0523   0.0374   0.0961  -0.0169  -0.0357   0.0113  11.43    0.0
2278 416412.434   37.740902455 -122.144198229     0.4942   2  13   0.0520   0.0371   0.0953  -0.0162  -0.0350   0.0087  12.43    0.0
2278 416413.434   37.741109432 -122.144354070     0.7906   2  12   0.0517   0.0365   0.0939  -0.0159  -0.0338   0.0016  13.43    0.0
2278 416414.434   37.741314115 -122.144506008     1.0819   2  14   0.0518   0.0364   0.0941  -0.0161  -0.0339  -0.0015  14.43    0.0
2278 416415.434   37.741518974 -122.144658997     1.5835   2  15   0.0516   0.0362   0.0933  -0.0158  -0.0333  -0.0070 -14.57    0.0
2278 416416.434   37.741723090 -122.144811169     2.0948   2  15   0.0514   0.0361   0.0929  -0.0153  -0.0329  -0.0107 -13.57    0.0
2278 416417.434   37.741927613 -122.144964139     2.4534   2  13   0.0514   0.0363   0.0937  -0.0151  -0.0335  -0.0119 -12.57    0.0
2278 416418.434   37.742134030 -122.145122240     2.7208   2  12   0.0515   0.0369   0.0954  -0.0157  -0.0351  -0.0083 -11.57    0.0
2278 416419.434   37.742341675 -122.145283759     2.8383   2  11   0.0516   0.0370   0.0956  -0.0163  -0.0355  -0.0047 -10.57    0.0
2278 416420.434   37.742543538 -122.145457272     2.5216   2  12   0.0533   0.0514   0.1104  -0.0235  -0.0557   0.0248  -9.57    0.0
2278 416421.434   37.742739869 -122.145641499     2.9241   2  10   0.0521   0.0441   0.1015  -0.0192  -0.0450   0.0140  -8.57    0.0
2278 416422.434   37.742928260 -122.145834020     3.0326   2  13   0.0533   0.0434   0.1024  -0.0213  -0.0447   0.0203  -7.57    0.0
2278 416423.434   37.743109914 -122.146037664     3.1724   2  13   0.0534   0.0429   0.1041  -0.0217  -0.0451   0.0222  -6.57    0.0
2278 416424.434   37.743285508 -122.146253342     3.1860   2  12   0.0540   0.0427   0.1059  -0.0213  -0.0454   0.0235  -5.57    0.0
2278 416425.434   37.743454527 -122.146478888     3.2326   2   8   0.0535   0.0424   0.1051  -0.0208  -0.0446   0.0214  -4.57    0.0
2278 416426.434   37.743619585 -122.146708316     3.3387   2  13   0.0534   0.0413   0.1014  -0.0198  -0.0421   0.0181  -3.57    0.0
2278 416427.434   37.743781810 -122.146938180     4.1008   2  14   0.0522   0.0404   0.0970  -0.0182  -0.0393   0.0094  -2.57    0.0
2278 416428.434   37.743941644 -122.147161533     4.9185   2  16   0.0523   0.0401   0.0952  -0.0178  -0.0381   0.0076  -1.57    0.0
2278 416429.434   37.744098123 -122.147379662     5.7737   2  13   0.0519   0.0396   0.0939  -0.0175  -0.0371   0.0027  -0.57    0.0
2278 416430.434   37.744251640 -122.147592078     6.5894   2  18   0.0518   0.0395   0.0936  -0.0171  -0.0367  -0.0061   0.43    0.0
2278 416431.434   37.744404679 -122.147797384     7.4039   2  14   0.0519   0.0392   0.0931  -0.0174  -0.0362  -0.0050   1.43    0.0
2278 416432.434   37.744561592 -122.147993077     8.3492   2  16   0.0525   0.0397   0.0932  -0.0159  -0.0357  -0.0062   2.43    0.0
2278 416433.434   37.744722972 -122.148178746     9.1430   2  14   0.0522   0.0394   0.0932  -0.0168  -0.0364  -0.0074   3.43    0.0
2278 416434.434   37.744889119 -122.148354897     9.8486   2  12   0.0532   0.0412   0.0994  -0.0193  -0.0412   0.0165   4.43    0.0
2278 416435.434   37.745063274 -122.148524367    10.5071   2  12   0.0541   0.0413   0.1021  -0.0202  -0.0423   0.0223   5.43    0.0
2278 416436.434   37.745246454 -122.148687089    11.1084   2  13   0.0542   0.0404   0.0979  -0.0180  -0.0390   0.0171   6.43    0.0
2278 416437.434   37.745437981 -122.148842435    11.7426   2  13   0.0532   0.0397   0.0952  -0.0175  -0.0373   0.0115   7.43    0.0
2278 416438.434   37.745634784 -122.148987480    12.2734   2  13   0.0532   0.0394   0.0953  -0.0181  -0.0367  -0.0051   8.43    0.0
2278 416439.434   37.745832655 -122.149118345    12.5589   2  12   0.0531   0.0392   0.0942  -0.0185  -0.0364  -0.0023   9.43    0.0
2278 416440.434   37.746032782 -122.149237374    12.8019   2  15   0.0528   0.0390   0.0934  -0.0175  -0.0358  -0.0085  10.43    0.0
2278 416441.434   37.746236177 -122.149348296    13.1550   2  17   0.0530   0.0390   0.0943  -0.0166  -0.0350   0.0033  11.43    0.0
2278 416442.434   37.746443059 -122.149453194    13.7706   2  16   0.0531   0.0390   0.0952  -0.0160  -0.0353   0.0026  12.43    0.0
2278 416443.434   37.746652558 -122.149554154    14.0801   2  17   0.0529   0.0387   0.0949  -0.0163  -0.0353  -0.0042  13.43    0.0
2278 416444.434   37.746863629 -122.149656751    14.1893   2  16   0.0528   0.0386   0.0948  -0.0162  -0.0353  -0.0069  14.43    0.0
2278 416445.434   37.747076777 -122.149760888    14.2927   2  17   0.0529   0.0389   0.0953  -0.0158  -0.0355  -0.0074 -14.57    0.0
2278 416446.434   37.747291225 -122.149866431    14.5726   2  16   0.0530   0.0389   0.0955  -0.0157  -0.0355  -0.0060 -13.57    0.0
2278 416447.434   37.747506293 -122.149971084    14.8210   2  16   0.0527   0.0389   0.0953  -0.0157  -0.0355  -0.0073 -12.57    0.0
2278 416448.434   37.747719827 -122.150075998    15.4000   2  16   0.0527   0.0386   0.0949  -0.0161  -0.0352  -0.0072 -11.57    0.0
2278 416449.434   37.747933266 -122.150180646    15.8160   2  16   0.0529   0.0388   0.0953  -0.0159  -0.0352  -0.0069 -10.57    0.0
2278 416450.434   37.748148034 -122.150285356    16.2416   2  16   0.0528   0.0388   0.0953  -0.0159  -0.0353  -0.0075  -9.57    0.0
2278 416451.434   37.748364446 -122.150390413    16.7922   2  16   0.0528   0.0386   0.0954  -0.0162  -0.0355  -0.0079  -8.57    0.0
2278 416452.434   37.748581680 -122.150495761    17.3933   2  17   0.0527   0.0386   0.0955  -0.0163  -0.0357  -0.0082  -7.57    0.0
2278 416453.434   37.748796700 -122.150600826    18.1404   2  15   0.0526   0.0387   0.0956  -0.0162  -0.0358  -0.0085  -6.57    0.0
2278 416454.434   37.749006880 -122.150703838    18.7959   2  14   0.0527   0.0394   0.0960  -0.0155  -0.0363  -0.0083  -5.57    0.0
2278 416455.434   37.749213483 -122.150803587    19.4958   2  14   0.0534   0.0416   0.0973  -0.0128  -0.0372  -0.0035  -4.57    0.0
2278 416456.434   37.749418526 -122.150904673    20.2049   2  14   0.0531   0.0405   0.0973  -0.0147  -0.0373  -0.0049  -3.57    0.0
2278 416457.434   37.749623271 -122.151005299    20.9927   2  14   0.0532   0.0416   0.0967  -0.0128  -0.0371  -0.0080  -2.57    0.0
2278 416458.434   37.749827757 -122.151105697    21.6412   2  13   0.0531   0.0413   0.0973  -0.0141  -0.0375  -0.0070  -1.57    0.0
2278 416459.434   37.750030021 -122.151204439    22.1197   2  14   0.0531   0.0411   0.0982  -0.0154  -0.0385  -0.0034  -0.57    0.0
2278 416460.434   37.750229683 -122.151298261    22.4490   2  14   0.0530   0.0406   0.0973  -0.0151  -0.0375  -0.0067   0.43    0.0
2278 416461.434   37.750426430 -122.151385876    22.7330   2  15   0.0530   0.0404   0.0972  -0.0152  -0.0374  -0.0066   1.43    0.0
2278 416462.434   37.750621626 -122.151459966    23.1512   2  11   0.0531   0.0403   0.0979  -0.0161  -0.0380  -0.0021   2.43    0.0
2278 416463.434   37.750816629 -122.151512268    23.5704   2  14   0.0537   0.0401   0.0988  -0.0169  -0.0386   0.0058   3.43    0.0
2278 416464.434   37.751008282 -122.151548313    24.4231   2  14   0.0539   0.0405   0.0988  -0.0156  -0.0385   0.0055   4.43    0.0
2278 416465.434   37.751198584 -122.151569188    24.4591   2  11   0.0544   0.0409   0.0999  -0.0161  -0.0381  -0.0084   5.43    0.0
2278 416466.434   37.751385956 -122.151581725    24.6773   2  12   0.0559   0.0417   0.1023  -0.0145  -0.0410  -0.0095   6.43    0.0
