$GPGGA,214209.43,3725.6399020,N,12204.1950680,W,1,0,0.0,-28.8828,M,0.0000,M,0.0000,0000*74
$GPRMC,214209.43,A,3725.6399020,N,12204.1950680,W,0.0007,180.6135,130820,,,,A*6e
$GPGGA,214210.43,3725.6399020,N,12204.1950680,W,1,0,0.0,-28.8828,M,0.0000,M,0.0000,0000*7c
$GPRMC,214210.43,A,3725.6399020,N,12204.1950680,W,0.0022,180.6130,130820,,,,A*64
$GPGGA,214211.43,3725.6399020,N,12204.1950680,W,1,0,0.0,-28.8828,M,0.0000,M,0.0000,0000*7d
$GPRMC,214211.43,A,3725.6399020,N,12204.1950680,W,0.0027,180.6130,130820,,,,A*60
$GPGGA,214212.43,3725.6399020,N,12204.1950680,W,1,0,0.0,-28.8838,M,0.0000,M,0.0000,0000*7f
$GPRMC,214212.43,A,3725.6399020,N,12204.1950680,W,0.0034,180.6123,130820,,,,A*63
$GPGGA,214213.43,3725.6399020,N,12204.1950680,W,1,0,0.0,-28.8841,M,0.0000,M,0.0000,0000*70
$GPRMC,214213.43,A,3725.6399020,N,12204.1950680,W,0.0040,180.6125,130820,,,,A*67
$GPGGA,214214.43,3725.6399020,N,12204.1950680,W,1,0,0.0,-28.8858,M,0.0000,M,0.0000,0000*7f
$GPRMC,214214.43,A,3725.6399020,N,12204.1950680,W,0.0085,180.6131,130820,,,,A*6c
$GPGGA,214215.43,3725.6398180,N,12204.1950740,W,1,0,0.0,-28.8895,M,0.0000,M,0.0000,0000*78
$GPRMC,214215.43,A,3725.6398180,N,12204.1950740,W,0.8436,180.6169,130820,,,,A*63
$GPGGA,214216.43,3725.6394280,N,12204.1950860,W,1,0,0.0,-28.8765,M,0.0000,M,0.0000,0000*79
$GPRMC,214216.43,A,3725.6394280,N,12204.1950860,W,1.9289,181.0883,130820,,,,A*6a
$GPGGA,214217.43,3725.6387560,N,12204.1951640,W,1,0,0.0,-28.8605,M,0.0000,M,0.0000,0000*79
$GPRMC,214217.43,A,3725.6387560,N,12204.1951640,W,2.9233,182.8470,130820,,,,A*64
$GPGGA,214218.43,3725.6377000,N,12204.1952600,W,1,0,0.0,-28.8338,M,0.0000,M,0.0000,0000*76
$GPRMC,214218.43,A,3725.6377000,N,12204.1952600,W,4.8343,183.4925,130820,,,,A*61
$GPGGA,214219.43,3725.6359720,N,12204.1953920,W,1,0,0.0,-28.8048,M,0.0000,M,0.0000,0000*76
$GPRMC,214219.43,A,3725.6359720,N,12204.1953920,W,7.7430,183.5201,130820,,,,A*66
$GPGGA,214220.43,3725.6334100,N,12204.1955960,W,1,0,0.0,-28.8465,M,0.0000,M,0.0000,0000*7a
$GPRMC,214220.43,A,3725.6334100,N,12204.1955960,W,10.7857,183.7693,130820,,,,A*57
$GPGGA,214221.43,3725.6300800,N,12204.1958960,W,1,0,0.0,-28.9296,M,0.0000,M,0.0000,0000*73
$GPRMC,214221.43,A,3725.6300800,N,12204.1958960,W,12.8570,184.2432,130820,,,,A*5b
$GPGGA,214222.43,3725.6264800,N,12204.1962440,W,1,0,0.0,-29.0316,M,0.0000,M,0.0000,0000*74
$GPRMC,214222.43,A,3725.6264800,N,12204.1962440,W,12.9174,184.2782,130820,,,,A*54
$GPGGA,214223.43,3725.6229460,N,12204.1964180,W,1,0,0.0,-29.0695,M,0.0000,M,0.0000,0000*77
$GPRMC,214223.43,A,3725.6229460,N,12204.1964180,W,12.5086,182.0010,130820,,,,A*51
$GPGGA,214224.43,3725.6195500,N,12204.1964840,W,1,0,0.0,-29.0084,M,0.0000,M,0.0000,0000*70
$GPRMC,214224.43,A,3725.6195500,N,12204.1964840,W,11.8330,180.9797,130820,,,,A*53
$GPGGA,214225.43,3725.6164600,N,12204.1965380,W,1,0,0.0,-28.9397,M,0.0000,M,0.0000,0000*73
$GPRMC,214225.43,A,3725.6164600,N,12204.1965380,W,10.0765,181.0074,130820,,,,A*56
$GPGGA,214226.43,3725.6140720,N,12204.1968080,W,1,0,0.0,-28.8931,M,0.0000,M,0.0000,0000*7c
$GPRMC,214226.43,A,3725.6140720,N,12204.1968080,W,7.2253,187.0406,130820,,,,A*6d
$GPGGA,214227.43,3725.6124160,N,12204.1976960,W,1,0,0.0,-28.8801,M,0.0000,M,0.0000,0000*77
$GPRMC,214227.43,A,3725.6124160,N,12204.1976960,W,5.9369,202.8627,130820,,,,A*62
$GPGGA,214228.43,3725.6114140,N,12204.1993160,W,1,0,0.0,-28.9045,M,0.0000,M,0.0000,0000*73
$GPRMC,214228.43,A,3725.6114140,N,12204.1993160,W,5.5681,228.4230,130820,,,,A*66
$GPGGA,214229.43,3725.6110960,N,12204.2012900,W,1,0,0.0,-28.9262,M,0.0000,M,0.0000,0000*76
$GPRMC,214229.43,A,3725.6110960,N,12204.2012900,W,5.7743,253.4481,130820,,,,A*69
$GPGGA,214230.43,3725.6108860,N,12204.2035100,W,1,0,0.0,-28.9702,M,0.0000,M,0.0000,0000*78
$GPRMC,214230.43,A,3725.6108860,N,12204.2035100,W,6.9713,260.2137,130820,,,,A*62
$GPGGA,214231.43,3725.6101780,N,12204.2059460,W,1,0,0.0,-28.9851,M,0.0000,M,0.0000,0000*71
$GPRMC,214231.43,A,3725.6101780,N,12204.2059460,W,7.8469,248.4162,130820,,,,A*60
$GPGGA,214232.43,3725.6084920,N,12204.2079260,W,1,0,0.0,-29.0045,M,0.0000,M,0.0000,0000*7b
$GPRMC,214232.43,A,3725.6084920,N,12204.2079260,W,8.5403,221.6774,130820,,,,A*6d
$GPGGA,214233.43,3725.6060980,N,12204.2088500,W,1,0,0.0,-28.8322,M,0.0000,M,0.0000,0000*7e
$GPRMC,214233.43,A,3725.6060980,N,12204.2088500,W,9.5135,196.4620,130820,,,,A*6f
$GPGGA,214234.43,3725.6031760,N,12204.2089880,W,1,0,0.0,-29.0185,M,0.0000,M,0.0000,0000*7f
$GPRMC,214234.43,A,3725.6031760,N,12204.2089880,W,11.6728,181.0737,130820,,,,A*5d
$GPGGA,214235.43,3725.5996360,N,12204.2088920,W,1,0,0.0,-29.1620,M,0.0000,M,0.0000,0000*7e
$GPRMC,214235.43,A,3725.5996360,N,12204.2088920,W,13.7341,178.8149,130820,,,,A*5c
$GPGGA,214236.43,3725.5956520,N,12204.2087780,W,1,0,0.0,-29.2927,M,0.0000,M,0.0000,0000*73
$GPRMC,214236.43,A,3725.5956520,N,12204.2087780,W,14.5503,178.5808,130820,,,,A*5e
$GPGGA,214237.43,3725.5916500,N,12204.2087120,W,1,0,0.0,-29.1862,M,0.0000,M,0.0000,0000*7b
$GPRMC,214237.43,A,3725.5916500,N,12204.2087120,W,14.1034,179.6150,130820,,,,A*56
$GPGGA,214238.43,3725.5877680,N,12204.2087540,W,1,0,0.0,-29.0303,M,0.0000,M,0.0000,0000*76
$GPRMC,214238.43,A,3725.5877680,N,12204.2087540,W,14.0999,180.5891,130820,,,,A*58
$GPGGA,214239.43,3725.5836520,N,12204.2088080,W,1,0,0.0,-28.7405,M,0.0000,M,0.0000,0000*7a
$GPRMC,214239.43,A,3725.5836520,N,12204.2088080,W,15.7261,180.4974,130820,,,,A*52
$GPGGA,214240.43,3725.5790320,N,12204.2088320,W,1,0,0.0,-28.9729,M,0.0000,M,0.0000,0000*7b
$GPRMC,214240.43,A,3725.5790320,N,12204.2088320,W,17.5950,180.0845,130820,,,,A*5e
$GPGGA,214241.43,3725.5738900,N,12204.2087900,W,1,0,0.0,-29.2718,M,0.0000,M,0.0000,0000*7f
$GPRMC,214241.43,A,3725.5738900,N,12204.2087900,W,19.2052,179.5798,130820,,,,A*5c
$GPGGA,214242.43,3725.5684660,N,12204.2086880,W,1,0,0.0,-29.2111,M,0.0000,M,0.0000,0000*74
$GPRMC,214242.43,A,3725.5684660,N,12204.2086880,W,19.5421,179.0975,130820,,,,A*57
$GPGGA,214243.43,3725.5630840,N,12204.2085980,W,1,0,0.0,-29.0786,M,0.0000,M,0.0000,0000*7e
$GPRMC,214243.43,A,3725.5630840,N,12204.2085980,W,19.1940,179.3039,130820,,,,A*5b
$GPGGA,214244.43,3725.5577680,N,12204.2085440,W,1,0,0.0,-29.2500,M,0.0000,M,0.0000,0000*74
$GPRMC,214244.43,A,3725.5577680,N,12204.2085440,W,19.0520,179.8284,130820,,,,A*5b
$GPGGA,214245.43,3725.5525600,N,12204.2087180,W,1,0,0.0,-29.1288,M,0.0000,M,0.0000,0000*75
$GPRMC,214245.43,A,3725.5525600,N,12204.2087180,W,18.3768,182.0017,130820,,,,A*56
$GPGGA,214246.43,3725.5475260,N,12204.2089520,W,1,0,0.0,-28.9829,M,0.0000,M,0.0000,0000*78
$GPRMC,214246.43,A,3725.5475260,N,12204.2089520,W,17.9596,182.3451,130820,,,,A*50
$GPGGA,214247.43,3725.5425340,N,12204.2090840,W,1,0,0.0,-29.1531,M,0.0000,M,0.0000,0000*71
$GPRMC,214247.43,A,3725.5425340,N,12204.2090840,W,17.9238,180.6478,130820,,,,A*5b
$GPGGA,214248.43,3725.5376620,N,12204.2090300,W,1,0,0.0,-29.0099,M,0.0000,M,0.0000,0000*75
$GPRMC,214248.43,A,3725.5376620,N,12204.2090300,W,17.0913,178.8495,130820,,,,A*58
$GPGGA,214249.43,3725.5330000,N,12204.2088440,W,1,0,0.0,-28.7147,M,0.0000,M,0.0000,0000*7c
$GPRMC,214249.43,A,3725.5330000,N,12204.2088440,W,16.5392,178.5137,130820,,,,A*52
$GPGGA,214250.43,3725.5283740,N,12204.2088980,W,1,0,0.0,-28.8196,M,0.0000,M,0.0000,0000*7c
$GPRMC,214250.43,A,3725.5283740,N,12204.2088980,W,16.7303,181.4886,130820,,,,A*5f
$GPGGA,214251.43,3725.5237060,N,12204.2091620,W,1,0,0.0,-29.0331,M,0.0000,M,0.0000,0000*7c
$GPRMC,214251.43,A,3725.5237060,N,12204.2091620,W,16.8905,182.6781,130820,,,,A*53
$GPGGA,214252.43,3725.5190740,N,12204.2092520,W,1,0,0.0,-29.0464,M,0.0000,M,0.0000,0000*73
$GPRMC,214252.43,A,3725.5190740,N,12204.2092520,W,16.3696,179.9513,130820,,,,A*57
$GPGGA,214253.43,3725.5146880,N,12204.2091740,W,1,0,0.0,-28.9045,M,0.0000,M,0.0000,0000*72
$GPRMC,214253.43,A,3725.5146880,N,12204.2091740,W,14.9099,179.1119,130820,,,,A*5e
$GPGGA,214254.43,3725.5108780,N,12204.2090960,W,1,0,0.0,-28.9952,M,0.0000,M,0.0000,0000*72
$GPRMC,214254.43,A,3725.5108780,N,12204.2090960,W,12.3604,178.8696,130820,,,,A*57
$GPGGA,214255.43,3725.5077280,N,12204.2086820,W,1,0,0.0,-29.1250,M,0.0000,M,0.0000,0000*7d
$GPRMC,214255.43,A,3725.5077280,N,12204.2086820,W,10.7608,171.8011,130820,,,,A*52
$GPGGA,214256.43,3725.5050940,N,12204.2072600,W,1,0,0.0,-29.2383,M,0.0000,M,0.0000,0000*77
$GPRMC,214256.43,A,3725.5050940,N,12204.2072600,W,9.9819,152.4090,130820,,,,A*68
$GPGGA,214257.43,3725.5034260,N,12204.2046800,W,1,0,0.0,-29.1913,M,0.0000,M,0.0000,0000*74
$GPRMC,214257.43,A,3725.5034260,N,12204.2046800,W,8.9539,125.4914,130820,,,,A*60
$GPGGA,214258.43,3725.5028200,N,12204.2017760,W,1,0,0.0,-29.0366,M,0.0000,M,0.0000,0000*74
$GPRMC,214258.43,A,3725.5028200,N,12204.2017760,W,8.0888,105.0805,130820,,,,A*60
$GPGGA,214259.43,3725.5023040,N,12204.1992140,W,1,0,0.0,-28.8867,M,0.0000,M,0.0000,0000*78
$GPRMC,214259.43,A,3725.5023040,N,12204.1992140,W,7.0194,106.8679,130820,,,,A*6a
$GPGGA,214300.43,3725.5011820,N,12204.1974020,W,1,0,0.0,-28.7044,M,0.0000,M,0.0000,0000*73
$GPRMC,214300.43,A,3725.5011820,N,12204.1974020,W,6.2128,127.6021,130820,,,,A*65
$GPGGA,214301.43,3725.4995200,N,12204.1965080,W,1,0,0.0,-28.6707,M,0.0000,M,0.0000,0000*75
$GPRMC,214301.43,A,3725.4995200,N,12204.1965080,W,6.6584,154.1710,130820,,,,A*62
$GPGGA,214302.43,3725.4975100,N,12204.1967240,W,1,0,0.0,-28.6274,M,0.0000,M,0.0000,0000*76
$GPRMC,214302.43,A,3725.4975100,N,12204.1967240,W,7.7759,184.3499,130820,,,,A*6f
$GPGGA,214303.43,3725.4953800,N,12204.1984280,W,1,0,0.0,-28.6000,M,0.0000,M,0.0000,0000*7a
$GPRMC,214303.43,A,3725.4953800,N,12204.1984280,W,10.2070,214.1105,130820,,,,A*55
$GPGGA,214304.43,3725.4936100,N,12204.2016860,W,1,0,0.0,-28.5155,M,0.0000,M,0.0000,0000*70
$GPRMC,214304.43,A,3725.4936100,N,12204.2016860,W,12.4997,240.5395,130820,,,,A*57
$GPGGA,214305.43,3725.4928480,N,12204.2063360,W,1,0,0.0,-28.6626,M,0.0000,M,0.0000,0000*7a
$GPRMC,214305.43,A,3725.4928480,N,12204.2063360,W,14.6359,262.3264,130820,,,,A*58
$GPGGA,214306.43,3725.4927280,N,12204.2116820,W,1,0,0.0,-28.7499,M,0.0000,M,0.0000,0000*7b
$GPRMC,214306.43,A,3725.4927280,N,12204.2116820,W,16.0154,269.4594,130820,,,,A*51
$GPGGA,214307.43,3725.4927580,N,12204.2174780,W,1,0,0.0,-28.7555,M,0.0000,M,0.0000,0000*7d
$GPRMC,214307.43,A,3725.4927580,N,12204.2174780,W,17.2456,270.3299,130820,,,,A*57
$GPGGA,214308.43,3725.4928000,N,12204.2237600,W,1,0,0.0,-28.8656,M,0.0000,M,0.0000,0000*72
$GPRMC,214308.43,A,3725.4928000,N,12204.2237600,W,18.8606,270.7971,130820,,,,A*5c
$GPGGA,214309.43,3725.4928780,N,12204.2306900,W,1,0,0.0,-28.9046,M,0.0000,M,0.0000,0000*76
$GPRMC,214309.43,A,3725.4928780,N,12204.2306900,W,20.9026,270.6735,130820,,,,A*5f
$GPGGA,214310.43,3725.4928660,N,12204.2382800,W,1,0,0.0,-28.9469,M,0.0000,M,0.0000,0000*75
$GPRMC,214310.43,A,3725.4928660,N,12204.2382800,W,22.5071,269.7595,130820,,,,A*58
$GPGGA,214311.43,3725.4928000,N,12204.2463140,W,1,0,0.0,-29.0063,M,0.0000,M,0.0000,0000*77
$GPRMC,214311.43,A,3725.4928000,N,12204.2463140,W,23.5101,269.4048,130820,,,,A*5d
$GPGGA,214312.43,3725.4927220,N,12204.2546720,W,1,0,0.0,-29.0311,M,0.0000,M,0.0000,0000*7b
$GPRMC,214312.43,A,3725.4927220,N,12204.2546720,W,24.4462,269.3788,130820,,,,A*5d
$GPGGA,214313.43,3725.4926800,N,12204.2633060,W,1,0,0.0,-28.9574,M,0.0000,M,0.0000,0000*7c
$GPRMC,214313.43,A,3725.4926800,N,12204.2633060,W,24.8648,269.9595,130820,,,,A*55
$GPGGA,214314.43,3725.4927220,N,12204.2718860,W,1,0,0.0,-28.9174,M,0.0000,M,0.0000,0000*76
$GPRMC,214314.43,A,3725.4927220,N,12204.2718860,W,24.3985,270.5933,130820,,,,A*5a
$GPGGA,214315.43,3725.4928120,N,12204.2804540,W,1,0,0.0,-28.8707,M,0.0000,M,0.0000,0000*75
$GPRMC,214315.43,A,3725.4928120,N,12204.2804540,W,24.7507,270.8503,130820,,,,A*5a
$GPGGA,214316.43,3725.4928900,N,12204.2891780,W,1,0,0.0,-28.8114,M,0.0000,M,0.0000,0000*7a
$GPRMC,214316.43,A,3725.4928900,N,12204.2891780,W,25.2861,270.5413,130820,,,,A*55
$GPGGA,214317.43,3725.4929260,N,12204.2980520,W,1,0,0.0,-28.7589,M,0.0000,M,0.0000,0000*71
$GPRMC,214317.43,A,3725.4929260,N,12204.2980520,W,25.4496,270.2536,130820,,,,A*52
$GPGGA,214318.43,3725.4929680,N,12204.3068780,W,1,0,0.0,-28.6994,M,0.0000,M,0.0000,0000*73
$GPRMC,214318.43,A,3725.4929680,N,12204.3068780,W,25.1686,270.3567,130820,,,,A*52
$GPGGA,214319.43,3725.4929740,N,12204.3156620,W,1,0,0.0,-28.6664,M,0.0000,M,0.0000,0000*78
$GPRMC,214319.43,A,3725.4929740,N,12204.3156620,W,25.2581,269.8952,130820,,,,A*57
$GPGGA,214320.43,3725.4929440,N,12204.3244760,W,1,0,0.0,-28.6448,M,0.0000,M,0.0000,0000*78
$GPRMC,214320.43,A,3725.4929440,N,12204.3244760,W,25.2063,269.6662,130820,,,,A*50
$GPGGA,214321.43,3725.4929020,N,12204.3332360,W,1,0,0.0,-28.6845,M,0.0000,M,0.0000,0000*7e
$GPRMC,214321.43,A,3725.4929020,N,12204.3332360,W,25.1191,269.7662,130820,,,,A*59
$GPGGA,214322.43,3725.4928780,N,12204.3419840,W,1,0,0.0,-28.7265,M,0.0000,M,0.0000,0000*7f
$GPRMC,214322.43,A,3725.4928780,N,12204.3419840,W,25.0499,269.8110,130820,,,,A*50
$GPGGA,214323.43,3725.4928420,N,12204.3507440,W,1,0,0.0,-28.7805,M,0.0000,M,0.0000,0000*79
$GPRMC,214323.43,A,3725.4928420,N,12204.3507440,W,25.1716,269.6303,130820,,,,A*51
$GPGGA,214324.43,3725.4927940,N,12204.3595400,W,1,0,0.0,-28.8249,M,0.0000,M,0.0000,0000*78
$GPRMC,214324.43,A,3725.4927940,N,12204.3595400,W,25.2748,269.5580,130820,,,,A*5b
$GPGGA,214325.43,3725.4927460,N,12204.3683900,W,1,0,0.0,-28.8958,M,0.0000,M,0.0000,0000*74
$GPRMC,214325.43,A,3725.4927460,N,12204.3683900,W,25.4905,269.6926,130820,,,,A*5e
$GPGGA,214326.43,3725.4927100,N,12204.3773300,W,1,0,0.0,-28.9259,M,0.0000,M,0.0000,0000*7b
$GPRMC,214326.43,A,3725.4927100,N,12204.3773300,W,25.6948,269.7461,130820,,,,A*5e
$GPGGA,214327.43,3725.4926800,N,12204.3862880,W,1,0,0.0,-28.8875,M,0.0000,M,0.0000,0000*7b
$GPRMC,214327.43,A,3725.4926800,N,12204.3862880,W,25.6197,269.8291,130820,,,,A*57
$GPGGA,214328.43,3725.4926740,N,12204.3952220,W,1,0,0.0,-28.8295,M,0.0000,M,0.0000,0000*79
$GPRMC,214328.43,A,3725.4926740,N,12204.3952220,W,25.6649,270.0345,130820,,,,A*5d
$GPGGA,214329.43,3725.4926560,N,12204.4042040,W,1,0,0.0,-28.7596,M,0.0000,M,0.0000,0000*78
$GPRMC,214329.43,A,3725.4926560,N,12204.4042040,W,25.8603,269.4715,130820,,,,A*5a
$GPGGA,214330.43,3725.4925360,N,12204.4132640,W,1,0,0.0,-28.7006,M,0.0000,M,0.0000,0000*79
$GPRMC,214330.43,A,3725.4925360,N,12204.4132640,W,26.1466,269.1684,130820,,,,A*50
$GPGGA,214331.43,3725.4924220,N,12204.4224140,W,1,0,0.0,-28.5907,M,0.0000,M,0.0000,0000*75
$GPRMC,214331.43,A,3725.4924220,N,12204.4224140,W,26.3195,269.2754,130820,,,,A*52
$GPGGA,214332.43,3725.4922900,N,12204.4315940,W,1,0,0.0,-28.5367,M,0.0000,M,0.0000,0000*7e
$GPRMC,214332.43,A,3725.4922900,N,12204.4315940,W,26.3269,268.8749,130820,,,,A*52
$GPGGA,214333.43,3725.4922660,N,12204.4408100,W,1,0,0.0,-28.5431,M,0.0000,M,0.0000,0000*75
$GPRMC,214333.43,A,3725.4922660,N,12204.4408100,W,26.5445,270.9142,130820,,,,A*56
$GPGGA,214334.43,3725.4924280,N,12204.4501040,W,1,0,0.0,-28.6118,M,0.0000,M,0.0000,0000*7e
$GPRMC,214334.43,A,3725.4924280,N,12204.4501040,W,26.7214,271.3704,130820,,,,A*5f
$GPGGA,214335.43,3725.4924820,N,12204.4594220,W,1,0,0.0,-28.6781,M,0.0000,M,0.0000,0000*71
$GPRMC,214335.43,A,3725.4924820,N,12204.4594220,W,26.8040,270.0206,130820,,,,A*5f
$GPGGA,214336.43,3725.4924640,N,12204.4688180,W,1,0,0.0,-28.7712,M,0.0000,M,0.0000,0000*76
$GPRMC,214336.43,A,3725.4924640,N,12204.4688180,W,27.0376,270.2691,130820,,,,A*54
$GPGGA,214337.43,3725.4925180,N,12204.4782440,W,1,0,0.0,-28.8282,M,0.0000,M,0.0000,0000*7c
$GPRMC,214337.43,A,3725.4925180,N,12204.4782440,W,26.9983,270.5585,130820,,,,A*54
$GPGGA,214338.43,3725.4925780,N,12204.4875980,W,1,0,0.0,-28.9298,M,0.0000,M,0.0000,0000*79
$GPRMC,214338.43,A,3725.4925780,N,12204.4875980,W,26.5941,270.5916,130820,,,,A*5f
$GPGGA,214339.43,3725.4926440,N,12204.4967660,W,1,0,0.0,-28.8231,M,0.0000,M,0.0000,0000*75
$GPRMC,214339.43,A,3725.4926440,N,12204.4967660,W,25.9226,270.6339,130820,,,,A*50
$GPGGA,214340.43,3725.4927040,N,12204.5056940,W,1,0,0.0,-28.7604,M,0.0000,M,0.0000,0000*74
$GPRMC,214340.43,A,3725.4927040,N,12204.5056940,W,25.3541,270.5719,130820,,,,A*55
$GPGGA,214341.43,3725.4927340,N,12204.5144600,W,1,0,0.0,-28.7044,M,0.0000,M,0.0000,0000*7d
$GPRMC,214341.43,A,3725.4927340,N,12204.5144600,W,24.9111,270.1731,130820,,,,A*5a
$GPGGA,214342.43,3725.4927220,N,12204.5230760,W,1,0,0.0,-28.6528,M,0.0000,M,0.0000,0000*70
$GPRMC,214342.43,A,3725.4927220,N,12204.5230760,W,24.5831,270.0187,130820,,,,A*54
$GPGGA,214343.43,3725.4927280,N,12204.5316260,W,1,0,0.0,-28.6321,M,0.0000,M,0.0000,0000*74
$GPRMC,214343.43,A,3725.4927280,N,12204.5316260,W,24.4351,270.2456,130820,,,,A*58
$GPGGA,214344.43,3725.4927280,N,12204.5401100,W,1,0,0.0,-28.5966,M,0.0000,M,0.0000,0000*7d
$GPRMC,214344.43,A,3725.4927280,N,12204.5401100,W,24.2472,269.8935,130820,,,,A*51
$GPGGA,214345.43,3725.4927040,N,12204.5485460,W,1,0,0.0,-28.6475,M,0.0000,M,0.0000,0000*71
$GPRMC,214345.43,A,3725.4927040,N,12204.5485460,W,24.1530,269.9424,130820,,,,A*59
$GPGGA,214346.43,3725.4926860,N,12204.5569460,W,1,0,0.0,-28.7102,M,0.0000,M,0.0000,0000*7e
$GPRMC,214346.43,A,3725.4926860,N,12204.5569460,W,24.0577,270.0202,130820,,,,A*53
$GPGGA,214347.43,3725.4926800,N,12204.5653460,W,1,0,0.0,-28.7687,M,0.0000,M,0.0000,0000*79
$GPRMC,214347.43,A,3725.4926800,N,12204.5653460,W,24.1557,269.9000,130820,,,,A*5c
$GPGGA,214348.43,3725.4926560,N,12204.5738060,W,1,0,0.0,-28.8623,M,0.0000,M,0.0000,0000*74
$GPRMC,214348.43,A,3725.4926560,N,12204.5738060,W,24.3169,269.6976,130820,,,,A*5c
$GPGGA,214349.43,3725.4926020,N,12204.5822480,W,1,0,0.0,-28.9572,M,0.0000,M,0.0000,0000*7c
$GPRMC,214349.43,A,3725.4926020,N,12204.5822480,W,24.0667,269.4827,130820,,,,A*5f
$GPGGA,214350.43,3725.4925300,N,12204.5905580,W,1,0,0.0,-28.9891,M,0.0000,M,0.0000,0000*73
$GPRMC,214350.43,A,3725.4925300,N,12204.5905580,W,23.5310,269.4319,130820,,,,A*51
$GPGGA,214351.43,3725.4925000,N,12204.5987480,W,1,0,0.0,-28.9455,M,0.0000,M,0.0000,0000*7e
$GPRMC,214351.43,A,3725.4925000,N,12204.5987480,W,23.4579,269.9298,130820,,,,A*55
$GPGGA,214352.43,3725.4925180,N,12204.6069260,W,1,0,0.0,-28.8910,M,0.0000,M,0.0000,0000*7b
$GPRMC,214352.43,A,3725.4925180,N,12204.6069260,W,23.3381,270.4006,130820,,,,A*5b
$GPGGA,214353.43,3725.4925780,N,12204.6149780,W,1,0,0.0,-28.7847,M,0.0000,M,0.0000,0000*78
$GPRMC,214353.43,A,3725.4925780,N,12204.6149780,W,22.8227,270.5725,130820,,,,A*54
$GPGGA,214354.43,3725.4926200,N,12204.6228260,W,1,0,0.0,-28.7204,M,0.0000,M,0.0000,0000*73
$GPRMC,214354.43,A,3725.4926200,N,12204.6228260,W,22.2000,270.1891,130820,,,,A*5b
$GPGGA,214355.43,3725.4926080,N,12204.6304400,W,1,0,0.0,-28.6631,M,0.0000,M,0.0000,0000*74
$GPRMC,214355.43,A,3725.4926080,N,12204.6304400,W,21.4599,269.7361,130820,,,,A*55
$GPGGA,214356.43,3725.4925540,N,12204.6377540,W,1,0,0.0,-28.7066,M,0.0000,M,0.0000,0000*79
$GPRMC,214356.43,A,3725.4925540,N,12204.6377540,W,20.4997,269.3376,130820,,,,A*5c
$GPGGA,214357.43,3725.4923800,N,12204.6446600,W,1,0,0.0,-28.8393,M,0.0000,M,0.0000,0000*73
$GPRMC,214357.43,A,3725.4923800,N,12204.6446600,W,18.8964,267.4870,130820,,,,A*5f
$GPGGA,214358.43,3725.4920620,N,12204.6507860,W,1,0,0.0,-29.0034,M,0.0000,M,0.0000,0000*78
$GPRMC,214358.43,A,3725.4920620,N,12204.6507860,W,16.1796,265.8013,130820,,,,A*54
$GPGGA,214359.43,3725.4916780,N,12204.6558620,W,1,0,0.0,-29.1720,M,0.0000,M,0.0000,0000*74
$GPRMC,214359.43,A,3725.4916780,N,12204.6558620,W,13.1103,263.7698,130820,,,,A*58
$GPGGA,214400.43,3725.4912940,N,12204.6598280,W,1,0,0.0,-29.3179,M,0.0000,M,0.0000,0000*73
$GPRMC,214400.43,A,3725.4912940,N,12204.6598280,W,9.5982,263.3430,130820,,,,A*6d
$GPGGA,214401.43,3725.4910900,N,12204.6624740,W,1,0,0.0,-29.4045,M,0.0000,M,0.0000,0000*70
$GPRMC,214401.43,A,3725.4910900,N,12204.6624740,W,5.6720,264.9018,130820,,,,A*6d
$GPGGA,214402.43,3725.4910720,N,12204.6638600,W,1,0,0.0,-29.4501,M,0.0000,M,0.0000,0000*72
$GPRMC,214402.43,A,3725.4910720,N,12204.6638600,W,2.3877,267.7952,130820,,,,A*6f
$GPGGA,214403.43,3725.4910840,N,12204.6642620,W,1,0,0.0,-29.4691,M,0.0000,M,0.0000,0000*7f
$GPRMC,214403.43,A,3725.4910840,N,12204.6642620,W,0.3340,268.7653,130820,,,,A*64
$GPGGA,214404.43,3725.4910840,N,12204.6642980,W,1,0,0.0,-29.4758,M,0.0000,M,0.0000,0000*79
$GPRMC,214404.43,A,3725.4910840,N,12204.6642980,W,0.0953,268.8517,130820,,,,A*61
$GPGGA,214405.43,3725.4910900,N,12204.6643340,W,1,0,0.0,-29.4768,M,0.0000,M,0.0000,0000*79
$GPRMC,214405.43,A,3725.4910900,N,12204.6643340,W,0.1082,268.9281,130820,,,,A*6f
$GPGGA,214406.43,3725.4910900,N,12204.6643700,W,1,0,0.0,-29.4778,M,0.0000,M,0.0000,0000*7b
$GPRMC,214406.43,A,3725.4910900,N,12204.6643700,W,0.0835,268.9930,130820,,,,A*68
$GPGGA,214407.43,3725.4910900,N,12204.6643820,W,1,0,0.0,-29.4791,M,0.0000,M,0.0000,0000*70
$GPRMC,214407.43,A,3725.4910900,N,12204.6643820,W,0.0101,269.0125,130820,,,,A*6e
$GPGGA,214408.43,3725.4910960,N,12204.6645560,W,1,0,0.0,-29.4891,M,0.0000,M,0.0000,0000*79
$GPRMC,214408.43,A,3725.4910960,N,12204.6645560,W,1.3255,269.3369,130820,,,,A*61
$GPGGA,214409.43,3725.4911140,N,12204.6654920,W,1,0,0.0,-29.5302,M,0.0000,M,0.0000,0000*7b
$GPRMC,214409.43,A,3725.4911140,N,12204.6654920,W,4.3260,269.9101,130820,,,,A*66
$GPGGA,214410.43,3725.4911260,N,12204.6675980,W,1,0,0.0,-29.5829,M,0.0000,M,0.0000,0000*79
$GPRMC,214410.43,A,3725.4911260,N,12204.6675980,W,7.6757,270.1901,130820,,,,A*69
$GPGGA,214411.43,3725.4911020,N,12204.6707960,W,1,0,0.0,-29.7202,M,0.0000,M,0.0000,0000*75
$GPRMC,214411.43,A,3725.4911020,N,12204.6707960,W,10.6102,269.1150,130820,,,,A*50
$GPGGA,214412.43,3725.4906820,N,12204.6747440,W,1,0,0.0,-29.8167,M,0.0000,M,0.0000,0000*7c
$GPRMC,214412.43,A,3725.4906820,N,12204.6747440,W,11.7807,259.7393,130820,,,,A*52
$GPGGA,214413.43,3725.4893740,N,12204.6784400,W,1,0,0.0,-29.9241,M,0.0000,M,0.0000,0000*74
$GPRMC,214413.43,A,3725.4893740,N,12204.6784400,W,11.6152,242.5227,130820,,,,A*52
$GPGGA,214414.43,3725.4871060,N,12204.6816500,W,1,0,0.0,-29.8150,M,0.0000,M,0.0000,0000*7d
$GPRMC,214414.43,A,3725.4871060,N,12204.6816500,W,13.2621,225.2998,130820,,,,A*55
$GPGGA,214415.43,3725.4837760,N,12204.6843920,W,1,0,0.0,-29.7164,M,0.0000,M,0.0000,0000*7f
$GPRMC,214415.43,A,3725.4837760,N,12204.6843920,W,15.3506,208.6501,130820,,,,A*59
$GPGGA,214416.43,3725.4794560,N,12204.6860240,W,1,0,0.0,-29.7787,M,0.0000,M,0.0000,0000*7f
$GPRMC,214416.43,A,3725.4794560,N,12204.6860240,W,17.2024,192.6242,130820,,,,A*54
$GPGGA,214417.43,3725.4744580,N,12204.6865340,W,1,0,0.0,-29.7864,M,0.0000,M,0.0000,0000*7b
$GPRMC,214417.43,A,3725.4744580,N,12204.6865340,W,18.9419,181.5332,130820,,,,A*5b
$GPGGA,214418.43,3725.4689500,N,12204.6863480,W,1,0,0.0,-29.7700,M,0.0000,M,0.0000,0000*7c
$GPRMC,214418.43,A,3725.4689500,N,12204.6863480,W,20.7090,177.3548,130820,,,,A*55
$GPGGA,214419.43,3725.4630220,N,12204.6859100,W,1,0,0.0,-29.6832,M,0.0000,M,0.0000,0000*71
$GPRMC,214419.43,A,3725.4630220,N,12204.6859100,W,21.7945,176.3974,130820,,,,A*55
$GPGGA,214420.43,3725.4569320,N,12204.6853820,W,1,0,0.0,-29.6701,M,0.0000,M,0.0000,0000*7b
$GPRMC,214420.43,A,3725.4569320,N,12204.6853820,W,21.8987,175.7533,130820,,,,A*59
$GPGGA,214421.43,3725.4509200,N,12204.6847940,W,1,0,0.0,-29.6338,M,0.0000,M,0.0000,0000*73
$GPRMC,214421.43,A,3725.4509200,N,12204.6847940,W,21.4100,175.5472,130820,,,,A*52
$GPGGA,214422.43,3725.4450400,N,12204.6842540,W,1,0,0.0,-29.6205,M,0.0000,M,0.0000,0000*7d
$GPRMC,214422.43,A,3725.4450400,N,12204.6842540,W,20.9505,175.9998,130820,,,,A*5b
$GPGGA,214423.43,3725.4393820,N,12204.6838040,W,1,0,0.0,-29.5444,M,0.0000,M,0.0000,0000*72
$GPRMC,214423.43,A,3725.4393820,N,12204.6838040,W,19.7754,176.3044,130820,,,,A*57
$GPGGA,214424.43,3725.4340780,N,12204.6832400,W,1,0,0.0,-29.5148,M,0.0000,M,0.0000,0000*7d
$GPRMC,214424.43,A,3725.4340780,N,12204.6832400,W,18.4165,174.6717,130820,,,,A*51
$GPGGA,214425.43,3725.4292780,N,12204.6826580,W,1,0,0.0,-29.4734,M,0.0000,M,0.0000,0000*72
$GPRMC,214425.43,A,3725.4292780,N,12204.6826580,W,16.1632,174.5552,130820,,,,A*5c
$GPGGA,214426.43,3725.4251260,N,12204.6822140,W,1,0,0.0,-29.4445,M,0.0000,M,0.0000,0000*7c
$GPRMC,214426.43,A,3725.4251260,N,12204.6822140,W,13.8822,175.3216,130820,,,,A*54
$GPGGA,214427.43,3725.4216280,N,12204.6819200,W,1,0,0.0,-29.4298,M,0.0000,M,0.0000,0000*79
$GPRMC,214427.43,A,3725.4216280,N,12204.6819200,W,11.2012,176.5736,130820,,,,A*56
$GPGGA,214428.43,3725.4189460,N,12204.6817760,W,1,0,0.0,-29.4141,M,0.0000,M,0.0000,0000*71
$GPRMC,214428.43,A,3725.4189460,N,12204.6817760,W,8.1017,177.6310,130820,,,,A*65
$GPGGA,214429.43,3725.4170980,N,12204.6816800,W,1,0,0.0,-29.4108,M,0.0000,M,0.0000,0000*70
$GPRMC,214429.43,A,3725.4170980,N,12204.6816800,W,5.4556,177.7672,130820,,,,A*61
$GPGGA,214430.43,3725.4156940,N,12204.6816200,W,1,0,0.0,-29.4031,M,0.0000,M,0.0000,0000*71
$GPRMC,214430.43,A,3725.4156940,N,12204.6816200,W,4.6245,177.7857,130820,,,,A*64
$GPGGA,214431.43,3725.4146020,N,12204.6815660,W,1,0,0.0,-29.3968,M,0.0000,M,0.0000,0000*7d
$GPRMC,214431.43,A,3725.4146020,N,12204.6815660,W,3.1433,177.7918,130820,,,,A*67
$GPGGA,214432.43,3725.4139960,N,12204.6815360,W,1,0,0.0,-29.3961,M,0.0000,M,0.0000,0000*77
$GPRMC,214432.43,A,3725.4139960,N,12204.6815360,W,1.1481,177.8226,130820,,,,A*66
$GPGGA,214433.43,3725.4138940,N,12204.6815300,W,1,0,0.0,-29.4098,M,0.0000,M,0.0000,0000*7b
$GPRMC,214433.43,A,3725.4138940,N,12204.6815300,W,0.0588,177.8352,130820,,,,A*68
$GPGGA,214434.43,3725.4138580,N,12204.6815240,W,1,0,0.0,-29.4141,M,0.0000,M,0.0000,0000*7c
$GPRMC,214434.43,A,3725.4138580,N,12204.6815240,W,0.1700,177.8383,130820,,,,A*65
$GPGGA,214435.43,3725.4138280,N,12204.6815240,W,1,0,0.0,-29.4168,M,0.0000,M,0.0000,0000*71
$GPRMC,214435.43,A,3725.4138280,N,12204.6815240,W,0.0070,177.8420,130820,,,,A*6c
$GPGGA,214436.43,3725.4138280,N,12204.6815240,W,1,0,0.0,-29.4198,M,0.0000,M,0.0000,0000*7d
$GPRMC,214436.43,A,3725.4138280,N,12204.6815240,W,0.0050,177.8422,130820,,,,A*6f
$GPGGA,214437.43,3725.4138280,N,12204.6815240,W,1,0,0.0,-29.4218,M,0.0000,M,0.0000,0000*77
$GPRMC,214437.43,A,3725.4138280,N,12204.6815240,W,0.0035,177.8404,130820,,,,A*69
$GPGGA,214438.43,3725.4138280,N,12204.6815240,W,1,0,0.0,-29.4231,M,0.0000,M,0.0000,0000*73
$GPRMC,214438.43,A,3725.4138280,N,12204.6815240,W,0.0025,177.8411,130820,,,,A*63
$GPGGA,214439.43,3725.4138280,N,12204.6815240,W,1,0,0.0,-29.4238,M,0.0000,M,0.0000,0000*7b
$GPRMC,214439.43,A,3725.4138280,N,12204.6815240,W,0.0000,177.8410,130820,,,,A*64
$GPGGA,214440.43,3725.4138280,N,12204.6815240,W,1,0,0.0,-29.4238,M,0.0000,M,0.0000,0000*75
$GPRMC,214440.43,A,3725.4138280,N,12204.6815240,W,0.0007,177.8410,130820,,,,A*6d
$GPGGA,214441.43,3725.4138280,N,12204.6815240,W,1,0,0.0,-29.4248,M,0.0000,M,0.0000,0000*73
$GPRMC,214441.43,A,3725.4138280,N,12204.6815240,W,0.0019,177.8410,130820,,,,A*63
$GPGGA,214442.43,3725.4138280,N,12204.6815240,W,1,0,0.0,-29.4251,M,0.0000,M,0.0000,0000*78
$GPRMC,214442.43,A,3725.4138280,N,12204.6815240,W,0.0022,177.8408,130820,,,,A*61
$GPGGA,214443.43,3725.4138280,N,12204.6815240,W,1,0,0.0,-29.4268,M,0.0000,M,0.0000,0000*73
$GPRMC,214443.43,A,3725.4138280,N,12204.6815240,W,0.0000,177.8407,130820,,,,A*6f
$GPGGA,214444.43,3725.4138280,N,12204.6815240,W,1,0,0.0,-29.4278,M,0.0000,M,0.0000,0000*75
$GPRMC,214444.43,A,3725.4138280,N,12204.6815240,W,0.0013,177.8406,130820,,,,A*6b
$GPGGA,214445.43,3725.4138280,N,12204.6815240,W,1,0,0.0,-29.4288,M,0.0000,M,0.0000,0000*7b
$GPRMC,214445.43,A,3725.4138280,N,12204.6815240,W,0.0018,177.8405,130820,,,,A*62
$GPGGA,214446.43,3725.4138280,N,12204.6815240,W,1,0,0.0,-29.4298,M,0.0000,M,0.0000,0000*79
$GPRMC,214446.43,A,3725.4138280,N,12204.6815240,W,0.0043,177.8404,130820,,,,A*6e
$GPGGA,214447.43,3725.4137500,N,12204.6815180,W,1,0,0.0,-29.4341,M,0.0000,M,0.0000,0000*72
$GPRMC,214447.43,A,3725.4137500,N,12204.6815180,W,0.9010,177.8557,130820,,,,A*68
$GPGGA,214448.43,3725.4131620,N,12204.6814880,W,1,0,0.0,-29.4415,M,0.0000,M,0.0000,0000*74
$GPRMC,214448.43,A,3725.4131620,N,12204.6814880,W,3.4553,177.9291,130820,,,,A*68
$GPGGA,214449.43,3725.4118000,N,12204.6814460,W,1,0,0.0,-29.4365,M,0.0000,M,0.0000,0000*78
$GPRMC,214449.43,A,3725.4118000,N,12204.6814460,W,6.5137,178.3678,130820,,,,A*60
$GPGGA,214450.43,3725.4095500,N,12204.6813980,W,1,0,0.0,-29.4201,M,0.0000,M,0.0000,0000*76
$GPRMC,214450.43,A,3725.4095500,N,12204.6813980,W,9.6123,178.9666,130820,,,,A*61
$GPGGA,214451.43,3725.4063460,N,12204.6813620,W,1,0,0.0,-29.4151,M,0.0000,M,0.0000,0000*7a
$GPRMC,214451.43,A,3725.4063460,N,12204.6813620,W,13.4797,179.6421,130820,,,,A*54
$GPGGA,214452.43,3725.4021040,N,12204.6813980,W,1,0,0.0,-29.3978,M,0.0000,M,0.0000,0000*78
$GPRMC,214452.43,A,3725.4021040,N,12204.6813980,W,16.9151,180.7126,130820,,,,A*53
$GPGGA,214453.43,3725.3970400,N,12204.6814880,W,1,0,0.0,-29.3904,M,0.0000,M,0.0000,0000*7e
$GPRMC,214453.43,A,3725.3970400,N,12204.6814880,W,19.5759,180.7759,130820,,,,A*5d
$GPGGA,214454.43,3725.3912260,N,12204.6815600,W,1,0,0.0,-29.3054,M,0.0000,M,0.0000,0000*76
$GPRMC,214454.43,A,3725.3912260,N,12204.6815600,W,22.0657,180.5747,130820,,,,A*56
$GPGGA,214455.43,3725.3847580,N,12204.6817880,W,1,0,0.0,-29.2317,M,0.0000,M,0.0000,0000*7e
$GPRMC,214455.43,A,3725.3847580,N,12204.6817880,W,24.5899,182.1917,130820,,,,A*59
$GPGGA,214456.43,3725.3776060,N,12204.6822980,W,1,0,0.0,-29.2038,M,0.0000,M,0.0000,0000*72
$GPRMC,214456.43,A,3725.3776060,N,12204.6822980,W,26.7609,183.8116,130820,,,,A*5d
$GPGGA,214457.43,3725.3698900,N,12204.6829580,W,1,0,0.0,-29.1841,M,0.0000,M,0.0000,0000*7f
$GPRMC,214457.43,A,3725.3698900,N,12204.6829580,W,28.8882,183.5738,130820,,,,A*5e
$GPGGA,214458.43,3725.3615800,N,12204.6835760,W,1,0,0.0,-29.1321,M,0.0000,M,0.0000,0000*78
$GPRMC,214458.43,A,3725.3615800,N,12204.6835760,W,30.9277,183.4601,130820,,,,A*56
$GPGGA,214459.43,3725.3527780,N,12204.6842780,W,1,0,0.0,-29.0777,M,0.0000,M,0.0000,0000*74
$GPRMC,214459.43,A,3725.3527780,N,12204.6842780,W,32.4710,183.7947,130820,,,,A*59
$GPGGA,214500.43,3725.3435800,N,12204.6851300,W,1,0,0.0,-29.0263,M,0.0000,M,0.0000,0000*72
$GPRMC,214500.43,A,3725.3435800,N,12204.6851300,W,33.8161,184.4323,130820,,,,A*5e
$GPGGA,214501.43,3725.3341360,N,12204.6860060,W,1,0,0.0,-28.9400,M,0.0000,M,0.0000,0000*76
$GPRMC,214501.43,A,3725.3341360,N,12204.6860060,W,34.1399,183.5942,130820,,,,A*51
$GPGGA,214502.43,3725.3246740,N,12204.6865340,W,1,0,0.0,-28.8968,M,0.0000,M,0.0000,0000*73
$GPRMC,214502.43,A,3725.3246740,N,12204.6865340,W,33.9736,181.4581,130820,,,,A*58
$GPGGA,214503.43,3725.3152600,N,12204.6865040,W,1,0,0.0,-28.8264,M,0.0000,M,0.0000,0000*75
$GPRMC,214503.43,A,3725.3152600,N,12204.6865040,W,33.6087,178.7379,130820,,,,A*5f
$GPGGA,214504.43,3725.3060080,N,12204.6860000,W,1,0,0.0,-28.7877,M,0.0000,M,0.0000,0000*7a
$GPRMC,214504.43,A,3725.3060080,N,12204.6860000,W,32.8735,176.2675,130820,,,,A*54
$GPGGA,214505.43,3725.2970500,N,12204.6849140,W,1,0,0.0,-28.7172,M,0.0000,M,0.0000,0000*7d
$GPRMC,214505.43,A,3725.2970500,N,12204.6849140,W,31.8302,173.2178,130820,,,,A*53
$GPGGA,214506.43,3725.2884400,N,12204.6835340,W,1,0,0.0,-28.6858,M,0.0000,M,0.0000,0000*7c
$GPRMC,214506.43,A,3725.2884400,N,12204.6835340,W,30.5347,172.4770,130820,,,,A*56
$GPGGA,214507.43,3725.2802440,N,12204.6821900,W,1,0,0.0,-28.6085,M,0.0000,M,0.0000,0000*74
$GPRMC,214507.43,A,3725.2802440,N,12204.6821900,W,29.0745,172.8555,130820,,,,A*54
$GPGGA,214508.43,3725.2722580,N,12204.6812000,W,1,0,0.0,-28.5941,M,0.0000,M,0.0000,0000*70
$GPRMC,214508.43,A,3725.2722580,N,12204.6812000,W,28.8073,175.7442,130820,,,,A*56
$GPGGA,214509.43,3725.2642060,N,12204.6807860,W,1,0,0.0,-28.5294,M,0.0000,M,0.0000,0000*74
$GPRMC,214509.43,A,3725.2642060,N,12204.6807860,W,29.1289,178.9093,130820,,,,A*55
$GPGGA,214510.43,3725.2560100,N,12204.6807440,W,1,0,0.0,-28.4518,M,0.0000,M,0.0000,0000*74
$GPRMC,214510.43,A,3725.2560100,N,12204.6807440,W,29.8682,180.1739,130820,,,,A*59
$GPGGA,214511.43,3725.2475860,N,12204.6808100,W,1,0,0.0,-28.4191,M,0.0000,M,0.0000,0000*74
$GPRMC,214511.43,A,3725.2475860,N,12204.6808100,W,30.8217,180.4290,130820,,,,A*5f
$GPGGA,214512.43,3725.2388620,N,12204.6809180,W,1,0,0.0,-28.3449,M,0.0000,M,0.0000,0000*76
$GPRMC,214512.43,A,3725.2388620,N,12204.6809180,W,31.8843,180.7225,130820,,,,A*5d
$GPGGA,214513.43,3725.2298560,N,12204.6810620,W,1,0,0.0,-28.1530,M,0.0000,M,0.0000,0000*78
$GPRMC,214513.43,A,3725.2298560,N,12204.6810620,W,32.9231,180.7202,130820,,,,A*56
$GPGGA,214514.43,3725.2205200,N,12204.6812060,W,1,0,0.0,-28.2396,M,0.0000,M,0.0000,0000*73
$GPRMC,214514.43,A,3725.2205200,N,12204.6812060,W,34.2497,180.7173,130820,,,,A*56
$GPGGA,214515.43,3725.2108240,N,12204.6813440,W,1,0,0.0,-28.3623,M,0.0000,M,0.0000,0000*75
$GPRMC,214515.43,A,3725.2108240,N,12204.6813440,W,35.3986,180.5472,130820,,,,A*51
$GPGGA,214516.43,3725.2008340,N,12204.6814640,W,1,0,0.0,-28.4336,M,0.0000,M,0.0000,0000*75
$GPRMC,214516.43,A,3725.2008340,N,12204.6814640,W,36.4676,180.5750,130820,,,,A*50
$GPGGA,214517.43,3725.1905440,N,12204.6815720,W,1,0,0.0,-28.4909,M,0.0000,M,0.0000,0000*74
$GPRMC,214517.43,A,3725.1905440,N,12204.6815720,W,37.4609,180.3006,130820,,,,A*5c
$GPGGA,214518.43,3725.1800320,N,12204.6816260,W,1,0,0.0,-28.4316,M,0.0000,M,0.0000,0000*78
$GPRMC,214518.43,A,3725.1800320,N,12204.6816260,W,38.0419,180.1372,130820,,,,A*5e
$GPGGA,214519.43,3725.1694360,N,12204.6816920,W,1,0,0.0,-28.3150,M,0.0000,M,0.0000,0000*76
$GPRMC,214519.43,A,3725.1694360,N,12204.6816920,W,38.1236,180.4674,130820,,,,A*5b
$GPGGA,214520.43,3725.1588220,N,12204.6817880,W,1,0,0.0,-28.2026,M,0.0000,M,0.0000,0000*7c
$GPRMC,214520.43,A,3725.1588220,N,12204.6817880,W,38.2247,180.2643,130820,,,,A*57
$GPGGA,214521.43,3725.1481780,N,12204.6818540,W,1,0,0.0,-28.1097,M,0.0000,M,0.0000,0000*7d
$GPRMC,214521.43,A,3725.1481780,N,12204.6818540,W,38.2993,180.3004,130820,,,,A*59
$GPGGA,214522.43,3725.1374800,N,12204.6819260,W,1,0,0.0,-27.9928,M,0.0000,M,0.0000,0000*7a
$GPRMC,214522.43,A,3725.1374800,N,12204.6819260,W,38.6515,180.2281,130820,,,,A*5c
$GPGGA,214523.43,3725.1266980,N,12204.6819860,W,1,0,0.0,-27.9277,M,0.0000,M,0.0000,0000*7b
$GPRMC,214523.43,A,3725.1266980,N,12204.6819860,W,38.8869,180.2115,130820,,,,A*5a
$GPGGA,214524.43,3725.1158980,N,12204.6820460,W,1,0,0.0,-27.8556,M,0.0000,M,0.0000,0000*71
$GPRMC,214524.43,A,3725.1158980,N,12204.6820460,W,38.7356,180.3865,130820,,,,A*52
$GPGGA,214525.43,3725.1051460,N,12204.6822320,W,1,0,0.0,-27.8036,M,0.0000,M,0.0000,0000*79
$GPRMC,214525.43,A,3725.1051460,N,12204.6822320,W,38.6501,180.9336,130820,,,,A*5b
$GPGGA,214526.43,3725.0943460,N,12204.6825920,W,1,0,0.0,-27.7271,M,0.0000,M,0.0000,0000*72
$GPRMC,214526.43,A,3725.0943460,N,12204.6825920,W,39.0809,183.0315,130820,,,,A*57
$GPGGA,214527.43,3725.0835040,N,12204.6836720,W,1,0,0.0,-27.6597,M,0.0000,M,0.0000,0000*77
$GPRMC,214527.43,A,3725.0835040,N,12204.6836720,W,39.2251,185.2489,130820,,,,A*5f
$GPGGA,214528.43,3725.0725720,N,12204.6849440,W,1,0,0.0,-27.5840,M,0.0000,M,0.0000,0000*7e
$GPRMC,214528.43,A,3725.0725720,N,12204.6849440,W,39.6668,184.8725,130820,,,,A*56
$GPGGA,214529.43,3725.0614900,N,12204.6858320,W,1,0,0.0,-27.5083,M,0.0000,M,0.0000,0000*76
$GPRMC,214529.43,A,3725.0614900,N,12204.6858320,W,40.1821,182.7779,130820,,,,A*53
$GPGGA,214530.43,3725.0502760,N,12204.6863240,W,1,0,0.0,-27.4174,M,0.0000,M,0.0000,0000*75
$GPRMC,214530.43,A,3725.0502760,N,12204.6863240,W,40.4851,181.1404,130820,,,,A*56
$GPGGA,214531.43,3725.0389780,N,12204.6864500,W,1,0,0.0,-27.3227,M,0.0000,M,0.0000,0000*79
$GPRMC,214531.43,A,3725.0389780,N,12204.6864500,W,40.7548,180.1785,130820,,,,A*55
$GPGGA,214532.43,3725.0276380,N,12204.6864860,W,1,0,0.0,-27.2574,M,0.0000,M,0.0000,0000*74
$GPRMC,214532.43,A,3725.0276380,N,12204.6864860,W,40.8071,180.0545,130820,,,,A*57
$GPGGA,214533.43,3725.0163220,N,12204.6865160,W,1,0,0.0,-27.1334,M,0.0000,M,0.0000,0000*70
$GPRMC,214533.43,A,3725.0163220,N,12204.6865160,W,40.4762,180.1704,130820,,,,A*5d
$GPGGA,214534.43,3725.0052280,N,12204.6865700,W,1,0,0.0,-26.9906,M,0.0000,M,0.0000,0000*7c
$GPRMC,214534.43,A,3725.0052280,N,12204.6865700,W,39.0789,180.3153,130820,,,,A*5a
$GPGGA,214535.43,3724.9946980,N,12204.6866420,W,1,0,0.0,-26.8674,M,0.0000,M,0.0000,0000*7b
$GPRMC,214535.43,A,3724.9946980,N,12204.6866420,W,36.6025,180.3378,130820,,,,A*55
$GPGGA,214536.43,3724.9849720,N,12204.6867320,W,1,0,0.0,-26.6895,M,0.0000,M,0.0000,0000*7b
$GPRMC,214536.43,A,3724.9849720,N,12204.6867320,W,33.2025,180.4880,130820,,,,A*50
$GPGGA,214537.43,3724.9762000,N,12204.6868340,W,1,0,0.0,-26.6064,M,0.0000,M,0.0000,0000*76
$GPRMC,214537.43,A,3724.9762000,N,12204.6868340,W,29.7517,180.5919,130820,,,,A*51
$GPGGA,214538.43,3724.9684780,N,12204.6869960,W,1,0,0.0,-26.5164,M,0.0000,M,0.0000,0000*74
$GPRMC,214538.43,A,3724.9684780,N,12204.6869960,W,25.7094,181.2397,130820,,,,A*59
$GPGGA,214539.43,3724.9619620,N,12204.6872600,W,1,0,0.0,-26.4387,M,0.0000,M,0.0000,0000*77
$GPRMC,214539.43,A,3724.9619620,N,12204.6872600,W,21.2097,182.1922,130820,,,,A*52
$GPGGA,214540.43,3724.9566220,N,12204.6876200,W,1,0,0.0,-26.4009,M,0.0000,M,0.0000,0000*73
$GPRMC,214540.43,A,3724.9566220,N,12204.6876200,W,17.2797,183.4310,130820,,,,A*5e
$GPGGA,214541.43,3724.9523560,N,12204.6879680,W,1,0,0.0,-26.3621,M,0.0000,M,0.0000,0000*78
$GPRMC,214541.43,A,3724.9523560,N,12204.6879680,W,13.5784,183.6638,130820,,,,A*52
$GPGGA,214542.43,3724.9490140,N,12204.6881780,W,1,0,0.0,-26.3408,M,0.0000,M,0.0000,0000*7b
$GPRMC,214542.43,A,3724.9490140,N,12204.6881780,W,10.4480,182.6994,130820,,,,A*55
$GPGGA,214543.43,3724.9465420,N,12204.6882920,W,1,0,0.0,-26.3241,M,0.0000,M,0.0000,0000*7f
$GPRMC,214543.43,A,3724.9465420,N,12204.6882920,W,7.4965,181.9598,130820,,,,A*66
$GPGGA,214544.43,3724.9449280,N,12204.6883580,W,1,0,0.0,-26.3251,M,0.0000,M,0.0000,0000*7c
$GPRMC,214544.43,A,3724.9449280,N,12204.6883580,W,4.2491,181.9585,130820,,,,A*6b
$GPGGA,214545.43,3724.9439980,N,12204.6884000,W,1,0,0.0,-26.3291,M,0.0000,M,0.0000,0000*77
$GPRMC,214545.43,A,3724.9439980,N,12204.6884000,W,2.5043,181.8690,130820,,,,A*60
$GPGGA,214546.43,3724.9435240,N,12204.6884000,W,1,0,0.0,-26.3802,M,0.0000,M,0.0000,0000*7f
$GPRMC,214546.43,A,3724.9435240,N,12204.6884000,W,1.0344,181.7967,130820,,,,A*62
$GPGGA,214547.43,3724.9433020,N,12204.6884060,W,1,0,0.0,-26.3958,M,0.0000,M,0.0000,0000*74
$GPRMC,214547.43,A,3724.9433020,N,12204.6884060,W,0.6088,181.7611,130820,,,,A*6d
$GPGGA,214548.43,3724.9431760,N,12204.6884120,W,1,0,0.0,-26.4028,M,0.0000,M,0.0000,0000*76
$GPRMC,214548.43,A,3724.9431760,N,12204.6884120,W,0.4274,181.7439,130820,,,,A*6d
$GPGGA,214549.43,3724.9430260,N,12204.6884180,W,1,0,0.0,-26.4058,M,0.0000,M,0.0000,0000*7e
$GPRMC,214549.43,A,3724.9430260,N,12204.6884180,W,0.5696,181.7093,130820,,,,A*6f
$GPGGA,214550.43,3724.9428880,N,12204.6884240,W,1,0,0.0,-26.4081,M,0.0000,M,0.0000,0000*70
$GPRMC,214550.43,A,3724.9428880,N,12204.6884240,W,0.4172,181.6736,130820,,,,A*60
$GPGGA,214551.43,3724.9427860,N,12204.6884240,W,1,0,0.0,-26.4138,M,0.0000,M,0.0000,0000*73
$GPRMC,214551.43,A,3724.9427860,N,12204.6884240,W,0.5503,181.6480,130820,,,,A*6d
$GPGGA,214552.43,3724.9424380,N,12204.6884360,W,1,0,0.0,-26.4168,M,0.0000,M,0.0000,0000*70
$GPRMC,214552.43,A,3724.9424380,N,12204.6884360,W,2.2563,181.5830,130820,,,,A*6c
$GPGGA,214553.43,3724.9412140,N,12204.6884720,W,1,0,0.0,-26.4168,M,0.0000,M,0.0000,0000*7a
$GPRMC,214553.43,A,3724.9412140,N,12204.6884720,W,7.0363,181.5323,130820,,,,A*6e
$GPGGA,214554.43,3724.9384720,N,12204.6885440,W,1,0,0.0,-26.3985,M,0.0000,M,0.0000,0000*7d
$GPRMC,214554.43,A,3724.9384720,N,12204.6885440,W,12.3351,180.9158,130820,,,,A*50
$GPGGA,214555.43,3724.9344340,N,12204.6885800,W,1,0,0.0,-26.3634,M,0.0000,M,0.0000,0000*7f
$GPRMC,214555.43,A,3724.9344340,N,12204.6885800,W,16.5291,180.4124,130820,,,,A*5e
$GPGGA,214556.43,3724.9294660,N,12204.6885800,W,1,0,0.0,-26.3194,M,0.0000,M,0.0000,0000*7a
$GPRMC,214556.43,A,3724.9294660,N,12204.6885800,W,19.0628,179.8091,130820,,,,A*5f
$GPGGA,214557.43,3724.9238080,N,12204.6885380,W,1,0,0.0,-26.2544,M,0.0000,M,0.0000,0000*7e
$GPRMC,214557.43,A,3724.9238080,N,12204.6885380,W,21.4930,179.4871,130820,,,,A*50
$GPGGA,214558.43,3724.9175920,N,12204.6884960,W,1,0,0.0,-26.1570,M,0.0000,M,0.0000,0000*79
$GPRMC,214558.43,A,3724.9175920,N,12204.6884960,W,23.0267,179.7581,130820,,,,A*5d
$GPGGA,214559.43,3724.9111120,N,12204.6885440,W,1,0,0.0,-26.0400,M,0.0000,M,0.0000,0000*7b
$GPRMC,214559.43,A,3724.9111120,N,12204.6885440,W,23.3483,180.9216,130820,,,,A*56
$GPGGA,214600.43,3724.9046800,N,12204.6889160,W,1,0,0.0,-25.9236,M,0.0000,M,0.0000,0000*7e
$GPRMC,214600.43,A,3724.9046800,N,12204.6889160,W,22.8826,183.5832,130820,,,,A*50
$GPGGA,214601.43,3724.8981760,N,12204.6895280,W,1,0,0.0,-25.8417,M,0.0000,M,0.0000,0000*71
$GPRMC,214601.43,A,3724.8981760,N,12204.6895280,W,24.6334,184.4312,130820,,,,A*54
$GPGGA,214602.43,3724.8910240,N,12204.6901100,W,1,0,0.0,-25.7142,M,0.0000,M,0.0000,0000*70
$GPRMC,214602.43,A,3724.8910240,N,12204.6901100,W,26.4802,183.0275,130820,,,,A*52
$GPGGA,214603.43,3724.8836620,N,12204.6905000,W,1,0,0.0,-25.5649,M,0.0000,M,0.0000,0000*7d
$GPRMC,214603.43,A,3724.8836620,N,12204.6905000,W,26.4314,181.9073,130820,,,,A*52
$GPGGA,214604.43,3724.8764680,N,12204.6906680,W,1,0,0.0,-25.4296,M,0.0000,M,0.0000,0000*72
$GPRMC,214604.43,A,3724.8764680,N,12204.6906680,W,25.0114,180.4867,130820,,,,A*5e
$GPGGA,214605.43,3724.8697780,N,12204.6906860,W,1,0,0.0,-25.1869,M,0.0000,M,0.0000,0000*70
$GPRMC,214605.43,A,3724.8697780,N,12204.6906860,W,23.0964,179.9456,130820,,,,A*5f
$GPGGA,214606.43,3724.8636160,N,12204.6906560,W,1,0,0.0,-25.0277,M,0.0000,M,0.0000,0000*79
$GPRMC,214606.43,A,3724.8636160,N,12204.6906560,W,21.4872,179.7280,130820,,,,A*51
$GPGGA,214607.43,3724.8578380,N,12204.6905720,W,1,0,0.0,-24.9233,M,0.0000,M,0.0000,0000*70
$GPRMC,214607.43,A,3724.8578380,N,12204.6905720,W,19.9823,179.2870,130820,,,,A*52
$GPGGA,214608.43,3724.8525280,N,12204.6904940,W,1,0,0.0,-24.8337,M,0.0000,M,0.0000,0000*7b
$GPRMC,214608.43,A,3724.8525280,N,12204.6904940,W,18.0761,179.4982,130820,,,,A*56
$GPGGA,214609.43,3724.8478780,N,12204.6904820,W,1,0,0.0,-24.7197,M,0.0000,M,0.0000,0000*76
$GPRMC,214609.43,A,3724.8478780,N,12204.6904820,W,14.9383,180.1186,130820,,,,A*5e
$GPGGA,214610.43,3724.8443980,N,12204.6905180,W,1,0,0.0,-24.6267,M,0.0000,M,0.0000,0000*77
$GPRMC,214610.43,A,3724.8443980,N,12204.6905180,W,10.2514,180.5668,130820,,,,A*56
$GPGGA,214611.43,3724.8420100,N,12204.6905480,W,1,0,0.0,-24.5557,M,0.0000,M,0.0000,0000*71
$GPRMC,214611.43,A,3724.8420100,N,12204.6905480,W,7.1419,180.5194,130820,,,,A*6a
$GPGGA,214612.43,3724.8403780,N,12204.6905600,W,1,0,0.0,-24.5158,M,0.0000,M,0.0000,0000*7c
$GPRMC,214612.43,A,3724.8403780,N,12204.6905600,W,4.8082,180.3566,130820,,,,A*6f
$GPGGA,214613.43,3724.8391600,N,12204.6905600,W,1,0,0.0,-24.4824,M,0.0000,M,0.0000,0000*7b
$GPRMC,214613.43,A,3724.8391600,N,12204.6905600,W,4.2066,180.2176,130820,,,,A*6f
$GPGGA,214614.43,3724.8380680,N,12204.6905600,W,1,0,0.0,-24.4461,M,0.0000,M,0.0000,0000*79
$GPRMC,214614.43,A,3724.8380680,N,12204.6905600,W,3.5080,180.1198,130820,,,,A*6b
$GPGGA,214615.43,3724.8372940,N,12204.6905540,W,1,0,0.0,-24.4201,M,0.0000,M,0.0000,0000*71
$GPRMC,214615.43,A,3724.8372940,N,12204.6905540,W,1.9300,180.0466,130820,,,,A*63
$GPGGA,214616.43,3724.8369700,N,12204.6905540,W,1,0,0.0,-24.4168,M,0.0000,M,0.0000,0000*7e
$GPRMC,214616.43,A,3724.8369700,N,12204.6905540,W,0.6243,180.0012,130820,,,,A*6f
$GPGGA,214617.43,3724.8369100,N,12204.6905540,W,1,0,0.0,-24.4175,M,0.0000,M,0.0000,0000*75
$GPRMC,214617.43,A,3724.8369100,N,12204.6905540,W,0.0192,179.9893,130820,,,,A*6f
$GPGGA,214618.43,3724.8368920,N,12204.6905540,W,1,0,0.0,-24.4178,M,0.0000,M,0.0000,0000*7c
$GPRMC,214618.43,A,3724.8368920,N,12204.6905540,W,0.0837,179.9867,130820,,,,A*66
$GPGGA,214619.43,3724.8368740,N,12204.6905540,W,1,0,0.0,-24.4178,M,0.0000,M,0.0000,0000*75
$GPRMC,214619.43,A,3724.8368740,N,12204.6905540,W,0.0596,179.9841,130820,,,,A*6d
$GPGGA,214620.43,3724.8368680,N,12204.6905540,W,1,0,0.0,-24.4178,M,0.0000,M,0.0000,0000*72
$GPRMC,214620.43,A,3724.8368680,N,12204.6905540,W,0.0232,179.9829,130820,,,,A*6d
$GPGGA,214621.43,3724.8368620,N,12204.6905540,W,1,0,0.0,-24.4168,M,0.0000,M,0.0000,0000*78
$GPRMC,214621.43,A,3724.8368620,N,12204.6905540,W,0.0032,179.9812,130820,,,,A*6c
$GPGGA,214622.43,3724.8368620,N,12204.6905540,W,1,0,0.0,-24.4158,M,0.0000,M,0.0000,0000*78
$GPRMC,214622.43,A,3724.8368620,N,12204.6905540,W,0.0067,179.9817,130820,,,,A*6a
$GPGGA,214623.43,3724.8368620,N,12204.6905540,W,1,0,0.0,-24.4158,M,0.0000,M,0.0000,0000*79
$GPRMC,214623.43,A,3724.8368620,N,12204.6905540,W,0.0079,179.9817,130820,,,,A*64
$GPGGA,214624.43,3724.8368620,N,12204.6905540,W,1,0,0.0,-24.4158,M,0.0000,M,0.0000,0000*7e
$GPRMC,214624.43,A,3724.8368620,N,12204.6905540,W,0.0080,179.9815,130820,,,,A*67
$GPGGA,214625.43,3724.8368620,N,12204.6905540,W,1,0,0.0,-24.4158,M,0.0000,M,0.0000,0000*7f
$GPRMC,214625.43,A,3724.8368620,N,12204.6905540,W,0.0072,179.9812,130820,,,,A*6c
$GPGGA,214626.43,3724.8368620,N,12204.6905540,W,1,0,0.0,-24.4158,M,0.0000,M,0.0000,0000*7c
$GPRMC,214626.43,A,3724.8368620,N,12204.6905540,W,0.0058,179.9811,130820,,,,A*64
$GPGGA,214627.43,3724.8368620,N,12204.6905540,W,1,0,0.0,-24.4158,M,0.0000,M,0.0000,0000*7d
$GPRMC,214627.43,A,3724.8368620,N,12204.6905540,W,0.0039,179.9810,130820,,,,A*63
$GPGGA,214628.43,3724.8368620,N,12204.6905540,W,1,0,0.0,-24.4158,M,0.0000,M,0.0000,0000*72
$GPRMC,214628.43,A,3724.8368620,N,12204.6905540,W,0.0031,179.9809,130820,,,,A*6c
$GPGGA,214629.43,3724.8368620,N,12204.6905540,W,1,0,0.0,-24.4158,M,0.0000,M,0.0000,0000*73
$GPRMC,214629.43,A,3724.8368620,N,12204.6905540,W,0.0022,179.9809,130820,,,,A*6f
$GPGGA,214630.43,3724.8368620,N,12204.6905540,W,1,0,0.0,-24.4158,M,0.0000,M,0.0000,0000*7b
$GPRMC,214630.43,A,3724.8368620,N,12204.6905540,W,0.0000,179.9807,130820,,,,A*69
$GPGGA,214631.43,3724.8368620,N,12204.6905540,W,1,0,0.0,-24.4158,M,0.0000,M,0.0000,0000*7a
$GPRMC,214631.43,A,3724.8368620,N,12204.6905540,W,0.0013,179.9803,130820,,,,A*6e
$GPGGA,214632.43,3724.8368620,N,12204.6905540,W,1,0,0.0,-24.4158,M,0.0000,M,0.0000,0000*79
$GPRMC,214632.43,A,3724.8368620,N,12204.6905540,W,0.0019,179.9802,130820,,,,A*66
$GPGGA,214633.43,3724.8368620,N,12204.6905540,W,1,0,0.0,-24.4158,M,0.0000,M,0.0000,0000*78
$GPRMC,214633.43,A,3724.8368620,N,12204.6905540,W,0.0013,179.9802,130820,,,,A*6d
$GPGGA,214634.43,3724.8368620,N,12204.6905540,W,1,0,0.0,-24.4158,M,0.0000,M,0.0000,0000*7f
$GPRMC,214634.43,A,3724.8368620,N,12204.6905540,W,0.0019,179.9800,130820,,,,A*62
$GPGGA,214635.43,3724.8368620,N,12204.6905540,W,1,0,0.0,-24.4168,M,0.0000,M,0.0000,0000*7d
$GPRMC,214635.43,A,3724.8368620,N,12204.6905540,W,0.0027,179.9798,130820,,,,A*60
$GPGGA,214636.43,3724.8368620,N,12204.6905540,W,1,0,0.0,-24.4171,M,0.0000,M,0.0000,0000*76
$GPRMC,214636.43,A,3724.8368620,N,12204.6905540,W,0.0007,179.9796,130820,,,,A*6f
$GPGGA,214637.43,3724.8368620,N,12204.6905540,W,1,0,0.0,-24.4188,M,0.0000,M,0.0000,0000*71
$GPRMC,214637.43,A,3724.8368620,N,12204.6905540,W,0.0027,179.9795,130820,,,,A*6f
$GPGGA,214638.43,3724.8368620,N,12204.6905540,W,1,0,0.0,-24.4208,M,0.0000,M,0.0000,0000*75
$GPRMC,214638.43,A,3724.8368620,N,12204.6905540,W,0.0040,179.9793,130820,,,,A*67
$GPGGA,214639.43,3724.8368620,N,12204.6905540,W,1,0,0.0,-24.4238,M,0.0000,M,0.0000,0000*77
$GPRMC,214639.43,A,3724.8368620,N,12204.6905540,W,0.0040,179.9792,130820,,,,A*67
$GPGGA,214640.43,3724.8368200,N,12204.6905540,W,1,0,0.0,-24.4298,M,0.0000,M,0.0000,0000*75
$GPRMC,214640.43,A,3724.8368200,N,12204.6905540,W,0.5807,179.9722,130820,,,,A*6a
$GPGGA,214641.43,3724.8364600,N,12204.6905540,W,1,0,0.0,-24.4301,M,0.0000,M,0.0000,0000*7d
$GPRMC,214641.43,A,3724.8364600,N,12204.6905540,W,2.2969,179.9135,130820,,,,A*6f
$GPGGA,214642.43,3724.8352780,N,12204.6905420,W,1,0,0.0,-24.4175,M,0.0000,M,0.0000,0000*74
$GPRMC,214642.43,A,3724.8352780,N,12204.6905420,W,6.2761,179.7703,130820,,,,A*68
$GPGGA,214643.43,3724.8328480,N,12204.6905180,W,1,0,0.0,-24.3628,M,0.0000,M,0.0000,0000*7c
$GPRMC,214643.43,A,3724.8328480,N,12204.6905180,W,11.1297,179.5036,130820,,,,A*52
$GPGGA,214644.43,3724.8291220,N,12204.6904580,W,1,0,0.0,-24.2674,M,0.0000,M,0.0000,0000*79
$GPRMC,214644.43,A,3724.8291220,N,12204.6904580,W,15.5069,179.3520,130820,,,,A*58
$GPGGA,214645.43,3724.8244480,N,12204.6904220,W,1,0,0.0,-24.1059,M,0.0000,M,0.0000,0000*7b
$GPRMC,214645.43,A,3724.8244480,N,12204.6904220,W,17.7858,179.7251,130820,,,,A*5f
$GPGGA,214646.43,3724.8192220,N,12204.6904280,W,1,0,0.0,-23.8711,M,0.0000,M,0.0000,0000*73
$GPRMC,214646.43,A,3724.8192220,N,12204.6904280,W,19.7462,180.2333,130820,,,,A*5f
$GPGGA,214647.43,3724.8136120,N,12204.6904820,W,1,0,0.0,-23.5624,M,0.0000,M,0.0000,0000*75
$GPRMC,214647.43,A,3724.8136120,N,12204.6904820,W,20.3909,180.3597,130820,,,,A*54
$GPGGA,214648.43,3724.8079120,N,12204.6905660,W,1,0,0.0,-23.2180,M,0.0000,M,0.0000,0000*75
$GPRMC,214648.43,A,3724.8079120,N,12204.6905660,W,20.5962,180.9139,130820,,,,A*5b
$GPGGA,214649.43,3724.8021820,N,12204.6907580,W,1,0,0.0,-22.7235,M,0.0000,M,0.0000,0000*76
$GPRMC,214649.43,A,3724.8021820,N,12204.6907580,W,20.3320,181.9670,130820,,,,A*50
$GPGGA,214650.43,3724.7965960,N,12204.6911240,W,1,0,0.0,-22.1761,M,0.0000,M,0.0000,0000*73
$GPRMC,214650.43,A,3724.7965960,N,12204.6911240,W,20.2229,183.2365,130820,,,,A*56
$GPGGA,214651.43,3724.7906860,N,12204.6915740,W,1,0,0.0,-21.5047,M,0.0000,M,0.0000,0000*73
$GPRMC,214651.43,A,3724.7906860,N,12204.6915740,W,22.5658,183.5410,130820,,,,A*57
$GPGGA,214652.43,3724.7840560,N,12204.6920600,W,1,0,0.0,-20.7685,M,0.0000,M,0.0000,0000*76
$GPRMC,214652.43,A,3724.7840560,N,12204.6920600,W,25.2009,182.9519,130820,,,,A*5e
$GPGGA,214653.43,3724.7767660,N,12204.6924440,W,1,0,0.0,-19.8307,M,0.0000,M,0.0000,0000*76
$GPRMC,214653.43,A,3724.7767660,N,12204.6924440,W,27.1859,182.1027,130820,,,,A*58
$GPGGA,214654.43,3724.7689480,N,12204.6927260,W,1,0,0.0,-18.7996,M,0.0000,M,0.0000,0000*77
$GPRMC,214654.43,A,3724.7689480,N,12204.6927260,W,28.9820,181.3484,130820,,,,A*50
$GPGGA,214655.43,3724.7607040,N,12204.6928820,W,1,0,0.0,-17.7614,M,0.0000,M,0.0000,0000*73
$GPRMC,214655.43,A,3724.7607040,N,12204.6928820,W,30.2368,180.6051,130820,,,,A*53
$GPGGA,214656.43,3724.7521480,N,12204.6929960,W,1,0,0.0,-16.7177,M,0.0000,M,0.0000,0000*78
$GPRMC,214656.43,A,3724.7521480,N,12204.6929960,W,31.1682,180.6874,130820,,,,A*57
$GPGGA,214657.43,3724.7434240,N,12204.6931100,W,1,0,0.0,-15.7916,M,0.0000,M,0.0000,0000*7d
$GPRMC,214657.43,A,3724.7434240,N,12204.6931100,W,31.2825,180.5428,130820,,,,A*58
$GPGGA,214658.43,3724.7348980,N,12204.6932480,W,1,0,0.0,-15.0864,M,0.0000,M,0.0000,0000*74
$GPRMC,214658.43,A,3724.7348980,N,12204.6932480,W,29.7427,180.8952,130820,,,,A*5d
$GPGGA,214659.43,3724.7268760,N,12204.6934760,W,1,0,0.0,-14.5844,M,0.0000,M,0.0000,0000*7b
$GPRMC,214659.43,A,3724.7268760,N,12204.6934760,W,28.1717,181.6019,130820,,,,A*5a
$GPGGA,214700.43,3724.7192080,N,12204.6937940,W,1,0,0.0,-14.2131,M,0.0000,M,0.0000,0000*7a
$GPRMC,214700.43,A,3724.7192080,N,12204.6937940,W,27.0528,181.9956,130820,,,,A*5a
$GPGGA,214701.43,3724.7118220,N,12204.6941000,W,1,0,0.0,-14.0156,M,0.0000,M,0.0000,0000*7e
$GPRMC,214701.43,A,3724.7118220,N,12204.6941000,W,26.1428,181.6575,130820,,,,A*5e
$GPGGA,214702.43,3724.7046760,N,12204.6943040,W,1,0,0.0,-13.9305,M,0.0000,M,0.0000,0000*7a
$GPRMC,214702.43,A,3724.7046760,N,12204.6943040,W,25.2665,181.1222,130820,,,,A*59
$GPGGA,214703.43,3724.6977880,N,12204.6944540,W,1,0,0.0,-13.9736,M,0.0000,M,0.0000,0000*76
$GPRMC,214703.43,A,3724.6977880,N,12204.6944540,W,24.0826,181.0014,130820,,,,A*5d
$GPGGA,214704.43,3724.6913560,N,12204.6945500,W,1,0,0.0,-14.1497,M,0.0000,M,0.0000,0000*72
$GPRMC,214704.43,A,3724.6913560,N,12204.6945500,W,22.1934,180.3188,130820,,,,A*5d
$GPGGA,214705.43,3724.6854220,N,12204.6945500,W,1,0,0.0,-14.4072,M,0.0000,M,0.0000,0000*78
$GPRMC,214705.43,A,3724.6854220,N,12204.6945500,W,20.5332,179.9709,130820,,,,A*54
$GPGGA,214706.43,3724.6797700,N,12204.6947420,W,1,0,0.0,-14.6572,M,0.0000,M,0.0000,0000*7a
$GPRMC,214706.43,A,3724.6797700,N,12204.6947420,W,19.9878,183.0452,130820,,,,A*53
$GPGGA,214707.43,3724.6745260,N,12204.6955040,W,1,0,0.0,-14.9876,M,0.0000,M,0.0000,0000*70
$GPRMC,214707.43,A,3724.6745260,N,12204.6955040,W,17.7844,188.8275,130820,,,,A*50
$GPGGA,214708.43,3724.6698400,N,12204.6970280,W,1,0,0.0,-15.4169,M,0.0000,M,0.0000,0000*7c
$GPRMC,214708.43,A,3724.6698400,N,12204.6970280,W,17.5876,197.8045,130820,,,,A*5b
$GPGGA,214709.43,3724.6653100,N,12204.6996980,W,1,0,0.0,-15.9892,M,0.0000,M,0.0000,0000*7c
$GPRMC,214709.43,A,3724.6653100,N,12204.6996980,W,18.6139,209.2953,130820,,,,A*55
$GPGGA,214710.43,3724.6611700,N,12204.7038380,W,1,0,0.0,-16.8177,M,0.0000,M,0.0000,0000*72
$GPRMC,214710.43,A,3724.6611700,N,12204.7038380,W,19.5836,223.1880,130820,,,,A*5b
$GPGGA,214711.43,3724.6578520,N,12204.7094360,W,1,0,0.0,-17.6204,M,0.0000,M,0.0000,0000*7f
$GPRMC,214711.43,A,3724.6578520,N,12204.7094360,W,20.5254,239.0281,130820,,,,A*5b
$GPGGA,214712.43,3724.6559200,N,12204.7163900,W,1,0,0.0,-18.6779,M,0.0000,M,0.0000,0000*7f
$GPRMC,214712.43,A,3724.6559200,N,12204.7163900,W,21.9405,257.4232,130820,,,,A*50
$GPGGA,214713.43,3724.6559440,N,12204.7241780,W,1,0,0.0,-19.7697,M,0.0000,M,0.0000,0000*78
$GPRMC,214713.43,A,3724.6559440,N,12204.7241780,W,22.9689,278.4513,130820,,,,A*5a
$GPGGA,214714.43,3724.6582720,N,12204.7317800,W,1,0,0.0,-20.6452,M,0.0000,M,0.0000,0000*79
$GPRMC,214714.43,A,3724.6582720,N,12204.7317800,W,23.8273,298.2734,130820,,,,A*55
$GPGGA,214715.43,3724.6624180,N,12204.7384220,W,1,0,0.0,-21.3554,M,0.0000,M,0.0000,0000*7a
$GPRMC,214715.43,A,3724.6624180,N,12204.7384220,W,24.4655,313.8073,130820,,,,A*52
$GPGGA,214716.43,3724.6678540,N,12204.7435100,W,1,0,0.0,-21.8940,M,0.0000,M,0.0000,0000*76
$GPRMC,214716.43,A,3724.6678540,N,12204.7435100,W,24.4179,329.3599,130820,,,,A*56
$GPGGA,214717.43,3724.6741660,N,12204.7466240,W,1,0,0.0,-22.2645,M,0.0000,M,0.0000,0000*7f
$GPRMC,214717.43,A,3724.6741660,N,12204.7466240,W,24.3790,344.2107,130820,,,,A*53
$GPGGA,214718.43,3724.6808560,N,12204.7476440,W,1,0,0.0,-22.6191,M,0.0000,M,0.0000,0000*7c
$GPRMC,214718.43,A,3724.6808560,N,12204.7476440,W,24.1713,358.6514,130820,,,,A*5c
$GPGGA,214719.43,3724.6875100,N,12204.7464680,W,1,0,0.0,-22.9855,M,0.0000,M,0.0000,0000*76
$GPRMC,214719.43,A,3724.6875100,N,12204.7464680,W,24.3803,14.4171,130820,,,,A*6a
$GPGGA,214720.43,3724.6935940,N,12204.7428740,W,1,0,0.0,-23.1811,M,0.0000,M,0.0000,0000*79
$GPRMC,214720.43,A,3724.6935940,N,12204.7428740,W,24.2398,32.0767,130820,,,,A*65
$GPGGA,214721.43,3724.6984840,N,12204.7371140,W,1,0,0.0,-23.2689,M,0.0000,M,0.0000,0000*72
$GPRMC,214721.43,A,3724.6984840,N,12204.7371140,W,24.2466,50.3218,130820,,,,A*6e
$GPGGA,214722.43,3724.7017780,N,12204.7297160,W,1,0,0.0,-23.3290,M,0.0000,M,0.0000,0000*76
$GPRMC,214722.43,A,3724.7017780,N,12204.7297160,W,24.5370,67.1932,130820,,,,A*65
$GPGGA,214723.43,3724.7032960,N,12204.7213220,W,1,0,0.0,-23.2393,M,0.0000,M,0.0000,0000*78
$GPRMC,214723.43,A,3724.7032960,N,12204.7213220,W,25.0906,84.0003,130820,,,,A*60
$GPGGA,214724.43,3724.7028340,N,12204.7124120,W,1,0,0.0,-23.1527,M,0.0000,M,0.0000,0000*72
$GPRMC,214724.43,A,3724.7028340,N,12204.7124120,W,26.5936,99.8986,130820,,,,A*65
$GPGGA,214725.43,3724.7006200,N,12204.7031660,W,1,0,0.0,-23.0236,M,0.0000,M,0.0000,0000*7a
$GPRMC,214725.43,A,3724.7006200,N,12204.7031660,W,28.9582,111.1371,130820,,,,A*50
$GPGGA,214726.43,3724.6970680,N,12204.6936380,W,1,0,0.0,-22.9868,M,0.0000,M,0.0000,0000*71
$GPRMC,214726.43,A,3724.6970680,N,12204.6936380,W,31.2832,116.6905,130820,,,,A*5e
$GPGGA,214727.43,3724.6930060,N,12204.6835820,W,1,0,0.0,-22.9567,M,0.0000,M,0.0000,0000*7d
$GPRMC,214727.43,A,3724.6930060,N,12204.6835820,W,33.4126,117.2898,130820,,,,A*58
$GPGGA,214728.43,3724.6886320,N,12204.6729140,W,1,0,0.0,-22.8934,M,0.0000,M,0.0000,0000*7f
$GPRMC,214728.43,A,3724.6886320,N,12204.6729140,W,35.2861,117.4587,130820,,,,A*5e
$GPGGA,214729.43,3724.6839460,N,12204.6617660,W,1,0,0.0,-22.8059,M,0.0000,M,0.0000,0000*72
$GPRMC,214729.43,A,3724.6839460,N,12204.6617660,W,36.9158,117.9003,130820,,,,A*5e
$GPGGA,214730.43,3724.6790500,N,12204.6501500,W,1,0,0.0,-22.7189,M,0.0000,M,0.0000,0000*73
$GPRMC,214730.43,A,3724.6790500,N,12204.6501500,W,38.4442,118.1034,130820,,,,A*52
$GPGGA,214731.43,3724.6739560,N,12204.6381380,W,1,0,0.0,-22.6576,M,0.0000,M,0.0000,0000*72
$GPRMC,214731.43,A,3724.6739560,N,12204.6381380,W,39.5718,118.0846,130820,,,,A*56
$GPGGA,214732.43,3724.6687720,N,12204.6257360,W,1,0,0.0,-22.5474,M,0.0000,M,0.0000,0000*77
$GPRMC,214732.43,A,3724.6687720,N,12204.6257360,W,40.7141,117.6486,130820,,,,A*5c
$GPGGA,214733.43,3724.6635040,N,12204.6129680,W,1,0,0.0,-22.4263,M,0.0000,M,0.0000,0000*7e
$GPRMC,214733.43,A,3724.6635040,N,12204.6129680,W,41.7413,117.3778,130820,,,,A*50
$GPGGA,214734.43,3724.6581460,N,12204.5999060,W,1,0,0.0,-22.3334,M,0.0000,M,0.0000,0000*7f
$GPRMC,214734.43,A,3724.6581460,N,12204.5999060,W,42.4348,117.4475,130820,,,,A*55
$GPGGA,214735.43,3724.6526500,N,12204.5866940,W,1,0,0.0,-22.4160,M,0.0000,M,0.0000,0000*7a
$GPRMC,214735.43,A,3724.6526500,N,12204.5866940,W,43.0145,117.6574,130820,,,,A*5c
$GPGGA,214736.43,3724.6471060,N,12204.5733800,W,1,0,0.0,-22.5670,M,0.0000,M,0.0000,0000*74
$GPRMC,214736.43,A,3724.6471060,N,12204.5733800,W,43.1271,117.2485,130820,,,,A*5b
$GPGGA,214737.43,3724.6416940,N,12204.5599220,W,1,0,0.0,-22.7853,M,0.0000,M,0.0000,0000*78
$GPRMC,214737.43,A,3724.6416940,N,12204.5599220,W,43.2825,116.3687,130820,,,,A*52
$GPGGA,214738.43,3724.6363420,N,12204.5463980,W,1,0,0.0,-22.8559,M,0.0000,M,0.0000,0000*74
$GPRMC,214738.43,A,3724.6363420,N,12204.5463980,W,43.4922,116.2024,130820,,,,A*58
$GPGGA,214739.43,3724.6309900,N,12204.5327000,W,1,0,0.0,-22.7621,M,0.0000,M,0.0000,0000*73
$GPRMC,214739.43,A,3724.6309900,N,12204.5327000,W,44.0234,116.0295,130820,,,,A*59
$GPGGA,214740.43,3724.6255540,N,12204.5188880,W,1,0,0.0,-22.7262,M,0.0000,M,0.0000,0000*79
$GPRMC,214740.43,A,3724.6255540,N,12204.5188880,W,44.2600,116.3768,130820,,,,A*55
$GPGGA,214741.43,3724.6200340,N,12204.5050940,W,1,0,0.0,-22.6954,M,0.0000,M,0.0000,0000*78
$GPRMC,214741.43,A,3724.6200340,N,12204.5050940,W,44.2462,116.8925,130820,,,,A*51
$GPGGA,214742.43,3724.6144000,N,12204.4913060,W,1,0,0.0,-22.6424,M,0.0000,M,0.0000,0000*71
$GPRMC,214742.43,A,3724.6144000,N,12204.4913060,W,44.7829,117.4748,130820,,,,A*5c
$GPGGA,214743.43,3724.6085140,N,12204.4773620,W,1,0,0.0,-22.4929,M,0.0000,M,0.0000,0000*71
$GPRMC,214743.43,A,3724.6085140,N,12204.4773620,W,45.7368,118.1773,130820,,,,A*53
$GPGGA,214744.43,3724.6024000,N,12204.4633460,W,1,0,0.0,-22.4439,M,0.0000,M,0.0000,0000*77
$GPRMC,214744.43,A,3724.6024000,N,12204.4633460,W,45.8060,119.1670,130820,,,,A*5e
$GPGGA,214745.43,3724.5960940,N,12204.4494080,W,1,0,0.0,-22.3464,M,0.0000,M,0.0000,0000*7b
$GPRMC,214745.43,A,3724.5960940,N,12204.4494080,W,46.2908,119.5635,130820,,,,A*56
$GPGGA,214746.43,3724.5897340,N,12204.4352120,W,1,0,0.0,-22.1607,M,0.0000,M,0.0000,0000*78
$GPRMC,214746.43,A,3724.5897340,N,12204.4352120,W,47.0515,119.0970,130820,,,,A*58
$GPGGA,214747.43,3724.5833920,N,12204.4209020,W,1,0,0.0,-22.0256,M,0.0000,M,0.0000,0000*74
$GPRMC,214747.43,A,3724.5833920,N,12204.4209020,W,46.7102,119.0236,130820,,,,A*58
$GPGGA,214748.43,3724.5771160,N,12204.4067000,W,1,0,0.0,-21.8111,M,0.0000,M,0.0000,0000*7d
$GPRMC,214748.43,A,3724.5771160,N,12204.4067000,W,46.5703,118.8989,130820,,,,A*59
$GPGGA,214749.43,3724.5708460,N,12204.3924740,W,1,0,0.0,-21.4049,M,0.0000,M,0.0000,0000*7d
$GPRMC,214749.43,A,3724.5708460,N,12204.3924740,W,46.5451,118.9328,130820,,,,A*5d
$GPGGA,214750.43,3724.5645640,N,12204.3783740,W,1,0,0.0,-20.7915,M,0.0000,M,0.0000,0000*7c
$GPRMC,214750.43,A,3724.5645640,N,12204.3783740,W,46.0692,119.3142,130820,,,,A*53
$GPGGA,214751.43,3724.5583000,N,12204.3645560,W,1,0,0.0,-20.0849,M,0.0000,M,0.0000,0000*72
$GPRMC,214751.43,A,3724.5583000,N,12204.3645560,W,45.0749,119.7755,130820,,,,A*52
$GPGGA,214752.43,3724.5520900,N,12204.3510680,W,1,0,0.0,-19.2578,M,0.0000,M,0.0000,0000*78
$GPRMC,214752.43,A,3724.5520900,N,12204.3510680,W,44.4447,119.9568,130820,,,,A*55
$GPGGA,214753.43,3724.5459640,N,12204.3375920,W,1,0,0.0,-18.2586,M,0.0000,M,0.0000,0000*7d
$GPRMC,214753.43,A,3724.5459640,N,12204.3375920,W,44.6163,119.4505,130820,,,,A*57
$GPGGA,214754.43,3724.5398560,N,12204.3239720,W,1,0,0.0,-17.1902,M,0.0000,M,0.0000,0000*7a
$GPRMC,214754.43,A,3724.5398560,N,12204.3239720,W,45.0679,119.3123,130820,,,,A*50
$GPGGA,214755.43,3724.5336100,N,12204.3102740,W,1,0,0.0,-16.0212,M,0.0000,M,0.0000,0000*7a
$GPRMC,214755.43,A,3724.5336100,N,12204.3102740,W,45.3259,120.2805,130820,,,,A*59
