MessageType,Provider,LatitudeDegrees,LongitudeDegrees,AltitudeMeters,SpeedMps,AccuracyMeters,BearingDegrees,UnixTimeMillis,SpeedAccuracyMps,BearingAccuracyDegrees,elapsedRealtimeNanos,VerticalAccuracyMeters
Fix,GT,37.4441065000,-122.2327675000,11.177630091380166,0.0014142136,0.1,30.312412,1626727759438,,,,
Fix,GT,37.4441065000,-122.2327675000,11.17662968705207,0.0019170536,0.1,30.312468,1626727760438,,,,
Fix,GT,37.4441065000,-122.2327675000,11.17662968705207,0.002236068,0.1,30.312563,1626727761438,,,,
Fix,GT,37.4441065000,-122.2327675000,11.175630236398263,0.002236068,0.1,30.31252,1626727762438,,,,
Fix,GT,37.4441065000,-122.2327675000,11.17662968705207,0.002532599,0.1,30.312372,1626727763438,,,,
Fix,GT,37.4441065000,-122.2327675000,11.178629542033974,0.005099019,0.1,30.311743,1626727764438,,,,
Fix,GT,37.4441064000,-122.2327674000,11.187018200020702,0.122179255,0.1,30.421461,1626727765438,,,,
Fix,GT,37.4441040000,-122.2327708000,11.184242072921677,0.58817893,0.1,26.831423,1626727766438,,,,
Fix,GT,37.4440989000,-122.2327778000,11.172241989117595,0.9164654,0.1,17.049238,1626727767438,,,,
Fix,GT,37.4440908000,-122.2327854000,11.153853103619781,1.0680526,0.1,3.9974644,1626727768438,,,,
Fix,GT,37.4440827000,-122.2327898000,11.135241703350403,0.61844546,0.1,352.9763,1626727769438,,,,
Fix,GT,37.4440801000,-122.2327907000,11.134018119651273,0.031770922,0.1,349.80905,1626727770438,,,,
Fix,GT,37.4440808000,-122.2327909000,11.130018077968884,0.36022538,0.1,349.33206,1626727771438,,,,
Fix,GT,37.4440877000,-122.2327970000,11.15257086099831,1.440139,0.1,340.15717,1626727772438,,,,
Fix,GT,37.4440977000,-122.2328166000,11.175242248636266,2.3171923,0.1,315.47034,1626727773438,,,,
Fix,GT,37.4441005000,-122.2328495000,11.129524892177358,3.239091,0.1,283.54364,1626727774438,,,,
Fix,GT,37.4440897000,-122.2328894000,11.067136666879321,3.8798802,0.1,253.03557,1626727775438,,,,
Fix,GT,37.4440644000,-122.2329221000,10.968136362519232,3.8567438,0.1,226.36354,1626727776438,,,,
Fix,GT,37.4440387000,-122.2329394000,10.873689514680223,2.3094566,0.1,211.11691,1626727777438,,,,
Fix,GT,37.4440223000,-122.2329498000,10.813077595079335,2.2099364,0.1,208.45584,1626727778438,,,,
Fix,GT,37.4440027000,-122.2329626000,10.72353790789515,2.7506773,0.1,207.71355,1626727779438,,,,
Fix,GT,37.4439758000,-122.2329796000,10.683748022392962,4.008405,0.1,206.91507,1626727780438,,,,
Fix,GT,37.4439403000,-122.2330026000,10.606912762093572,4.5603886,0.1,207.21683,1626727781438,,,,
Fix,GT,37.4439058000,-122.2330266000,10.540077248098214,4.1591477,0.1,209.4898,1626727782438,,,,
Fix,GT,37.4438783000,-122.2330516000,10.473524754371397,3.2103822,0.1,215.75165,1626727783438,,,,
Fix,GT,37.4438616000,-122.2330710000,10.374584137665295,1.9720749,0.1,221.37054,1626727784438,,,,
Fix,GT,37.4438517000,-122.2330908000,10.24719596084833,2.2211683,0.1,232.61317,1626727785438,,,,
Fix,GT,37.4438483000,-122.2331202000,10.114301368559609,2.9518337,0.1,255.27284,1626727786438,,,,
Fix,GT,37.4438549000,-122.2331617000,10.087465199024734,4.4755135,0.1,279.23206,1626727787438,,,,
Fix,GT,37.4438757000,-122.2332180000,9.972195090035513,6.497224,0.1,295.27844,1626727788438,,,,
Fix,GT,37.4439074000,-122.2332924000,9.732478737963447,8.386913,0.1,298.86844,1626727789438,,,,
Fix,GT,37.4439487000,-122.2333789000,9.514820154927378,9.435401,0.1,301.39322,1626727790438,,,,
Fix,GT,37.4439958000,-122.2334747000,9.25447877534657,10.347498,0.1,301.64984,1626727791438,,,,
Fix,GT,37.4440458000,-122.2335751000,8.94864311354661,10.661612,0.1,302.16168,1626727792438,,,,
Fix,GT,37.4440982000,-122.2336784000,8.69691264592052,10.940859,0.1,302.61267,1626727793438,,,,
Fix,GT,37.4441520000,-122.2337826000,8.487537586637131,11.016121,0.1,303.27817,1626727794438,,,,
Fix,GT,37.4442068000,-122.2338861000,8.252702371611349,10.879244,0.1,303.67114,1626727795438,,,,
Fix,GT,37.4442588000,-122.2339849000,8.022866648369927,9.937076,0.1,303.32196,1626727796438,,,,
Fix,GT,37.4443049000,-122.2340725000,7.8524194457639,8.6483755,0.1,303.48483,1626727797438,,,,
Fix,GT,37.4443438000,-122.2341474000,7.674031106851928,6.9716134,0.1,302.32523,1626727798438,,,,
Fix,GT,37.4443690000,-122.2342041000,7.567136436697297,4.4720488,0.1,298.70422,1626727799438,,,,
Fix,GT,37.4443840000,-122.2342387000,7.492629781585038,2.695005,0.1,298.4496,1626727800438,,,,
Fix,GT,37.4443926000,-122.2342587000,7.456465341412638,1.2921181,0.1,298.46582,1626727801438,,,,
Fix,GT,37.4443950000,-122.2342643000,7.442465624791907,0.042817105,0.1,298.4732,1626727802438,,,,
Fix,GT,37.4443950000,-122.2342643000,7.4366302490234375,0.000867962,0.1,298.47592,1626727803438,,,,
Fix,GT,37.4443950000,-122.2342643000,7.4356303215026855,0.00307161,0.1,298.47565,1626727804438,,,,
Fix,GT,37.4443950000,-122.2342643000,7.434629917144775,0.001160783,0.1,298.47394,1626727805438,,,,
Fix,GT,37.4443950000,-122.2342643000,7.434629917144775,0.00038816448,0.1,298.47388,1626727806438,,,,
Fix,GT,37.4443950000,-122.2342643000,7.434629917144775,0.001160783,0.1,298.474,1626727807438,,,,
Fix,GT,37.4443950000,-122.2342643000,7.4356300999036335,0.001,0.1,298.4739,1626727808438,,,,
Fix,GT,37.4443950000,-122.2342644000,7.4356303215026855,0.001160783,0.1,298.47363,1626727809438,,,,
Fix,GT,37.4443950000,-122.2342644000,7.4356300999036335,0.0008679622,0.1,298.4737,1626727810438,,,,
Fix,GT,37.4443950000,-122.2342644000,7.4356300999036335,0.0005489473,0.1,298.47375,1626727811438,,,,
Fix,GT,37.4443950000,-122.2342644000,7.4356303215026855,0.0012534307,0.1,298.47382,1626727812438,,,,
Fix,GT,37.4443950000,-122.2342643000,7.4356303215026855,0.0017332281,0.1,298.4739,1626727813438,,,,
Fix,GT,37.4443957000,-122.2342661000,7.415912985011346,0.8546129,0.1,298.4547,1626727814438,,,,
Fix,GT,37.4444052000,-122.2342905000,7.369360178378628,3.89963,0.1,296.76508,1626727815438,,,,
Fix,GT,37.4444205000,-122.2343436000,7.337958723929688,5.7736635,0.1,288.5088,1626727816438,,,,
Fix,GT,37.4444275000,-122.2344155000,7.407511803223883,7.069642,0.1,273.88184,1626727817438,,,,
Fix,GT,37.4444151000,-122.2344986000,7.5631696068916625,7.8773518,0.1,254.13461,1626727818438,,,,
Fix,GT,37.4443760000,-122.2345818000,7.625123374815544,9.246203,0.1,233.7064,1626727819438,,,,
Fix,GT,37.4443110000,-122.2346557000,7.744287995262155,10.290382,0.1,217.89105,1626727820438,,,,
Fix,GT,37.4442275000,-122.2347246000,7.973886722398802,11.948723,0.1,212.29749,1626727821438,,,,
Fix,GT,37.4441292000,-122.2347985000,8.301827269412343,13.344994,0.1,209.9493,1626727822438,,,,
Fix,GT,37.4440198000,-122.2348731000,8.690156719182426,14.282449,0.1,207.8764,1626727823438,,,,
Fix,GT,37.4439010000,-122.2349498000,9.20476873900111,15.45545,0.1,207.1215,1626727824438,,,,
Fix,GT,37.4437721000,-122.2350326000,9.525274820317975,16.559723,0.1,207.0492,1626727825438,,,,
Fix,GT,37.4436356000,-122.2351209000,9.783063836735778,17.592098,0.1,207.42244,1626727826438,,,,
Fix,GT,37.4434913000,-122.2352161000,9.91112308054744,18.549202,0.1,207.794,1626727827438,,,,
Fix,GT,37.4433414000,-122.2353160000,10.057452315837764,18.881268,0.1,208.09799,1626727828438,,,,
Fix,GT,37.4431930000,-122.2354163000,10.233840577431351,18.52906,0.1,208.25766,1626727829438,,,,
Fix,GT,37.4430477000,-122.2355143000,10.459782001720669,18.060173,0.1,208.13106,1626727830438,,,,
Fix,GT,37.4429045000,-122.2356102000,10.754439643561824,18.027357,0.1,207.97285,1626727831438,,,,
Fix,GT,37.4427610000,-122.2357058000,11.22342667137417,18.020897,0.1,207.75034,1626727832438,,,,
Fix,GT,37.4426170000,-122.2358002000,11.894966502898342,18.085281,0.1,207.40916,1626727833438,,,,
Fix,GT,37.4424730000,-122.2358939000,12.731834693584176,17.810028,0.1,207.3949,1626727834438,,,,
Fix,GT,37.4423333000,-122.2359852000,13.794327697991406,17.140892,0.1,207.6131,1626727835438,,,,
Fix,GT,37.4421997000,-122.2360737000,14.807505116233784,16.405247,0.1,208.07869,1626727836438,,,,
Fix,GT,37.4420716000,-122.2361607000,15.648847850907941,15.973927,0.1,208.63007,1626727837438,,,,
Fix,GT,37.4419455000,-122.2362480000,16.421235525794145,16.006351,0.1,208.93292,1626727838438,,,,
Fix,GT,37.4418198000,-122.2363363000,17.16480180636654,15.972305,0.1,209.2636,1626727839438,,,,
Fix,GT,37.4416932000,-122.2364262000,17.836920671585403,16.42647,0.1,209.1446,1626727840438,,,,
Fix,GT,37.4415611000,-122.2365195000,18.53318978317293,17.336193,0.1,209.48944,1626727841438,,,,
Fix,GT,37.4414259000,-122.2366235000,19.36601241133974,17.872292,0.1,213.3162,1626727842438,,,,
Fix,GT,37.4412929000,-122.2367455000,20.292282227022724,18.707539,0.1,217.97864,1626727843438,,,,
Fix,GT,37.4411605000,-122.2368840000,21.24850515117373,19.58648,0.1,221.42494,1626727844438,,,,
Fix,GT,37.4410301000,-122.2370400000,22.3595837899569,20.403622,0.1,225.13618,1626727845438,,,,
Fix,GT,37.4409040000,-122.2372128000,23.541880413515287,20.869678,0.1,229.6299,1626727846438,,,,
Fix,GT,37.4407896000,-122.2374000000,24.751702641604652,20.920784,0.1,234.49545,1626727847438,,,,
Fix,GT,37.4406828000,-122.2375961000,26.01203242029601,21.076973,0.1,236.26982,1626727848438,,,,
Fix,GT,37.4405786000,-122.2377953000,27.23616253165568,21.04552,0.1,236.70015,1626727849438,,,,
Fix,GT,37.4404720000,-122.2379911000,28.533466287497845,20.9102,0.1,234.43282,1626727850438,,,,
Fix,GT,37.4403582000,-122.2381791000,29.81482138214153,20.881773,0.1,231.80864,1626727851438,,,,
Fix,GT,37.4402401000,-122.2383632000,30.93255141215775,20.933514,0.1,230.7017,1626727852438,,,,
Fix,GT,37.4401183000,-122.2385446000,31.981505698835463,21.06927,0.1,229.28764,1626727853438,,,,
Fix,GT,37.4399914000,-122.2387239000,33.05488160547793,21.379608,0.1,227.60654,1626727854438,,,,
Fix,GT,37.4398582000,-122.2388983000,34.157057287295174,21.34544,0.1,225.16821,1626727855438,,,,
Fix,GT,37.4397209000,-122.2390665000,35.071058758039726,21.228704,0.1,223.41089,1626727856438,,,,
Fix,GT,37.4395805000,-122.2392275000,36.1334335014775,20.87155,0.1,221.37209,1626727857438,,,,
Fix,GT,37.4394385000,-122.2393756000,37.32020896474069,20.180332,0.1,218.5642,1626727858438,,,,
Fix,GT,37.4392969000,-122.2395160000,38.43982228704817,19.8773,0.1,217.921,1626727859438,,,,
Fix,GT,37.4391545000,-122.2396494000,39.44689382483239,19.605768,0.1,215.9431,1626727860438,,,,
Fix,GT,37.4390101000,-122.2397756000,40.32483451605913,19.457405,0.1,214.0718,1626727861438,,,,
Fix,GT,37.4388638000,-122.2398950000,41.212622638075686,19.285278,0.1,212.2854,1626727862438,,,,
Fix,GT,37.4387157000,-122.2400088000,41.92741436880351,19.336098,0.1,210.80489,1626727863438,,,,
Fix,GT,37.4385634000,-122.2401182000,42.44191780948563,19.623363,0.1,208.95999,1626727864438,,,,
Fix,GT,37.4384058000,-122.2402218000,42.904156837594655,19.865007,0.1,206.63939,1626727865438,,,,
Fix,GT,37.4382433000,-122.2403187000,43.25316827168808,20.09034,0.1,204.58273,1626727866438,,,,
Fix,GT,37.4380762000,-122.2404102000,43.48400390208303,20.367102,0.1,202.93423,1626727867438,,,,
Fix,GT,37.4379053000,-122.2404970000,43.64473483624806,20.513193,0.1,201.44695,1626727868438,,,,
Fix,GT,37.4377329000,-122.2405793000,43.811736988063785,20.46511,0.1,200.1831,1626727869438,,,,
Fix,GT,37.4375596000,-122.2406598000,43.850524973873235,20.55116,0.1,200.49397,1626727870438,,,,
Fix,GT,37.4373866000,-122.2407438000,44.116708678451005,20.618965,0.1,201.73007,1626727871438,,,,
Fix,GT,37.4372148000,-122.2408334000,44.47354505717067,20.645687,0.1,203.10013,1626727872438,,,,
Fix,GT,37.4370469000,-122.2409283000,44.93448593239782,20.225985,0.1,205.25119,1626727873438,,,,
Fix,GT,37.4368865000,-122.2410317000,45.48678945199697,19.808468,0.1,208.7309,1626727874438,,,,
Fix,GT,37.4367360000,-122.2411480000,46.168799808582435,19.37121,0.1,214.40263,1626727875438,,,,
Fix,GT,37.4366010000,-122.2412804000,46.96051972399164,18.69829,0.1,221.0439,1626727876438,,,,
Fix,GT,37.4364827000,-122.2414256000,47.610144298399064,18.066874,0.1,226.23283,1626727877438,,,,
Fix,GT,37.4363758000,-122.2415748000,48.17436846079761,17.419876,0.1,229.1944,1626727878438,,,,
Fix,GT,37.4362776000,-122.2417228000,48.86219143096673,16.61282,0.1,230.90205,1626727879438,,,,
Fix,GT,37.4361897000,-122.2418673000,49.56386316349949,15.541765,0.1,233.43497,1626727880438,,,,
Fix,GT,37.4361120000,-122.2420045000,50.17220523812773,14.04271,0.1,235.73112,1626727881438,,,,
Fix,GT,37.4360512000,-122.2421294000,50.769322177687854,11.742973,0.1,240.34996,1626727882438,,,,
Fix,GT,37.4360108000,-122.2422338000,51.14421777541099,8.832574,0.1,246.54614,1626727883438,,,,
Fix,GT,37.4359898000,-122.2423132000,51.43055669205057,6.0795145,0.1,253.41888,1626727884438,,,,
Fix,GT,37.4359808000,-122.2423663000,51.61367748867633,3.577836,0.1,258.6055,1626727885438,,,,
Fix,GT,37.4359777000,-122.2423952000,51.69802133011649,1.9438063,0.1,261.32974,1626727886438,,,,
Fix,GT,37.4359759000,-122.2424179000,51.746570155081145,2.3200405,0.1,263.31662,1626727887438,,,,
Fix,GT,37.4359743000,-122.2424571000,51.82828975774862,4.7779436,0.1,266.62076,1626727888438,,,,
Fix,GT,37.4359753000,-122.2425240000,51.993781509862856,6.9322453,0.1,272.07977,1626727889438,,,,
Fix,GT,37.4359842000,-122.2426086000,52.30875698979128,8.044083,0.1,279.3079,1626727890438,,,,
Fix,GT,37.4360032000,-122.2427014000,52.72476815531263,9.038702,0.1,285.86127,1626727891438,,,,
Fix,GT,37.4360308000,-122.2428043000,53.10248532061951,10.101271,0.1,289.108,1626727892438,,,,
Fix,GT,37.4360644000,-122.2429162000,53.62947192442243,11.038829,0.1,291.49448,1626727893438,,,,
Fix,GT,37.4361042000,-122.2430344000,54.20392032405039,11.625788,0.1,293.5178,1626727894438,,,,
Fix,GT,37.4361486000,-122.2431558000,54.839189831031945,11.962335,0.1,295.17334,1626727895438,,,,
Fix,GT,37.4361950000,-122.2432757000,55.542022888629276,11.553377,0.1,296.0738,1626727896438,,,,
Fix,GT,37.4362399000,-122.2433892000,56.18708814764841,10.949415,0.1,296.32214,1626727897438,,,,
Fix,GT,37.4362839000,-122.2434995000,56.81169534952039,10.944028,0.1,296.59628,1626727898438,,,,
Fix,GT,37.4363292000,-122.2436111000,57.41753162944224,11.2876215,0.1,297.2581,1626727899438,,,,
Fix,GT,37.4363787000,-122.2437269000,58.11041332625973,11.948597,0.1,298.53543,1626727900438,,,,
Fix,GT,37.4364324000,-122.2438454000,58.82641118333481,12.164566,0.1,300.0871,1626727901438,,,,
Fix,GT,37.4364904000,-122.2439635000,59.56596753624035,12.40922,0.1,302.51862,1626727902438,,,,
Fix,GT,37.4365543000,-122.2440805000,60.27880235513396,12.700451,0.1,305.464,1626727903438,,,,
Fix,GT,37.4366239000,-122.2441966000,61.03446026397535,12.99991,0.1,307.52814,1626727904438,,,,
Fix,GT,37.4366984000,-122.2443120000,61.830905122516015,13.281528,0.1,309.792,1626727905438,,,,
Fix,GT,37.4367779000,-122.2444261000,62.667621911211086,13.542755,0.1,311.80212,1626727906438,,,,
Fix,GT,37.4368610000,-122.2445404000,63.51278941753162,13.820362,0.1,312.51935,1626727907438,,,,
Fix,GT,37.4369461000,-122.2446559000,64.36545785961357,14.00732,0.1,312.6805,1626727908438,,,,
Fix,GT,37.4370323000,-122.2447739000,65.14329607834043,14.341602,0.1,312.30222,1626727909438,,,,
Fix,GT,37.4371204000,-122.2448956000,65.88853039238688,14.766596,0.1,312.20462,1626727910438,,,,
Fix,GT,37.4372114000,-122.2450209000,66.5743549735007,15.237035,0.1,312.47516,1626727911438,,,,
Fix,GT,37.4373064000,-122.2451497000,67.25024922098874,15.828947,0.1,312.83774,1626727912438,,,,
Fix,GT,37.4374052000,-122.2452835000,67.9328037716491,16.478148,0.1,312.7668,1626727913438,,,,
Fix,GT,37.4375086000,-122.2454226000,68.61702338349824,17.134148,0.1,313.2611,1626727914438,,,,
Fix,GT,37.4376166000,-122.2455650000,69.32780042723243,17.532957,0.1,313.72272,1626727915438,,,,
Fix,GT,37.4377266000,-122.2457073000,70.04702574296698,17.551819,0.1,314.27884,1626727916438,,,,
Fix,GT,37.4378373000,-122.2458487000,70.80235480969168,17.494583,0.1,314.24188,1626727917438,,,,
Fix,GT,37.4379457000,-122.2459920000,71.58390542097914,17.5581,0.1,312.7628,1626727918438,,,,
Fix,GT,37.4380534000,-122.2461406000,72.30412804048001,17.968058,0.1,312.09796,1626727919438,,,,
Fix,GT,37.4381651000,-122.2462938000,73.09084793815873,18.783699,0.1,312.7684,1626727920438,,,,
Fix,GT,37.4382828000,-122.2464493000,73.87484450671946,19.185293,0.1,313.9602,1626727921438,,,,
Fix,GT,37.4384059000,-122.2466062000,74.71278577566682,19.600613,0.1,314.92285,1626727922438,,,,
Fix,GT,37.4385312000,-122.2467608000,75.51529318553139,19.423435,0.1,315.72482,1626727923438,,,,
Fix,GT,37.4386567000,-122.2469134000,76.24951562073511,19.383,0.1,315.9484,1626727924438,,,,
Fix,GT,37.4387813000,-122.2470648000,77.02790574415849,19.06643,0.1,315.73776,1626727925438,,,,
Fix,GT,37.4389036000,-122.2472155000,77.78774579038463,19.043772,0.1,315.18646,1626727926438,,,,
Fix,GT,37.4390253000,-122.2473681000,78.5525216775302,19.196169,0.1,314.886,1626727927438,,,,
Fix,GT,37.4391483000,-122.2475233000,79.3260719954626,19.58982,0.1,314.72507,1626727928438,,,,
Fix,GT,37.4392740000,-122.2476828000,80.11962602690937,20.075123,0.1,314.63013,1626727929438,,,,
Fix,GT,37.4394019000,-122.2478453000,80.92946158836321,20.359268,0.1,314.53098,1626727930438,,,,
Fix,GT,37.4395314000,-122.2480102000,81.7472364503783,20.56476,0.1,314.56165,1626727931438,,,,
Fix,GT,37.4396617000,-122.2481757000,82.56745970236443,20.590506,0.1,314.6556,1626727932438,,,,
Fix,GT,37.4397924000,-122.2483414000,83.38301454557586,20.685665,0.1,314.553,1626727933438,,,,
Fix,GT,37.4399231000,-122.2485093000,84.2078470809738,20.83379,0.1,314.1079,1626727934438,,,,
Fix,GT,37.4400540000,-122.2486787000,85.07140140831507,20.908558,0.1,314.00244,1626727935438,,,,
Fix,GT,37.4401850000,-122.2488490000,85.93084669330528,21.001198,0.1,313.8352,1626727936438,,,,
Fix,GT,37.4403163000,-122.2490213000,86.806566490342,21.158913,0.1,313.58667,1626727937438,,,,
Fix,GT,37.4404479000,-122.2491946000,87.64624126433591,21.164246,0.1,313.6081,1626727938438,,,,
Fix,GT,37.4405795000,-122.2493672000,88.51101564467263,21.123604,0.1,313.77423,1626727939438,,,,
Fix,GT,37.4407114000,-122.2495394000,89.34440383408264,21.125067,0.1,313.84848,1626727940438,,,,
Fix,GT,37.4408436000,-122.2497116000,90.16867862319373,21.245281,0.1,313.92792,1626727941438,,,,
Fix,GT,37.4409774000,-122.2498851000,91.0170100183343,21.462078,0.1,314.1121,1626727942438,,,,
Fix,GT,37.4411127000,-122.2500601000,91.868241612367,21.693308,0.1,313.98474,1626727943438,,,,
Fix,GT,37.4412493000,-122.2502375000,92.72095311123667,21.941689,0.1,314.01035,1626727944438,,,,
Fix,GT,37.4413875000,-122.2504167000,93.6212837006251,22.172234,0.1,313.9391,1626727945438,,,,
Fix,GT,37.4415266000,-122.2505981000,94.61299784461721,22.365135,0.1,313.84476,1626727946438,,,,
Fix,GT,37.4416667000,-122.2507811000,95.6323887951412,22.547596,0.1,313.79315,1626727947438,,,,
Fix,GT,37.4418079000,-122.2509660000,96.66038869810563,22.734648,0.1,313.81842,1626727948438,,,,
Fix,GT,37.4419501000,-122.2511518000,97.71955126963803,22.816952,0.1,313.80386,1626727949438,,,,
Fix,GT,37.4420914000,-122.2513385000,98.72822213469817,22.724659,0.1,313.28146,1626727950438,,,,
Fix,GT,37.4422297000,-122.2515272000,99.70628273094712,22.650536,0.1,311.94424,1626727951438,,,,
Fix,GT,37.4423636000,-122.2517199000,100.60078903245494,22.614174,0.1,310.3743,1626727952438,,,,
Fix,GT,37.4424934000,-122.2519167000,101.51417909158204,22.576157,0.1,309.05518,1626727953438,,,,
Fix,GT,37.4426191000,-122.2521167000,102.40556890531752,22.495535,0.1,307.46954,1626727954438,,,,
Fix,GT,37.4427398000,-122.2523206000,103.29084457014005,22.447067,0.1,305.91144,1626727955438,,,,
Fix,GT,37.4428558000,-122.2525280000,104.17279236991726,22.391617,0.1,304.3738,1626727956438,,,,
Fix,GT,37.4429672000,-122.2527386000,105.04395122610663,22.348997,0.1,302.9385,1626727957438,,,,
Fix,GT,37.4430742000,-122.2529522000,105.91340490388893,22.29973,0.1,301.536,1626727958438,,,,
Fix,GT,37.4431769000,-122.2531685000,106.79279366966193,22.256783,0.1,300.20023,1626727959438,,,,
Fix,GT,37.4432759000,-122.2533872000,107.65778836489017,22.259197,0.1,299.1211,1626727960438,,,,
Fix,GT,37.4433713000,-122.2536085000,108.52600954859327,22.267857,0.1,297.82672,1626727961438,,,,
Fix,GT,37.4434626000,-122.2538326000,109.41140615862514,22.274204,0.1,296.40686,1626727962438,,,,
Fix,GT,37.4435492000,-122.2540595000,110.30718173131027,22.235142,0.1,294.98047,1626727963438,,,,
Fix,GT,37.4436312000,-122.2542881000,111.18757165501165,22.121767,0.1,293.61752,1626727964438,,,,
Fix,GT,37.4437082000,-122.2545180000,112.05062639072958,22.016289,0.1,292.155,1626727965438,,,,
Fix,GT,37.4437803000,-122.2547496000,112.91101833855669,22.04284,0.1,290.7062,1626727966438,,,,
Fix,GT,37.4438476000,-122.2549829000,113.76862872526453,21.768389,0.1,289.37442,1626727967438,,,,
Fix,GT,37.4439102000,-122.2552141000,114.6177956238389,21.531763,0.1,288.26303,1626727968438,,,,
Fix,GT,37.4439688000,-122.2554462000,115.4954025975253,21.546085,0.1,287.09418,1626727969438,,,,
Fix,GT,37.4440234000,-122.2556795000,116.32223748265733,21.46746,0.1,285.76917,1626727970438,,,,
Fix,GT,37.4440732000,-122.2559134000,117.16607135071854,21.373642,0.1,284.35992,1626727971438,,,,
Fix,GT,37.4441183000,-122.2561477000,117.99868357687501,21.288532,0.1,282.9725,1626727972438,,,,
Fix,GT,37.4441586000,-122.2563824000,118.80629426749647,21.205433,0.1,281.5788,1626727973438,,,,
Fix,GT,37.4441944000,-122.2566172000,119.55996785283787,21.130753,0.1,280.35165,1626727974438,,,,
Fix,GT,37.4442264000,-122.2568524000,120.2721857785723,21.075552,0.1,279.21887,1626727975438,,,,
Fix,GT,37.4442546000,-122.2570878000,120.94747140169238,21.078127,0.1,278.07855,1626727976438,,,,
Fix,GT,37.4442788000,-122.2573241000,121.59564274574313,21.079721,0.1,276.66266,1626727977438,,,,
Fix,GT,37.4442981000,-122.2575610000,122.22575451341527,21.073229,0.1,275.27182,1626727978438,,,,
Fix,GT,37.4443127000,-122.2577985000,122.82497705325386,21.0943,0.1,273.81705,1626727979438,,,,
Fix,GT,37.4443227000,-122.2580369000,123.35336122776266,21.152473,0.1,272.45334,1626727980438,,,,
Fix,GT,37.4443283000,-122.2582762000,123.8668207796884,21.218327,0.1,271.20148,1626727981438,,,,
Fix,GT,37.4443298000,-122.2585164000,124.35248825225972,21.29985,0.1,269.8494,1626727982438,,,,
Fix,GT,37.4443266000,-122.2587579000,124.79854646283275,21.456564,0.1,268.3784,1626727983438,,,,
Fix,GT,37.4443186000,-122.2590012000,125.17160739600945,21.636436,0.1,267.1642,1626727984438,,,,
Fix,GT,37.4443068000,-122.2592465000,125.48350610848206,21.869429,0.1,266.05084,1626727985438,,,,
Fix,GT,37.4442911000,-122.2594943000,125.73533682152174,22.130325,0.1,265.03134,1626727986438,,,,
Fix,GT,37.4442721000,-122.2597457000,125.95678156317445,22.585194,0.1,264.27136,1626727987438,,,,
Fix,GT,37.4442518000,-122.2600013000,126.13484579085548,22.858246,0.1,264.38535,1626727988438,,,,
Fix,GT,37.4442317000,-122.2602596000,126.27435183013245,23.086756,0.1,264.3948,1626727989438,,,,
Fix,GT,37.4442112000,-122.2605208000,126.36556827356321,23.411118,0.1,264.33707,1626727990438,,,,
Fix,GT,37.4441900000,-122.2607867000,126.4642952142517,23.779587,0.1,264.14133,1626727991438,,,,
Fix,GT,37.4441683000,-122.2610528000,126.5954563741293,23.525604,0.1,264.12888,1626727992438,,,,
Fix,GT,37.4441466000,-122.2613153000,126.76661763618904,23.164707,0.1,264.0013,1626727993438,,,,
Fix,GT,37.4441250000,-122.2615735000,126.94083800960993,22.791494,0.1,263.9249,1626727994438,,,,
Fix,GT,37.4441036000,-122.2618275000,127.08296199689062,22.426517,0.1,264.09906,1626727995438,,,,
Fix,GT,37.4440837000,-122.2620776000,127.21183705877729,22.066696,0.1,264.35083,1626727996438,,,,
Fix,GT,37.4440644000,-122.2623238000,127.33868376179316,21.711021,0.1,264.32364,1626727997438,,,,
Fix,GT,37.4440455000,-122.2625660000,127.45834997750308,21.368027,0.1,264.43576,1626727998438,,,,
Fix,GT,37.4440275000,-122.2628046000,127.51968949302409,21.0411,0.1,264.65414,1626727999438,,,,
Fix,GT,37.4440103000,-122.2630395000,127.58679242642188,20.71857,0.1,264.77747,1626728000438,,,,
Fix,GT,37.4439935000,-122.2632708000,127.70189864186204,20.388195,0.1,264.7284,1626728001438,,,,
Fix,GT,37.4439764000,-122.2634986000,127.77512020192103,20.107697,0.1,264.4623,1626728002438,,,,
Fix,GT,37.4439589000,-122.2637231000,127.84422584049344,19.784286,0.1,264.39935,1626728003438,,,,
Fix,GT,37.4439425000,-122.2639454000,127.88379330006546,19.828712,0.1,264.86237,1626728004438,,,,
Fix,GT,37.4439281000,-122.2641714000,127.91785657018227,20.271107,0.1,265.91852,1626728005438,,,,
Fix,GT,37.4439178000,-122.2644025000,127.90546756347749,20.7176,0.1,267.5517,1626728006438,,,,
Fix,GT,37.4439130000,-122.2646387000,127.8742428587193,21.09269,0.1,268.98047,1626728007438,,,,
Fix,GT,37.4439118000,-122.2648773000,127.82391385659002,21.155539,0.1,270.1411,1626728008438,,,,
Fix,GT,37.4439146000,-122.2651185000,127.75668900027495,21.549547,0.1,271.2458,1626728009438,,,,
Fix,GT,37.4439211000,-122.2653643000,127.65757780880904,21.98959,0.1,272.35822,1626728010438,,,,
Fix,GT,37.4439318000,-122.2656149000,127.53019474253051,22.410038,0.1,273.6269,1626728011438,,,,
Fix,GT,37.4439478000,-122.2658697000,127.36842035633981,22.825953,0.1,275.10437,1626728012438,,,,
Fix,GT,37.4439692000,-122.2661286000,127.15147571364764,23.262955,0.1,276.46262,1626728013438,,,,
Fix,GT,37.4439959000,-122.2663920000,126.90382172686259,23.723747,0.1,277.85052,1626728014438,,,,
Fix,GT,37.4440280000,-122.2666605000,126.60620473120548,24.349352,0.1,278.95193,1626728015438,,,,
Fix,GT,37.4440650000,-122.2669349000,126.274207769452,24.894657,0.1,280.11386,1626728016438,,,,
Fix,GT,37.4441075000,-122.2672137000,125.94004367306616,25.351355,0.1,281.47635,1626728017438,,,,
Fix,GT,37.4441569000,-122.2674957000,125.56849370569034,25.724716,0.1,283.12558,1626728018438,,,,
Fix,GT,37.4442136000,-122.2677783000,125.21049199205663,25.78133,0.1,284.98126,1626728019438,,,,
Fix,GT,37.4442767000,-122.2680579000,124.85232581821083,25.610447,0.1,286.5248,1626728020438,,,,
Fix,GT,37.4443453000,-122.2683331000,124.46426256920017,25.427078,0.1,288.0254,1626728021438,,,,
Fix,GT,37.4444192000,-122.2686039000,124.10243492444238,25.238644,0.1,289.55725,1626728022438,,,,
Fix,GT,37.4444979000,-122.2688702000,123.74088241728009,25.047157,0.1,290.98843,1626728023438,,,,
Fix,GT,37.4445817000,-122.2691326000,123.36587872794234,25.019966,0.1,292.48486,1626728024438,,,,
Fix,GT,37.4446709000,-122.2693939000,122.92832617123031,25.31892,0.1,293.77448,1626728025438,,,,
Fix,GT,37.4447654000,-122.2696559000,122.55658973650316,25.540123,0.1,294.78314,1626728026438,,,,
Fix,GT,37.4448648000,-122.2699171000,122.20137778951653,25.68076,0.1,296.0181,1626728027438,,,,
Fix,GT,37.4449696000,-122.2701771000,121.89198873992336,25.8763,0.1,297.40842,1626728028438,,,,
Fix,GT,37.4450802000,-122.2704358000,121.56381705169156,26.085064,0.1,298.821,1626728029438,,,,
Fix,GT,37.4451973000,-122.2706925000,121.27525289447408,26.240831,0.1,300.69528,1626728030438,,,,
Fix,GT,37.4453212000,-122.2709459000,121.06042061125208,26.38322,0.1,302.13464,1626728031438,,,,
Fix,GT,37.4454512000,-122.2711966000,120.92658280483943,26.5346,0.1,303.8168,1626728032438,,,,
Fix,GT,37.4455876000,-122.2714437000,120.80536430301026,26.668324,0.1,305.45297,1626728033438,,,,
Fix,GT,37.4457304000,-122.2716869000,120.78985058337548,26.76616,0.1,307.11697,1626728034438,,,,
Fix,GT,37.4458785000,-122.2719261000,120.84767506688877,26.835567,0.1,308.35022,1626728035438,,,,
Fix,GT,37.4460309000,-122.2721617000,121.04317111385171,26.849691,0.1,309.64545,1626728036438,,,,
Fix,GT,37.4461871000,-122.2723931000,121.28472447790682,26.800077,0.1,310.66907,1626728037438,,,,
Fix,GT,37.4463456000,-122.2726210000,121.58799511218331,26.735706,0.1,311.1846,1626728038438,,,,
Fix,GT,37.4465038000,-122.2728483000,121.95821840300778,26.66675,0.1,311.1265,1626728039438,,,,
Fix,GT,37.4466619000,-122.2730749000,122.32776946568629,26.592995,0.1,311.19376,1626728040438,,,,
Fix,GT,37.4468196000,-122.2733004000,122.74887547657454,26.511343,0.1,311.23807,1626728041438,,,,
Fix,GT,37.4469771000,-122.2735251000,123.2402017189579,26.40067,0.1,311.31955,1626728042438,,,,
Fix,GT,37.4471335000,-122.2737488000,123.76598287089587,26.268559,0.1,311.07794,1626728043438,,,,
Fix,GT,37.4472885000,-122.2739722000,124.35586409973257,26.131508,0.1,311.01215,1626728044438,,,,
Fix,GT,37.4474429000,-122.2741939000,125.01725148454534,25.993649,0.1,311.15143,1626728045438,,,,
Fix,GT,37.4475969000,-122.2744143000,125.72735598936379,25.850712,0.1,311.19827,1626728046438,,,,
Fix,GT,37.4477500000,-122.2746334000,126.45819433301585,25.715752,0.1,311.22437,1626728047438,,,,
Fix,GT,37.4479025000,-122.2748513000,127.17413106891127,25.592829,0.1,311.2282,1626728048438,,,,
Fix,GT,37.4480542000,-122.2750680000,127.91713405995893,25.432167,0.1,311.30176,1626728049438,,,,
Fix,GT,37.4482057000,-122.2752835000,128.64168554010075,25.448345,0.1,311.34988,1626728050438,,,,
Fix,GT,37.4483576000,-122.2754994000,129.39758062321653,25.513811,0.1,311.5114,1626728051438,,,,
Fix,GT,37.4485113000,-122.2757154000,130.11602790967754,25.737883,0.1,311.82187,1626728052438,,,,
Fix,GT,37.4486667000,-122.2759328000,130.84097405159264,25.92007,0.1,311.7971,1626728053438,,,,
Fix,GT,37.4488227000,-122.2761514000,131.5761905403724,25.965723,0.1,311.65338,1626728054438,,,,
Fix,GT,37.4489765000,-122.2763716000,132.32629818925125,25.853642,0.1,310.79825,1626728055438,,,,
Fix,GT,37.4491278000,-122.2765935000,133.04741470724366,25.823479,0.1,310.16257,1626728056438,,,,
Fix,GT,37.4492778000,-122.2768173000,133.75409049709833,25.935394,0.1,309.9145,1626728057438,,,,
Fix,GT,37.4494283000,-122.2770423000,134.40902728898618,26.001669,0.1,309.95776,1626728058438,,,,
Fix,GT,37.4495779000,-122.2772659000,135.03552943706836,25.614227,0.1,309.87494,1626728059438,,,,
Fix,GT,37.4497240000,-122.2774869000,135.54654412882428,25.208298,0.1,309.44568,1626728060438,,,,
Fix,GT,37.4498672000,-122.2777052000,135.98765144489835,24.833954,0.1,309.39426,1626728061438,,,,
Fix,GT,37.4500086000,-122.2779209000,136.41893843664138,24.637035,0.1,309.42288,1626728062438,,,,
Fix,GT,37.4501498000,-122.2781361000,136.8049359546858,24.69832,0.1,309.34567,1626728063438,,,,
Fix,GT,37.4502912000,-122.2783520000,137.20142572664145,24.71732,0.1,309.54004,1626728064438,,,,
Fix,GT,37.4504331000,-122.2785664000,137.61249674342935,24.602737,0.1,309.81302,1626728065438,,,,
Fix,GT,37.4505748000,-122.2787795000,137.89628772937976,24.520058,0.1,309.7101,1626728066438,,,,
Fix,GT,37.4507167000,-122.2789929000,138.1142900487157,24.666286,0.1,309.78918,1626728067438,,,,
Fix,GT,37.4508590000,-122.2792083000,138.26806174806507,24.837833,0.1,309.46048,1626728068438,,,,
Fix,GT,37.4510019000,-122.2794255000,138.3627381665683,25.010918,0.1,309.55228,1626728069438,,,,
Fix,GT,37.4511466000,-122.2796435000,138.38618430306315,25.166437,0.1,309.7825,1626728070438,,,,
Fix,GT,37.4512921000,-122.2798622000,138.41480032958134,25.263832,0.1,309.61865,1626728071438,,,,
Fix,GT,37.4514373000,-122.2800828000,138.42785457668833,25.352139,0.1,309.46442,1626728072438,,,,
Fix,GT,37.4515828000,-122.2803043000,138.40230886866675,25.443638,0.1,309.29932,1626728073438,,,,
Fix,GT,37.4517276000,-122.2805279000,138.35097914783728,25.486647,0.1,308.77206,1626728074438,,,,
Fix,GT,37.4518713000,-122.2807519000,138.22836897789284,25.439636,0.1,308.83408,1626728075438,,,,
Fix,GT,37.4520158000,-122.2809753000,138.0886392409957,25.478107,0.1,309.24045,1626728076438,,,,
Fix,GT,37.4521619000,-122.2811978000,137.87069301657175,25.544739,0.1,309.5969,1626728077438,,,,
Fix,GT,37.4523095000,-122.2814205000,137.60753684461088,25.715902,0.1,309.79605,1626728078438,,,,
Fix,GT,37.4524582000,-122.2816450000,137.28159482598585,25.95879,0.1,309.51425,1626728079438,,,,
Fix,GT,37.4526075000,-122.2818727000,136.92466036572068,26.235615,0.1,309.28348,1626728080438,,,,
Fix,GT,37.4527580000,-122.2821036000,136.53533319901135,26.557455,0.1,309.22064,1626728081438,,,,
Fix,GT,37.4529109000,-122.2823374000,136.0871660098328,26.954857,0.1,309.38177,1626728082438,,,,
Fix,GT,37.4530666000,-122.2825743000,135.58682899285577,27.386314,0.1,309.55045,1626728083438,,,,
Fix,GT,37.4532255000,-122.2828145000,135.02856153637276,27.869371,0.1,309.62778,1626728084438,,,,
Fix,GT,37.4533874000,-122.2830589000,134.3953928015967,28.353884,0.1,309.68256,1626728085438,,,,
Fix,GT,37.4535520000,-122.2833072000,133.77194869172763,28.776787,0.1,309.57773,1626728086438,,,,
Fix,GT,37.4537178000,-122.2835606000,133.12618178384355,29.227018,0.1,309.23126,1626728087438,,,,
Fix,GT,37.4538857000,-122.2838178000,132.5007908331031,29.539555,0.1,309.3494,1626728088438,,,,
Fix,GT,37.4540542000,-122.2840754000,131.87540580557652,29.409397,0.1,309.2933,1626728089438,,,,
Fix,GT,37.4542222000,-122.2843315000,131.19823470367965,29.294754,0.1,309.60498,1626728090438,,,,
Fix,GT,37.4543908000,-122.2845861000,130.56618414895593,29.27818,0.1,309.7444,1626728091438,,,,
Fix,GT,37.4545596000,-122.2848405000,129.9174521957466,29.298668,0.1,309.72928,1626728092438,,,,
Fix,GT,37.4547285000,-122.2850950000,129.2609525855878,29.307215,0.1,309.6068,1626728093438,,,,
Fix,GT,37.4548965000,-122.2853506000,128.62433869838787,29.333107,0.1,309.33206,1626728094438,,,,
Fix,GT,37.4550640000,-122.2856074000,127.96772517220347,29.376648,0.1,309.23276,1626728095438,,,,
Fix,GT,37.4552319000,-122.2858645000,127.28595920647535,29.440266,0.1,309.3723,1626728096438,,,,
Fix,GT,37.4554010000,-122.2861213000,126.622179096958,29.475647,0.1,309.45706,1626728097438,,,,
Fix,GT,37.4555697000,-122.2863787000,125.92245796665566,29.512989,0.1,309.22165,1626728098438,,,,
Fix,GT,37.4557387000,-122.2866370000,125.1619661683958,29.629944,0.1,309.41803,1626728099438,,,,
Fix,GT,37.4559103000,-122.2868946000,124.40951280553463,29.765274,0.1,310.1839,1626728100438,,,,
Fix,GT,37.4560856000,-122.2871502000,123.73866232479668,29.865368,0.1,311.24582,1626728101438,,,,
Fix,GT,37.4562661000,-122.2874005000,123.28059339506126,29.883743,0.1,313.0597,1626728102438,,,,
Fix,GT,37.4564536000,-122.2876434000,122.91421077778,29.974443,0.1,315.24158,1626728103438,,,,
Fix,GT,37.4566494000,-122.2878777000,122.69841383363018,30.099075,0.1,317.31012,1626728104438,,,,
Fix,GT,37.4568527000,-122.2881038000,122.58146242883959,30.216923,0.1,319.3122,1626728105438,,,,
Fix,GT,37.4570622000,-122.2883229000,122.59490387748724,30.318157,0.1,321.01926,1626728106438,,,,
Fix,GT,37.4572769000,-122.2885339000,122.75955954288929,30.143208,0.1,322.93884,1626728107438,,,,
Fix,GT,37.4574961000,-122.2887333000,123.05982781529019,29.979523,0.1,324.9148,1626728108438,,,,
Fix,GT,37.4577193000,-122.2889228000,123.496206052454,29.85785,0.1,326.83032,1626728109438,,,,
Fix,GT,37.4579466000,-122.2891020000,124.0187540357997,29.755623,0.1,328.83514,1626728110438,,,,
Fix,GT,37.4581775000,-122.2892713000,124.61853196407083,29.613781,0.1,330.4893,1626728111438,,,,
Fix,GT,37.4584112000,-122.2894312000,125.20136768970906,29.466234,0.1,332.34146,1626728112438,,,,
Fix,GT,37.4586479000,-122.2895797000,125.82675566823309,29.300993,0.1,334.44095,1626728113438,,,,
Fix,GT,37.4588874000,-122.2897167000,126.46070012368091,29.13312,0.1,336.52292,1626728114438,,,,
Fix,GT,37.4591291000,-122.2898432000,127.05197175025796,29.006474,0.1,338.2137,1626728115438,,,,
Fix,GT,37.4593729000,-122.2899596000,127.62081811809912,28.912437,0.1,340.1164,1626728116438,,,,
Fix,GT,37.4596191000,-122.2900654000,128.14524692218401,28.845415,0.1,341.97827,1626728117438,,,,
Fix,GT,37.4598670000,-122.2901618000,128.73014058404897,28.746584,0.1,343.5176,1626728118438,,,,
Fix,GT,37.4601157000,-122.2902495000,129.34820814310206,28.622406,0.1,345.1408,1626728119438,,,,
Fix,GT,37.4603658000,-122.2903267000,129.96730924800613,28.600748,0.1,347.1663,1626728120438,,,,
Fix,GT,37.4606186000,-122.2903924000,130.59859909004172,28.705421,0.1,349.31674,1626728121438,,,,
Fix,GT,37.4608742000,-122.2904474000,131.16897818946927,28.885277,0.1,351.1801,1626728122438,,,,
Fix,GT,37.4611327000,-122.2904930000,131.7488221346589,29.076523,0.1,352.8754,1626728123438,,,,
Fix,GT,37.4613941000,-122.2905270000,132.3524827815063,29.24114,0.1,355.1753,1626728124438,,,,
Fix,GT,37.4616572000,-122.2905492000,132.98273736599367,29.266777,0.1,357.04904,1626728125438,,,,
Fix,GT,37.4619205000,-122.2905640000,133.76691696950547,29.248474,0.1,357.74646,1626728126438,,,,
Fix,GT,37.4621838000,-122.2905758000,134.47253597934832,29.254929,0.1,358.12354,1626728127438,,,,
Fix,GT,37.4624474000,-122.2905856000,135.0763127864043,29.297005,0.1,358.3822,1626728128438,,,,
Fix,GT,37.4627116000,-122.2905946000,135.65415593789476,29.348915,0.1,358.4569,1626728129438,,,,
Fix,GT,37.4629762000,-122.2906034000,136.2330905812505,29.396255,0.1,358.45514,1626728130438,,,,
Fix,GT,37.4632408000,-122.2906123000,136.86691413927292,29.350937,0.1,358.5505,1626728131438,,,,
Fix,GT,37.4635042000,-122.2906203000,137.55713338192982,29.02731,0.1,358.61957,1626728132438,,,,
Fix,GT,37.4637635000,-122.2906297000,138.35519770574228,28.572956,0.1,358.13333,1626728133438,,,,
Fix,GT,37.4640189000,-122.2906433000,139.0676929228307,28.193485,0.1,357.11417,1626728134438,,,,
Fix,GT,37.4642713000,-122.2906619000,139.49577056956332,27.94188,0.1,356.30246,1626728135438,,,,
Fix,GT,37.4645212000,-122.2906841000,139.87099237365692,27.687267,0.1,355.8459,1626728136438,,,,
Fix,GT,37.4647691000,-122.2907076000,140.25260522774715,27.49392,0.1,355.58417,1626728137438,,,,
Fix,GT,37.4650151000,-122.2907337000,140.59721725052486,27.30642,0.1,354.75705,1626728138438,,,,
Fix,GT,37.4652588000,-122.2907657000,140.93172414517903,27.08791,0.1,353.2188,1626728139438,,,,
Fix,GT,37.4655003000,-122.2908070000,141.22216443468824,27.052624,0.1,351.43668,1626728140438,,,,
Fix,GT,37.4657408000,-122.2908571000,141.48200927650714,27.022589,0.1,350.029,1626728141438,,,,
Fix,GT,37.4659801000,-122.2909105000,141.73865894752316,26.923943,0.1,350.19675,1626728142438,,,,
Fix,GT,37.4662184000,-122.2909617000,142.080552141907,26.665995,0.1,350.29462,1626728143438,,,,
Fix,GT,37.4664527000,-122.2910130000,142.3960576457239,26.059837,0.1,349.93936,1626728144438,,,,
Fix,GT,37.4666788000,-122.2910667000,142.73211649719178,25.013292,0.1,348.71213,1626728145438,,,,
Fix,GT,37.4668944000,-122.2911251000,142.85807823386358,23.959602,0.1,347.23993,1626728146438,,,,
Fix,GT,37.4670992000,-122.2911864000,142.70137100155353,22.780563,0.1,346.03168,1626728147438,,,,
Fix,GT,37.4672921000,-122.2912498000,142.37816625777077,21.472748,0.1,344.93842,1626728148438,,,,
Fix,GT,37.4674731000,-122.2913135000,141.80544602390773,20.245333,0.1,343.9194,1626728149438,,,,
Fix,GT,37.4676439000,-122.2913772000,141.3042699650332,19.328718,0.1,343.1245,1626728150438,,,,
Fix,GT,37.4678055000,-122.2914427000,140.6600701521711,18.317438,0.1,341.24008,1626728151438,,,,
Fix,GT,37.4679561000,-122.2915112000,139.86180315421325,17.256405,0.1,339.34653,1626728152438,,,,
Fix,GT,37.4680963000,-122.2915780000,139.03146816154458,16.012165,0.1,339.43887,1626728153438,,,,
Fix,GT,37.4682270000,-122.2916368000,138.20047449346566,14.963611,0.1,340.9048,1626728154438,,,,
Fix,GT,37.4683504000,-122.2916870000,137.38495897580424,13.746558,0.1,342.76752,1626728155438,,,,
Fix,GT,37.4684611000,-122.2917283000,136.75438486674102,11.770605,0.1,343.63626,1626728156438,,,,
Fix,GT,37.4685535000,-122.2917629000,136.3599865580204,9.659675,0.1,342.86655,1626728157438,,,,
Fix,GT,37.4686258000,-122.2917942000,136.16414233379874,7.177873,0.1,339.4683,1626728158438,,,,
Fix,GT,37.4686726000,-122.2918228000,136.09929159699323,4.3054147,0.1,332.8879,1626728159438,,,,
Fix,GT,37.4686952000,-122.2918403000,136.0568524303062,1.8257422,0.1,329.23178,1626728160438,,,,
Fix,GT,37.4687021000,-122.2918460000,136.05124479977894,0.10432667,0.1,328.31006,1626728161438,,,,
Fix,GT,37.4687032000,-122.2918469000,136.03863525390625,0.43427157,0.1,328.1675,1626728162438,,,,
Fix,GT,37.4687101000,-122.2918526000,136.02823641471196,1.6124223,0.1,327.30316,1626728163438,,,,
Fix,GT,37.4687284000,-122.2918690000,136.02617961201577,3.367032,0.1,325.301,1626728164438,,,,
Fix,GT,37.4687568000,-122.2918988000,136.06807392730843,4.776371,0.1,319.34622,1626728165438,,,,
Fix,GT,37.4687854000,-122.2919482000,136.27266656957772,5.9622555,0.1,302.37354,1626728166438,,,,
Fix,GT,37.4687964000,-122.2920199000,136.4298994294595,7.011206,0.1,275.46182,1626728167438,,,,
Fix,GT,37.4687820000,-122.2921030000,136.4762385142849,8.063345,0.1,252.40166,1626728168438,,,,
Fix,GT,37.4687435000,-122.2921886000,136.46323395892296,9.470989,0.1,236.77464,1626728169438,,,,
Fix,GT,37.4686825000,-122.2922757000,136.4756276465764,11.032991,0.1,225.62885,1626728170438,,,,
Fix,GT,37.4686060000,-122.2923651000,136.4519127093772,12.155251,0.1,222.6637,1626728171438,,,,
Fix,GT,37.4685224000,-122.2924624000,136.34954090748943,13.074005,0.1,222.94876,1626728172438,,,,
Fix,GT,37.4684354000,-122.2925672000,136.10043483488334,13.653061,0.1,224.63533,1626728173438,,,,
Fix,GT,37.4683502000,-122.2926800000,135.7659310938816,13.806618,0.1,227.96513,1626728174438,,,,
Fix,GT,37.4682702000,-122.2927991000,135.30477271412474,13.671267,0.1,230.23326,1626728175438,,,,
Fix,GT,37.4681892000,-122.2929124000,134.74350099968888,13.2081995,0.1,225.8771,1626728176438,,,,
Fix,GT,37.4681074000,-122.2930123000,134.14279018420712,12.094444,0.1,224.09438,1626728177438,,,,
Fix,GT,37.4680351000,-122.2931069000,133.44433525431214,11.156894,0.1,228.5598,1626728178438,,,,
Fix,GT,37.4679818000,-122.2932039000,132.77323606532082,9.708655,0.1,239.59021,1626728179438,,,,
Fix,GT,37.4679564000,-122.2933033000,131.95014289050732,9.050213,0.1,259.63373,1626728180438,,,,
Fix,GT,37.4679695000,-122.2934052000,131.26415931029078,9.286724,0.1,288.00647,1626728181438,,,,
Fix,GT,37.4680176000,-122.2934985000,131.07512349778517,10.681199,0.1,307.43344,1626728182438,,,,
Fix,GT,37.4680906000,-122.2935937000,131.14540079036215,12.5320015,0.1,316.0639,1626728183438,,,,
Fix,GT,37.4681773000,-122.2936934000,131.26828786154783,13.523155,0.1,317.7872,1626728184438,,,,
Fix,GT,37.4682712000,-122.2937994000,131.42004680214995,14.568904,0.1,317.9321,1626728185438,,,,
Fix,GT,37.4683725000,-122.2939134000,131.88364627148803,15.515041,0.1,318.10852,1626728186438,,,,
Fix,GT,37.4684790000,-122.2940311000,132.4941870006287,15.788242,0.1,318.7138,1626728187438,,,,
Fix,GT,37.4685865000,-122.2941426000,133.2171981654019,15.014284,0.1,322.20926,1626728188438,,,,
Fix,GT,37.4686947000,-122.2942306000,133.941135282319,13.613676,0.1,331.39108,1626728189438,,,,
Fix,GT,37.4688057000,-122.2942814000,134.770299843688,12.752472,0.1,346.02716,1626728190438,,,,
Fix,GT,37.4689179000,-122.2942903000,135.6546275545379,12.3687525,0.1,2.2164917,1626728191438,,,,
Fix,GT,37.4690263000,-122.2942613000,136.4896902945975,12.422658,0.1,17.87144,1626728192438,,,,
Fix,GT,37.4691265000,-122.2941948000,137.30090670696518,12.796387,0.1,33.744804,1626728193438,,,,
Fix,GT,37.4692111000,-122.2940940000,138.09847215202763,13.173443,0.1,49.349667,1626728194438,,,,
Fix,GT,37.4692724000,-122.2939660000,138.92179513264728,13.219038,0.1,65.20935,1626728195438,,,,
Fix,GT,37.4693018000,-122.2938225000,139.68329967297814,13.146597,0.1,82.13453,1626728196438,,,,
Fix,GT,37.4692962000,-122.2936738000,140.47290794962464,13.331327,0.1,99.34663,1626728197438,,,,
Fix,GT,37.4692549000,-122.2935314000,141.1806427322299,13.594956,0.1,116.5982,1626728198438,,,,
Fix,GT,37.4691821000,-122.2934039000,141.8354723425282,14.340018,0.1,130.45186,1626728199438,,,,
Fix,GT,37.4690872000,-122.2932848000,142.389369346256,15.483162,0.1,136.78084,1626728200438,,,,
Fix,GT,37.4689788000,-122.2931635000,142.88888471208793,16.79126,0.1,139.14854,1626728201438,,,,
Fix,GT,37.4688574000,-122.2930373000,143.32298883640215,18.2139,0.1,141.19485,1626728202438,,,,
Fix,GT,37.4687221000,-122.2929061000,143.59601350499497,19.79515,0.1,142.83112,1626728203438,,,,
Fix,GT,37.4685723000,-122.2927684000,143.50475490842928,21.229637,0.1,144.68094,1626728204438,,,,
Fix,GT,37.4684102000,-122.2926319000,143.35303984284064,22.088129,0.1,147.32666,1626728205438,,,,
Fix,GT,37.4682373000,-122.2925011000,143.16592162114102,22.74876,0.1,150.08029,1626728206438,,,,
Fix,GT,37.4680548000,-122.2923758000,142.95837007451473,23.517204,0.1,152.19978,1626728207438,,,,
Fix,GT,37.4678613000,-122.2922538000,142.7285804501662,24.564423,0.1,154.11513,1626728208438,,,,
Fix,GT,37.4676563000,-122.2921339000,142.52064386629718,25.646732,0.1,155.68253,1626728209438,,,,
Fix,GT,37.4674403000,-122.2920173000,142.29781218238213,26.44925,0.1,157.564,1626728210438,,,,
Fix,GT,37.4672157000,-122.2919059000,141.97459237980183,27.168308,0.1,159.08733,1626728211438,,,,
Fix,GT,37.4669828000,-122.2917989000,141.75847702102237,27.873518,0.1,160.49014,1626728212438,,,,
Fix,GT,37.4667428000,-122.2916953000,141.49064970092786,28.425625,0.1,161.37228,1626728213438,,,,
Fix,GT,37.4664989000,-122.2915957000,141.21186498960606,28.379684,0.1,162.58049,1626728214438,,,,
Fix,GT,37.4662553000,-122.2915035000,140.9103743276878,28.102867,0.1,163.74377,1626728215438,,,,
Fix,GT,37.4660126000,-122.2914192000,140.61947784488984,27.816042,0.1,165.3407,1626728216438,,,,
Fix,GT,37.4657703000,-122.2913453000,140.3881511084819,27.540874,0.1,167.18872,1626728217438,,,,
Fix,GT,37.4655282000,-122.2912810000,140.1031474399333,27.430473,0.1,168.92104,1626728218438,,,,
Fix,GT,37.4652844000,-122.2912256000,139.83737622117178,27.631794,0.1,170.4007,1626728219438,,,,
Fix,GT,37.4650365000,-122.2911772000,139.50409244362345,28.055866,0.1,171.79678,1626728220438,,,,
Fix,GT,37.4647839000,-122.2911362000,139.2166568879693,28.520985,0.1,173.33733,1626728221438,,,,
Fix,GT,37.4645261000,-122.2911031000,138.84826036798222,28.985697,0.1,174.89195,1626728222438,,,,
Fix,GT,37.4642638000,-122.2910777000,138.44709951080222,29.433113,0.1,176.20676,1626728223438,,,,
Fix,GT,37.4639971000,-122.2910595000,138.0536572537917,29.82782,0.1,177.47168,1626728224438,,,,
Fix,GT,37.4637274000,-122.2910475000,137.70187921241086,30.02256,0.1,178.28494,1626728225438,,,,
Fix,GT,37.4634578000,-122.2910380000,137.26122268562676,29.831352,0.1,178.28949,1626728226438,,,,
Fix,GT,37.4631899000,-122.2910281000,136.71644964965708,29.699024,0.1,178.19774,1626728227438,,,,
Fix,GT,37.4629226000,-122.2910177000,136.1748890846029,29.65527,0.1,178.1644,1626728228438,,,,
Fix,GT,37.4626557000,-122.2910074000,135.6042189961904,29.610586,0.1,178.22507,1626728229438,,,,
Fix,GT,37.4623896000,-122.2909968000,135.22836910926708,29.503407,0.1,178.15779,1626728230438,,,,
Fix,GT,37.4621245000,-122.2909861000,134.94030882627976,29.364769,0.1,178.21904,1626728231438,,,,
Fix,GT,37.4618607000,-122.2909748000,134.69837031787392,29.225805,0.1,177.85721,1626728232438,,,,
Fix,GT,37.4615982000,-122.2909586000,134.338764610598,29.125584,0.1,176.40134,1626728233438,,,,
Fix,GT,37.4613369000,-122.2909320000,133.81494221659568,29.081509,0.1,174.33441,1626728234438,,,,
Fix,GT,37.4610766000,-122.2908940000,133.21772035189724,29.076237,0.1,172.77379,1626728235438,,,,
Fix,GT,37.4608171000,-122.2908494000,132.61356052698102,29.07177,0.1,171.6326,1626728236438,,,,
Fix,GT,37.4605588000,-122.2907965000,132.05333385544418,29.012869,0.1,169.74393,1626728237438,,,,
Fix,GT,37.4603027000,-122.2907317000,131.47826903173518,28.981258,0.1,167.60394,1626728238438,,,,
Fix,GT,37.4600490000,-122.2906567000,130.94249929938087,28.874004,0.1,165.85002,1626728239438,,,,
Fix,GT,37.4597985000,-122.2905717000,130.2967847507698,28.776424,0.1,163.80664,1626728240438,,,,
Fix,GT,37.4595509000,-122.2904756000,129.7282750739837,28.749008,0.1,161.93468,1626728241438,,,,
Fix,GT,37.4593061000,-122.2903708000,129.16727636259475,28.666716,0.1,160.4182,1626728242438,,,,
Fix,GT,37.4590642000,-122.2902569000,128.65767457025504,28.681973,0.1,158.49438,1626728243438,,,,
Fix,GT,37.4588254000,-122.2901332000,128.09327124798256,28.690907,0.1,156.82326,1626728244438,,,,
Fix,GT,37.4585891000,-122.2900013000,127.50001098357575,28.714619,0.1,155.21695,1626728245438,,,,
Fix,GT,37.4583558000,-122.2898604000,126.87433683164636,28.756319,0.1,153.38795,1626728246438,,,,
Fix,GT,37.4581260000,-122.2897099000,126.30389023245152,28.78824,0.1,151.5035,1626728247438,,,,
Fix,GT,37.4579002000,-122.2895494000,125.7498893679458,28.82241,0.1,149.4767,1626728248438,,,,
Fix,GT,37.4576774000,-122.2893805000,125.2333884668526,29.015232,0.1,148.22313,1626728249438,,,,
Fix,GT,37.4574562000,-122.2892029000,124.76854827834313,29.284042,0.1,146.6052,1626728250438,,,,
Fix,GT,37.4572376000,-122.2890152000,124.43131302496886,29.496181,0.1,144.69563,1626728251438,,,,
Fix,GT,37.4570227000,-122.2888174000,124.20692303250235,29.664352,0.1,142.72958,1626728252438,,,,
Fix,GT,37.4568122000,-122.2886096000,124.05391401189081,29.797436,0.1,140.91203,1626728253438,,,,
Fix,GT,37.4566064000,-122.2883925000,123.99073308204174,29.899807,0.1,139.01747,1626728254438,,,,
Fix,GT,37.4564058000,-122.2881664000,124.08261721034341,29.96521,0.1,137.00232,1626728255438,,,,
Fix,GT,37.4562118000,-122.2879309000,124.31589115677389,29.967905,0.1,134.91147,1626728256438,,,,
Fix,GT,37.4560242000,-122.2876872000,124.62860199553711,29.955566,0.1,133.15182,1626728257438,,,,
Fix,GT,37.4558428000,-122.2874368000,125.04249143691459,29.922815,0.1,131.44371,1626728258438,,,,
Fix,GT,37.4556668000,-122.2871806000,125.46577123253519,29.904617,0.1,130.10896,1626728259438,,,,
Fix,GT,37.4554944000,-122.2869209000,125.7379443454663,29.92656,0.1,129.60852,1626728260438,,,,
Fix,GT,37.4553226000,-122.2866601000,126.04776822167764,29.937824,0.1,129.42583,1626728261438,,,,
Fix,GT,37.4551510000,-122.2863991000,126.52942460373765,29.947773,0.1,129.54138,1626728262438,,,,
Fix,GT,37.4549787000,-122.2861375000,127.18396737769604,30.084452,0.1,129.56097,1626728263438,,,,
Fix,GT,37.4548050000,-122.2858753000,127.8401928491894,30.282906,0.1,129.80113,1626728264438,,,,
Fix,GT,37.4546295000,-122.2856112000,128.5168542220058,30.565304,0.1,129.61537,1626728265438,,,,
Fix,GT,37.4544541000,-122.2853444000,129.18035673028135,30.603674,0.1,129.34909,1626728266438,,,,
Fix,GT,37.4542790000,-122.2850767000,129.83958439520848,30.684504,0.1,129.32816,1626728267438,,,,
Fix,GT,37.4541033000,-122.2848084000,130.52419099518647,30.67281,0.1,129.36905,1626728268438,,,,
Fix,GT,37.4539285000,-122.2845426000,131.1756349452421,30.358738,0.1,129.64682,1626728269438,,,,
Fix,GT,37.4537539000,-122.2842781000,131.8352476283194,30.44878,0.1,129.46051,1626728270438,,,,
Fix,GT,37.4535790000,-122.2840120000,132.5222539461629,30.600113,0.1,129.58519,1626728271438,,,,
Fix,GT,37.4534024000,-122.2837450000,133.23113584192924,30.77972,0.1,129.66434,1626728272438,,,,
Fix,GT,37.4532249000,-122.2834763000,133.89636997345315,30.976719,0.1,129.5489,1626728273438,,,,
Fix,GT,37.4530468000,-122.2832054000,134.52747466202618,31.160475,0.1,129.33911,1626728274438,,,,
Fix,GT,37.4528681000,-122.2829325000,135.11282237084833,31.318783,0.1,129.40198,1626728275438,,,,
Fix,GT,37.4526894000,-122.2826609000,135.64026799126304,30.995148,0.1,129.48932,1626728276438,,,,
Fix,GT,37.4525121000,-122.2823912000,136.11087722911952,30.874016,0.1,129.41698,1626728277438,,,,
Fix,GT,37.4523354000,-122.2821217000,136.5518374593412,30.899502,0.1,129.30202,1626728278438,,,,
Fix,GT,37.4521590000,-122.2818512000,136.90498603944388,30.94914,0.1,129.23457,1626728279438,,,,
Fix,GT,37.4519821000,-122.2815805000,137.22394411569485,30.974255,0.1,129.28433,1626728280438,,,,
Fix,GT,37.4518055000,-122.2813111000,137.45678477541787,30.810804,0.1,129.57341,1626728281438,,,,
Fix,GT,37.4516279000,-122.2810430000,137.66245863142285,30.899166,0.1,129.72285,1626728282438,,,,
Fix,GT,37.4514497000,-122.2807735000,137.8006708259163,31.058258,0.1,129.56969,1626728283438,,,,
Fix,GT,37.4512711000,-122.2805024000,137.89495786495718,31.183626,0.1,129.43477,1626728284438,,,,
Fix,GT,37.4510925000,-122.2802289000,137.92741586617512,31.36448,0.1,129.06752,1626728285438,,,,
Fix,GT,37.4509139000,-122.2799530000,137.90018818473163,31.541086,0.1,129.01161,1626728286438,,,,
Fix,GT,37.4507341000,-122.2796754000,137.79230802281745,31.770893,0.1,129.15276,1626728287438,,,,
Fix,GT,37.4505519000,-122.2793969000,137.62963896893098,31.996696,0.1,129.52133,1626728288438,,,,
Fix,GT,37.4503671000,-122.2791175000,137.37337312770615,32.244934,0.1,129.58449,1626728289438,,,,
Fix,GT,37.4501818000,-122.2788363000,137.1288230438454,32.20758,0.1,129.58614,1626728290438,,,,
Fix,GT,37.4499979000,-122.2785569000,136.67177636960514,31.904575,0.1,129.49454,1626728291438,,,,
Fix,GT,37.4498162000,-122.2782800000,136.3311458038188,31.558659,0.1,129.4133,1626728292438,,,,
Fix,GT,37.4496365000,-122.2780060000,135.88583117476128,31.26384,0.1,129.39522,1626728293438,,,,
Fix,GT,37.4494577000,-122.2777345000,135.35937488226045,31.051783,0.1,129.6094,1626728294438,,,,
Fix,GT,37.4492795000,-122.2774655000,134.8031102837117,30.87933,0.1,129.86856,1626728295438,,,,
Fix,GT,37.4491008000,-122.2771982000,134.14084971577904,30.877476,0.1,130.04204,1626728296438,,,,
Fix,GT,37.4489211000,-122.2769313000,133.4225142465184,30.93935,0.1,130.26474,1626728297438,,,,
Fix,GT,37.4487400000,-122.2766649000,132.6185692878871,31.025778,0.1,130.7498,1626728298438,,,,
Fix,GT,37.4485565000,-122.2763998000,131.72752063730604,31.117533,0.1,131.05074,1626728299438,,,,
Fix,GT,37.4483715000,-122.2761350000,130.8443037835823,31.16456,0.1,131.3065,1626728300438,,,,
Fix,GT,37.4481859000,-122.2758705000,129.9634762832784,31.194134,0.1,131.31784,1626728301438,,,,
Fix,GT,37.4479998000,-122.2756063000,129.06513298867503,31.207289,0.1,131.46754,1626728302438,,,,
Fix,GT,37.4478136000,-122.2753418000,128.14846402024705,31.212975,0.1,131.23155,1626728303438,,,,
Fix,GT,37.4476287000,-122.2750766000,127.24369542207023,31.168516,0.1,131.05461,1626728304438,,,,
Fix,GT,37.4474443000,-122.2748109000,126.34769085957669,31.180305,0.1,131.04854,1626728305438,,,,
Fix,GT,37.4472593000,-122.2745453000,125.45830290128015,31.256205,0.1,131.19838,1626728306438,,,,
Fix,GT,37.4470730000,-122.2742791000,124.5592419574823,31.43608,0.1,131.3205,1626728307438,,,,
Fix,GT,37.4468851000,-122.2740115000,123.73634961903736,31.714376,0.1,131.3801,1626728308438,,,,
Fix,GT,37.4466951000,-122.2737412000,123.00645493434058,32.03685,0.1,131.33466,1626728309438,,,,
Fix,GT,37.4465034000,-122.2734681000,122.39166018933838,32.374672,0.1,131.25233,1626728310438,,,,
Fix,GT,37.4463104000,-122.2731928000,121.97020565429375,32.377834,0.1,131.5149,1626728311438,,,,
Fix,GT,37.4461172000,-122.2729193000,121.6971435061323,32.35977,0.1,131.46944,1626728312438,,,,
Fix,GT,37.4459247000,-122.2726435000,121.43492370853937,32.51027,0.1,130.71284,1626728313438,,,,
Fix,GT,37.4457352000,-122.2723626000,121.32752336590784,32.599186,0.1,129.6581,1626728314438,,,,
Fix,GT,37.4455519000,-122.2720767000,121.26769399891009,32.304947,0.1,127.92285,1626728315438,,,,
Fix,GT,37.4453774000,-122.2717862000,121.21624463127114,32.07902,0.1,126.21433,1626728316438,,,,
Fix,GT,37.4452109000,-122.2714919000,121.26112444351747,31.74976,0.1,124.58841,1626728317438,,,,
Fix,GT,37.4450531000,-122.2711951000,121.38706504454967,31.421253,0.1,122.81985,1626728318438,,,,
Fix,GT,37.4449040000,-122.2708946000,121.63344156981475,31.220417,0.1,121.016655,1626728319438,,,,
Fix,GT,37.4447629000,-122.2705908000,121.93772538265375,31.01958,0.1,119.3835,1626728320438,,,,
Fix,GT,37.4446297000,-122.2702839000,122.30077055412403,30.810795,0.1,117.75718,1626728321438,,,,
Fix,GT,37.4445041000,-122.2699748000,122.65505012727567,30.603321,0.1,116.22311,1626728322438,,,,
Fix,GT,37.4443861000,-122.2696636000,123.04865930137021,30.408752,0.1,114.62136,1626728323438,,,,
Fix,GT,37.4442763000,-122.2693498000,123.26082850339071,30.251657,0.1,112.88185,1626728324438,,,,
Fix,GT,37.4441740000,-122.2690341000,123.6606624881806,30.051987,0.1,111.38567,1626728325438,,,,
Fix,GT,37.4440795000,-122.2687172000,124.04587536577537,29.857224,0.1,109.69902,1626728326438,,,,
Fix,GT,37.4439927000,-122.2683987000,124.37015884418042,29.7161,0.1,108.05919,1626728327438,,,,
Fix,GT,37.4439134000,-122.2680787000,124.72144372102775,29.569305,0.1,106.52729,1626728328438,,,,
Fix,GT,37.4438405000,-122.2677582000,125.07244165173279,29.44548,0.1,105.38083,1626728329438,,,,
Fix,GT,37.4437737000,-122.2674363000,125.41138266163443,29.43679,0.1,103.78535,1626728330438,,,,
Fix,GT,37.4437145000,-122.2671120000,125.76005252040568,29.438599,0.1,102.02547,1626728331438,,,,
Fix,GT,37.4436632000,-122.2667859000,126.08982717198865,29.41108,0.1,100.3086,1626728332438,,,,
Fix,GT,37.4436196000,-122.2664581000,126.42227555627505,29.410568,0.1,98.67325,1626728333438,,,,
Fix,GT,37.4435834000,-122.2661287000,126.70088310156552,29.42883,0.1,97.12157,1626728334438,,,,
Fix,GT,37.4435542000,-122.2657980000,126.98239547223648,29.453747,0.1,95.702644,1626728335438,,,,
Fix,GT,37.4435311000,-122.2654663000,127.171338750833,29.473572,0.1,94.21818,1626728336438,,,,
Fix,GT,37.4435153000,-122.2651339000,127.34228654548065,29.475447,0.1,92.70344,1626728337438,,,,
Fix,GT,37.4435067000,-122.2648007000,127.46028655733107,29.531979,0.1,91.04506,1626728338438,,,,
Fix,GT,37.4435055000,-122.2644667000,127.50524628008657,29.59513,0.1,89.54034,1626728339438,,,,
Fix,GT,37.4435116000,-122.2641318000,127.4416275024414,29.70083,0.1,87.967674,1626728340438,,,,
Fix,GT,37.4435245000,-122.2637962000,127.4851371193563,29.766438,0.1,86.48607,1626728341438,,,,
Fix,GT,37.4435440000,-122.2634603000,127.41101728606827,29.835306,0.1,85.16378,1626728342438,,,,
Fix,GT,37.4435716000,-122.2631246000,127.30765500314419,29.912594,0.1,83.09948,1626728343438,,,,
Fix,GT,37.4436076000,-122.2627887000,127.00682383191088,30.07418,0.1,81.7452,1626728344438,,,,
Fix,GT,37.4436470000,-122.2624520000,126.66237519927677,30.052229,0.1,81.74735,1626728345438,,,,
Fix,GT,37.4436842000,-122.2621171000,126.32704315247702,29.787783,0.1,82.31368,1626728346438,,,,
Fix,GT,37.4437195000,-122.2617842000,126.01414912676796,29.720978,0.1,82.30796,1626728347438,,,,
Fix,GT,37.4437554000,-122.2614510000,125.8024765661794,29.788275,0.1,82.23223,1626728348438,,,,
Fix,GT,37.4437917000,-122.2611170000,125.61408796947171,29.880518,0.1,82.17676,1626728349438,,,,
Fix,GT,37.4438286000,-122.2607819000,125.43380167562623,29.971788,0.1,81.99499,1626728350438,,,,
Fix,GT,37.4438662000,-122.2604462000,125.23430743608628,30.044529,0.1,81.99284,1626728351438,,,,
Fix,GT,37.4439029000,-122.2601093000,124.96104284270041,30.119913,0.1,82.508354,1626728352438,,,,
Fix,GT,37.4439363000,-122.2597712000,124.58721504435857,30.192581,0.1,83.22785,1626728353438,,,,
Fix,GT,37.4439660000,-122.2594319000,124.14676947023327,30.193054,0.1,84.45271,1626728354438,,,,
Fix,GT,37.4439868000,-122.2590921000,123.662608375952,30.163124,0.1,86.70596,1626728355438,,,,
Fix,GT,37.4439985000,-122.2587512000,123.12972592083315,30.228926,0.1,88.32976,1626728356438,,,,
Fix,GT,37.4440013000,-122.2584091000,122.51845182120314,30.318611,0.1,90.52183,1626728357438,,,,
Fix,GT,37.4439936000,-122.2580660000,121.82806500528204,30.44654,0.1,92.5005,1626728358438,,,,
Fix,GT,37.4439770000,-122.2577226000,121.05735178509667,30.391724,0.1,94.418274,1626728359438,,,,
Fix,GT,37.4439512000,-122.2573816000,120.2284598246622,30.241745,0.1,96.401665,1626728360438,,,,
Fix,GT,37.4439162000,-122.2570435000,119.33975036973061,30.118353,0.1,98.26172,1626728361438,,,,
Fix,GT,37.4438725000,-122.2567082000,118.36897309827236,30.026453,0.1,100.32357,1626728362438,,,,
Fix,GT,37.4438200000,-122.2563755000,117.31708526554075,30.016487,0.1,102.04805,1626728363438,,,,
Fix,GT,37.4437588000,-122.2560447000,116.21753068218459,30.103535,0.1,103.95932,1626728364438,,,,
Fix,GT,37.4436890000,-122.2557155000,115.02671335041123,30.214436,0.1,105.95749,1626728365438,,,,
Fix,GT,37.4436098000,-122.2553878000,113.77665111809642,30.367188,0.1,107.79585,1626728366438,,,,
Fix,GT,37.4435210000,-122.2550624000,112.54448762429138,30.541756,0.1,109.96001,1626728367438,,,,
Fix,GT,37.4434223000,-122.2547388000,111.28971376359095,30.766792,0.1,111.86357,1626728368438,,,,
Fix,GT,37.4433147000,-122.2544171000,110.03071105551362,30.999052,0.1,113.60934,1626728369438,,,,
Fix,GT,37.4431982000,-122.2540975000,108.77870889205496,31.198345,0.1,115.535164,1626728370438,,,,
Fix,GT,37.4430724000,-122.2537809000,107.49487692298271,31.40385,0.1,117.3854,1626728371438,,,,
Fix,GT,37.4429374000,-122.2534680000,106.22915735013612,31.57548,0.1,119.44614,1626728372438,,,,
Fix,GT,37.4427922000,-122.2531600000,104.96865255027365,31.739126,0.1,121.7179,1626728373438,,,,
