MessageType,Provider,LatitudeDegrees,LongitudeDegrees,AltitudeMeters,SpeedMps,AccuracyMeters,BearingDegrees,UnixTimeMillis,SpeedAccuracyMps,BearingAccuracyDegrees,elapsedRealtimeNanos,VerticalAccuracyMeters
Fix,GT,37.6922042000,-122.0884007000,21.077051378644597,0.0,0.1,288.2671,1694115206000,,,,
Fix,GT,37.6922042000,-122.0884007000,21.077051525866096,0.0009958355,0.1,288.26685,1694115207000,,,,
Fix,GT,37.6922042000,-122.0884007000,21.077051044942525,0.0000041686244,0.1,288.26697,1694115208000,,,,
Fix,GT,37.6922042000,-122.0884007000,21.077050564018954,0.000004172714,0.1,288.26736,1694115209000,,,,
Fix,GT,37.6922042000,-122.0884007000,21.077050721055222,0.0010051628,0.1,288.2677,1694115210000,,,,
Fix,GT,37.6922042000,-122.0884007000,21.077051084201592,0.0031532373,0.1,288.26794,1694115211000,,,,
Fix,GT,37.6922042000,-122.0884007000,21.077051653458064,0.001995815,0.1,288.26782,1694115212000,,,,
Fix,GT,37.6922042000,-122.0884007000,21.07705118234926,0.0014124783,0.1,288.26712,1694115213000,,,,
Fix,GT,37.6922042000,-122.0884008000,21.077050927165324,0.0035963622,0.1,288.26865,1694115214000,,,,
Fix,GT,37.6922042000,-122.0884008000,21.078050328761588,0.001,0.1,288.26523,1694115215000,,,,
Fix,GT,37.6922042000,-122.0884008000,21.078050279685428,0.0009957983,0.1,288.26535,1694115216000,,,,
Fix,GT,37.6922042000,-122.0884007000,21.079050103349704,0.04467133,0.1,288.26752,1694115217000,,,,
Fix,GT,37.6922038000,-122.0883992000,21.08505520308374,0.24930789,0.1,288.31287,1694115218000,,,,
Fix,GT,37.6922028000,-122.0883948000,21.100057932967616,0.5626766,0.1,289.02747,1694115219000,,,,
Fix,GT,37.6922026000,-122.0883865000,21.121058646024665,0.8209361,0.1,295.24875,1694115220000,,,,
Fix,GT,37.6922019000,-122.0883752000,21.14605590301755,1.0093637,0.1,307.3319,1694115221000,,,,
Fix,GT,37.6922000000,-122.0883674000,21.155050307263224,0.13262622,0.1,315.53665,1694115222000,,,,
Fix,GT,37.6922001000,-122.0883673000,21.157051697251,0.009828761,0.1,315.76855,1694115223000,,,,
Fix,GT,37.6922008000,-122.0883682000,21.14704698881887,0.47347426,0.1,315.9359,1694115224000,,,,
Fix,GT,37.6922080000,-122.0883755000,21.119034130525364,1.6595149,0.1,318.19476,1694115225000,,,,
Fix,GT,37.6922260000,-122.0883905000,21.053017312829827,3.0657756,0.1,324.3108,1694115226000,,,,
Fix,GT,37.6922563000,-122.0884089000,20.94800941933987,4.2821207,0.1,333.73267,1694115227000,,,,
Fix,GT,37.6922987000,-122.0884238000,20.87999173917554,5.214501,0.1,345.44064,1694115228000,,,,
Fix,GT,37.6923458000,-122.0884329000,20.801964046374053,5.489194,0.1,351.10727,1694115229000,,,,
Fix,GT,37.6923989000,-122.0884446000,20.664995027065153,6.5032434,0.1,348.81723,1694115230000,,,,
Fix,GT,37.6924588000,-122.0884692000,20.49498674295463,7.467231,0.1,339.74667,1694115231000,,,,
Fix,GT,37.6925210000,-122.0885050000,20.30695622442742,7.700655,0.1,334.25162,1694115232000,,,,
Fix,GT,37.6925829000,-122.0885463000,20.127007466145507,7.8344274,0.1,331.51245,1694115233000,,,,
Fix,GT,37.6926444000,-122.0885900000,19.920999269143056,7.856032,0.1,330.09705,1694115234000,,,,
Fix,GT,37.6927056000,-122.0886350000,19.756011713577983,7.875529,0.1,329.41495,1694115235000,,,,
Fix,GT,37.6927663000,-122.0886805000,19.611978634083098,7.6646233,0.1,328.93912,1694115236000,,,,
Fix,GT,37.6928219000,-122.0887222000,19.463994186475475,6.6692014,0.1,329.45773,1694115237000,,,,
Fix,GT,37.6928711000,-122.0887551000,19.34001541417095,5.7484627,0.1,333.03076,1694115238000,,,,
Fix,GT,37.6929171000,-122.0887744000,19.24400406700116,5.0412035,0.1,344.66092,1694115239000,,,,
Fix,GT,37.6929618000,-122.0887764000,19.16104626350252,4.815185,0.1,358.49442,1694115240000,,,,
Fix,GT,37.6930019000,-122.0887773000,19.089041797991207,3.9717193,0.1,358.09103,1694115241000,,,,
Fix,GT,37.6930320000,-122.0887815000,19.047020754231703,2.7241004,0.1,354.05392,1694115242000,,,,
Fix,GT,37.6930511000,-122.0887864000,19.0190461426688,1.706791,0.1,350.3746,1694115243000,,,,
Fix,GT,37.6930625000,-122.0887899000,19.013050282979457,0.85198164,0.1,348.3072,1694115244000,,,,
Fix,GT,37.6930661000,-122.0887912000,18.999045419982316,0.2548382,0.1,347.55228,1694115245000,,,,
Fix,GT,37.6930675000,-122.0887917000,18.99304976309128,0.020557798,0.1,347.27048,1694115246000,,,,
Fix,GT,37.6930677000,-122.0887918000,18.990046850866367,0.027454063,0.1,347.2265,1694115247000,,,,
Fix,GT,37.6930697000,-122.0887925000,18.97303756289041,0.61603284,0.1,346.82498,1694115248000,,,,
Fix,GT,37.6930784000,-122.0887959000,18.91400352722546,1.371438,0.1,345.35373,1694115249000,,,,
Fix,GT,37.6930930000,-122.0888020000,18.770006220797896,1.7815868,0.1,342.59113,1694115250000,,,,
Fix,GT,37.6931071000,-122.0888098000,18.628912340547984,1.6866041,0.1,339.1133,1694115251000,,,,
Fix,GT,37.6931204000,-122.0888181000,18.584085914023916,1.5413425,0.1,335.50125,1694115252000,,,,
Fix,GT,37.6931326000,-122.0888294000,18.688090178384456,1.8276112,0.1,327.97885,1694115253000,,,,
Fix,GT,37.6931424000,-122.0888457000,18.788089415217275,1.7160338,0.1,314.93643,1694115254000,,,,
Fix,GT,37.6931471000,-122.0888626000,18.882082267916353,1.2664125,0.1,300.96652,1694115255000,,,,
Fix,GT,37.6931492000,-122.0888762000,18.92405965312193,1.3859118,0.1,291.52188,1694115256000,,,,
Fix,GT,37.6931515000,-122.0889006000,18.948060552551425,3.0051692,0.1,281.70044,1694115257000,,,,
Fix,GT,37.6931557000,-122.0889418000,18.99407759024664,4.2126403,0.1,277.78748,1694115258000,,,,
Fix,GT,37.6931572000,-122.0889915000,19.052067288248626,4.4256124,0.1,271.41098,1694115259000,,,,
Fix,GT,37.6931538000,-122.0890403000,19.082067957201065,4.3460717,0.1,264.43683,1694115260000,,,,
Fix,GT,37.6931457000,-122.0890894000,19.121053950525706,4.424139,0.1,257.68433,1694115261000,,,,
Fix,GT,37.6931334000,-122.0891357000,19.168077544769883,4.1670294,0.1,251.21005,1694115262000,,,,
Fix,GT,37.6931201000,-122.0891736000,19.215067723962264,3.0660121,0.1,246.52774,1694115263000,,,,
Fix,GT,37.6931103000,-122.0891993000,19.247064986601167,2.0465934,0.1,244.71574,1694115264000,,,,
Fix,GT,37.6931034000,-122.0892159000,19.271060724894504,1.3227968,0.1,243.28055,1694115265000,,,,
Fix,GT,37.6930985000,-122.0892274000,19.29105830470563,0.93312466,0.099,242.69603,1694115266000,,,,
Fix,GT,37.6930958000,-122.0892340000,19.301055042883327,0.36561075,0.1,242.61812,1694115267000,,,,
Fix,GT,37.6930947000,-122.0892368000,19.30305140835249,0.22304691,0.1,242.64215,1694115268000,,,,
Fix,GT,37.6930942000,-122.0892380000,19.30305080611069,0.057205487,0.1,242.64839,1694115269000,,,,
Fix,GT,37.6930942000,-122.0892381000,19.30204980761695,0.0022305902,0.1,242.65057,1694115270000,,,,
Fix,GT,37.6930942000,-122.0892381000,19.301050707446834,0.0010054832,0.1,242.65034,1694115271000,,,,
Fix,GT,37.6930942000,-122.0892381000,19.30104991652467,0.001,0.1,242.64867,1694115272000,,,,
Fix,GT,37.6930942000,-122.0892381000,19.301050276034744,0.000004444604,0.1,242.64891,1694115273000,,,,
Fix,GT,37.6930942000,-122.0892381000,19.30104967385537,0.0014079218,0.1,242.64856,1694115274000,,,,
Fix,GT,37.6930942000,-122.0892381000,19.301050410851023,0.0,0.1,242.64842,1694115275000,,,,
Fix,GT,37.6930942000,-122.0892381000,19.30104980867165,0.0,0.099,242.64847,1694115276000,,,,
Fix,GT,37.6930942000,-122.0892381000,19.301050554655053,0.0,0.1,242.64839,1694115277000,,,,
Fix,GT,37.6930942000,-122.0892381000,19.301050338949008,0.0,0.1,242.6482,1694115278000,,,,
Fix,GT,37.6930942000,-122.0892381000,19.301049934500174,0.0,0.1,242.64862,1694115279000,,,,
Fix,GT,37.6930942000,-122.0892381000,19.301050482753038,0.0,0.1,242.64806,1694115280000,,,,
Fix,GT,37.6930942000,-122.0892381000,19.301050267046993,0.0,0.1,242.6477,1694115281000,,,,
Fix,GT,37.6930942000,-122.0892381000,19.301050051340948,0.0009955164,0.1,242.64766,1694115282000,,,,
Fix,GT,37.6930942000,-122.0892381000,19.301050024377695,0.0014142136,0.1,242.64784,1694115283000,,,,
Fix,GT,37.6930942000,-122.0892381000,19.30105000640219,0.001,0.1,242.64798,1694115284000,,,,
Fix,GT,37.6930942000,-122.0892381000,19.301049790696144,0.001,0.1,242.64795,1694115285000,,,,
Fix,GT,37.6930941000,-122.0892382000,19.29904636432009,0.078990534,0.1,242.65121,1694115286000,,,,
Fix,GT,37.6930925000,-122.0892423000,19.303056019045545,0.73777324,0.1,242.67168,1694115287000,,,,
Fix,GT,37.6930881000,-122.0892529000,19.315055135584664,1.5074,0.1,242.73615,1694115288000,,,,
Fix,GT,37.6930795000,-122.0892746000,19.346067830725993,2.7259278,0.1,242.86237,1694115289000,,,,
Fix,GT,37.6930659000,-122.0893085000,19.39208091214909,3.9847815,0.1,243.03957,1694115290000,,,,
Fix,GT,37.6930480000,-122.0893532000,19.472071996090563,4.7199697,0.1,243.26077,1694115291000,,,,
Fix,GT,37.6930270000,-122.0894075000,19.567127922658166,5.924141,0.1,243.90755,1694115292000,,,,
Fix,GT,37.6930026000,-122.0894747000,19.732136246339984,7.076126,0.1,245.74165,1694115293000,,,,
Fix,GT,37.6929774000,-122.0895523000,19.88410498879654,7.5048075,0.1,247.88972,1694115294000,,,,
Fix,GT,37.6929512000,-122.0896364000,20.021188165899968,8.463287,0.1,248.43698,1694115295000,,,,
Fix,GT,37.6929197000,-122.0897299000,20.30214047326482,9.463304,0.1,245.77954,1694115296000,,,,
Fix,GT,37.6928801000,-122.0898324000,20.587169783739878,10.646913,0.1,243.30219,1694115297000,,,,
Fix,GT,37.6928348000,-122.0899483000,20.87921109774464,12.171748,0.1,244.20049,1694115298000,,,,
Fix,GT,37.6927852000,-122.0900811000,21.350305081278957,13.681905,0.1,244.84909,1694115299000,,,,
Fix,GT,37.6927276000,-122.0902271000,21.995347477679438,15.053618,0.1,242.46313,1694115300000,,,,
Fix,GT,37.6926598000,-122.0903830000,22.62131867737076,16.249493,0.1,240.54352,1694115301000,,,,
Fix,GT,37.6925846000,-122.0905463000,23.232255660081293,16.946272,0.1,239.42412,1694115302000,,,,
Fix,GT,37.6925047000,-122.0907122000,23.758348086693402,17.080181,0.1,238.16733,1694115303000,,,,
Fix,GT,37.6924237000,-122.0908734000,24.28433463501478,16.545897,0.1,237.13228,1694115304000,,,,
Fix,GT,37.6923417000,-122.0910266000,24.847315793853518,16.204319,0.1,235.2442,1694115305000,,,,
Fix,GT,37.6922578000,-122.0911792000,25.37626653839424,16.544912,0.1,235.29482,1694115306000,,,,
Fix,GT,37.6921709000,-122.0913344000,25.79018795637921,17.01079,0.1,234.34808,1694115307000,,,,
Fix,GT,37.6920803000,-122.0914940000,25.994160961522518,17.576998,0.1,234.32335,1694115308000,,,,
Fix,GT,37.6919859000,-122.0916574000,26.18309093937622,18.026722,0.1,233.65207,1694115309000,,,,
Fix,GT,37.6918885000,-122.0918237000,26.31413830594428,18.420107,0.1,233.36658,1694115310000,,,,
Fix,GT,37.6917883000,-122.0919931000,26.41707419098463,18.819763,0.1,233.2902,1694115311000,,,,
Fix,GT,37.6916865000,-122.0921671000,26.292976473474653,19.312046,0.099,233.83621,1694115312000,,,,
Fix,GT,37.6915846000,-122.0923467000,25.959865087212687,19.492874,0.099,234.82816,1694115313000,,,,
Fix,GT,37.6914842000,-122.0925278000,25.38374449310006,19.47006,0.1,235.2593,1694115314000,,,,
Fix,GT,37.6913854000,-122.0927112000,24.51251739429063,19.717413,0.1,236.38925,1694115315000,,,,
Fix,GT,37.6912865000,-122.0929017000,23.723763068541224,20.419235,0.1,237.40259,1694115316000,,,,
Fix,GT,37.6911891000,-122.0931018000,23.284013568368163,20.935322,0.1,239.40451,1694115317000,,,,
Fix,GT,37.6910989000,-122.0933113000,23.369204787782316,20.9075,0.1,243.83498,1694115318000,,,,
Fix,GT,37.6910249000,-122.0935268000,23.61631523171478,20.542837,0.1,248.48857,1694115319000,,,,
Fix,GT,37.6909645000,-122.0937472000,23.753031649711026,20.603252,0.1,252.61719,1694115320000,,,,
Fix,GT,37.6909159000,-122.0939737000,23.79303624729842,20.781195,0.1,256.59344,1694115321000,,,,
Fix,GT,37.6908793000,-122.0942068000,23.71297572199295,21.15843,0.099,260.3355,1694115322000,,,,
Fix,GT,37.6908526000,-122.0944470000,23.477919778870895,21.636982,0.1,262.83548,1694115323000,,,,
Fix,GT,37.6908308000,-122.0946937000,23.045841532838477,22.165718,0.1,263.84622,1694115324000,,,,
Fix,GT,37.6908109000,-122.0949470000,22.536811374348744,22.72529,0.1,264.54944,1694115325000,,,,
Fix,GT,37.6907932000,-122.0952066000,21.9857597795173,23.231064,0.1,265.36163,1694115326000,,,,
Fix,GT,37.6907783000,-122.0954701000,21.384744978380475,23.338877,0.1,266.17032,1694115327000,,,,
Fix,GT,37.6907661000,-122.0957371000,20.745759425543536,23.943323,0.1,266.78952,1694115328000,,,,
Fix,GT,37.6907559000,-122.0960134000,20.140849105618415,24.81125,0.1,267.527,1694115329000,,,,
Fix,GT,37.6907493000,-122.0962971000,19.806914395455912,25.086262,0.1,269.01758,1694115330000,,,,
Fix,GT,37.6907518000,-122.0965806000,19.598956944597457,24.878836,0.1,271.90887,1694115331000,,,,
Fix,GT,37.6907653000,-122.0968604000,19.458040372770483,24.562464,0.1,274.84668,1694115332000,,,,
Fix,GT,37.6907909000,-122.0971352000,19.387027464187007,24.299877,0.1,277.92328,1694115333000,,,,
Fix,GT,37.6908268000,-122.0974080000,19.36806430935997,24.539968,0.1,280.3828,1694115334000,,,,
Fix,GT,37.6908717000,-122.0976828000,19.39707459005269,24.925251,0.1,282.68155,1694115335000,,,,
Fix,GT,37.6909268000,-122.0979593000,19.443059395799693,25.36235,0.099,285.001,1694115336000,,,,
Fix,GT,37.6909911000,-122.0982378000,19.47705544061925,25.826546,0.099,286.58328,1694115337000,,,,
Fix,GT,37.6910612000,-122.0985211000,19.48010734181993,26.519096,0.1,287.66602,1694115338000,,,,
Fix,GT,37.6911395000,-122.0988094000,19.4910512284836,27.121601,0.1,289.84302,1694115339000,,,,
Fix,GT,37.6912291000,-122.0990962000,19.48700392027081,27.208431,0.1,293.03647,1694115340000,,,,
Fix,GT,37.6913319000,-122.0993767000,19.393027137099978,27.28049,0.1,295.92682,1694115341000,,,,
Fix,GT,37.6914460000,-122.0996513000,19.253989378706123,27.378042,0.1,298.96826,1694115342000,,,,
Fix,GT,37.6915708000,-122.0999198000,19.12401258032202,27.456968,0.1,301.35022,1694115343000,,,,
Fix,GT,37.6917044000,-122.1001821000,19.039017635989474,27.52786,0.1,303.81342,1694115344000,,,,
Fix,GT,37.6918479000,-122.1004372000,18.944984962941376,27.581743,0.1,306.82385,1694115345000,,,,
Fix,GT,37.6920025000,-122.1006826000,18.783978360356908,27.65284,0.1,309.72684,1694115346000,,,,
Fix,GT,37.6921660000,-122.1009196000,18.631965081817622,27.731842,0.1,312.0595,1694115347000,,,,
Fix,GT,37.6923374000,-122.1011494000,18.428940469646886,27.820524,0.1,313.98926,1694115348000,,,,
Fix,GT,37.6925150000,-122.1013732000,18.213950126187246,27.989765,0.1,315.65805,1694115349000,,,,
Fix,GT,37.6927004000,-122.1015916000,18.010940976366534,28.433926,0.099,318.07217,1694115350000,,,,
Fix,GT,37.6928973000,-122.1018042000,17.807945352765824,29.235794,0.1,320.65408,1694115351000,,,,
Fix,GT,37.6931092000,-122.1020115000,17.596934866687793,30.325333,0.1,323.13657,1694115352000,,,,
Fix,GT,37.6933330000,-122.1022171000,17.461960391259993,30.90552,0.1,324.36057,1694115353000,,,,
Fix,GT,37.6935595000,-122.1024191000,17.256931734575986,30.673918,0.1,324.57285,1694115354000,,,,
Fix,GT,37.6937844000,-122.1026189000,17.008973432014706,30.409876,0.1,324.52988,1694115355000,,,,
Fix,GT,37.6940068000,-122.1028167000,16.785925345319562,30.062464,0.099,324.77264,1694115356000,,,,
Fix,GT,37.6942271000,-122.1030114000,16.55293074008474,29.704075,0.1,324.78952,1694115357000,,,,
Fix,GT,37.6944447000,-122.1032040000,16.27991977618085,29.35972,0.1,324.70337,1694115358000,,,,
Fix,GT,37.6946596000,-122.1033950000,16.042997621585982,29.015787,0.1,324.57413,1694115359000,,,,
Fix,GT,37.6948716000,-122.1035840000,15.892909628280872,28.661228,0.1,324.43286,1694115360000,,,,
Fix,GT,37.6950804000,-122.1037719000,15.683952708229516,28.332586,0.1,324.2644,1694115361000,,,,
Fix,GT,37.6952872000,-122.1039576000,15.510011018336977,28.10867,0.1,324.3853,1694115362000,,,,
Fix,GT,37.6954927000,-122.1041423000,15.312918957652037,27.914665,0.1,324.331,1694115363000,,,,
Fix,GT,37.6956964000,-122.1043255000,15.131005422397044,27.666542,0.099,324.36746,1694115364000,,,,
Fix,GT,37.6958992000,-122.1045060000,14.875938759352158,27.535675,0.1,324.7739,1694115365000,,,,
Fix,GT,37.6961025000,-122.1046864000,14.695894073176788,27.700497,0.1,324.65637,1694115366000,,,,
Fix,GT,37.6963072000,-122.1048680000,14.504962252176256,27.907654,0.1,324.71918,1694115367000,,,,
Fix,GT,37.6965136000,-122.1050510000,14.284991354286014,28.138376,0.1,324.6834,1694115368000,,,,
Fix,GT,37.6967219000,-122.1052357000,14.06193275088318,28.417452,0.1,324.64713,1694115369000,,,,
Fix,GT,37.6969317000,-122.1054228000,13.855942463741714,28.67161,0.1,324.45145,1694115370000,,,,
Fix,GT,37.6971431000,-122.1056118000,13.630927484584278,28.853935,0.1,324.56876,1694115371000,,,,
Fix,GT,37.6973552000,-122.1058004000,13.440961417092488,28.71567,0.1,324.6454,1694115372000,,,,
Fix,GT,37.6975654000,-122.1059876000,13.239951876133812,28.468777,0.1,324.55936,1694115373000,,,,
Fix,GT,37.6977745000,-122.1061740000,13.03591275103404,28.425556,0.1,324.55258,1694115374000,,,,
Fix,GT,37.6979827000,-122.1063597000,12.830932657243954,28.2087,0.1,324.60422,1694115375000,,,,
Fix,GT,37.6981894000,-122.1065433000,12.6009708540646,27.936329,0.1,324.70358,1694115376000,,,,
Fix,GT,37.6983940000,-122.1067248000,12.412937104068572,27.647099,0.1,324.6232,1694115377000,,,,
Fix,GT,37.6985973000,-122.1069062000,12.217971162321845,27.709799,0.099,324.53583,1694115378000,,,,
Fix,GT,37.6988012000,-122.1070882000,12.10100021923892,27.707287,0.1,324.55627,1694115379000,,,,
Fix,GT,37.6990034000,-122.1072695000,12.050079546639296,27.40775,0.1,324.37598,1694115380000,,,,
Fix,GT,37.6992025000,-122.1074499000,12.118044602949752,27.024044,0.1,323.88846,1694115381000,,,,
Fix,GT,37.6993964000,-122.1076317000,12.07096609674355,26.673542,0.1,322.77603,1694115382000,,,,
Fix,GT,37.6995866000,-122.1078169000,11.869950539384355,26.816961,0.1,321.6781,1694115383000,,,,
Fix,GT,37.6997758000,-122.1080099000,11.670941288635351,27.233913,0.1,320.25745,1694115384000,,,,
Fix,GT,37.6999640000,-122.1082111000,11.475925953846172,27.587753,0.1,318.89087,1694115385000,,,,
Fix,GT,37.7001505000,-122.1084206000,11.158926730371666,27.871313,0.1,317.35562,1694115386000,,,,
Fix,GT,37.7003331000,-122.1086388000,10.892925432860661,28.042356,0.1,315.5695,1694115387000,,,,
Fix,GT,37.7005119000,-122.1088649000,10.445821879897538,28.20777,0.1,314.01175,1694115388000,,,,
Fix,GT,37.7006869000,-122.1090976000,9.828653828407484,28.318481,0.1,312.78854,1694115389000,,,,
Fix,GT,37.7008581000,-122.1093363000,9.234761317128065,28.355326,0.099,311.326,1694115390000,,,,
Fix,GT,37.7010237000,-122.1095801000,8.554836447392377,28.228361,0.1,309.58466,1694115391000,,,,
Fix,GT,37.7011828000,-122.1098288000,7.831597822627727,28.10146,0.1,308.11862,1694115392000,,,,
Fix,GT,37.7013390000,-122.1100810000,6.844532402968776,28.360798,0.099,307.6882,1694115393000,,,,
Fix,GT,37.7014967000,-122.1103370000,5.81057690766699,28.771019,0.099,307.62265,1694115394000,,,,
Fix,GT,37.7016565000,-122.1105968000,4.8796365830027355,29.164202,0.1,307.61545,1694115395000,,,,
Fix,GT,37.7018183000,-122.1108596000,4.11271090954877,29.461096,0.1,307.61856,1694115396000,,,,
Fix,GT,37.7019817000,-122.1111242000,3.5528304894311518,29.597155,0.1,307.64868,1694115397000,,,,
Fix,GT,37.7021449000,-122.1113897000,3.2169350752664876,29.614237,0.099,307.59113,1694115398000,,,,
Fix,GT,37.7023081000,-122.1116553000,2.999035080442483,29.605793,0.1,307.75076,1694115399000,,,,
Fix,GT,37.7024724000,-122.1119204000,2.8539600706859334,29.712572,0.1,307.8379,1694115400000,,,,
Fix,GT,37.7026373000,-122.1121868000,2.6960900921449706,29.911701,0.1,307.72076,1694115400999,,,,
Fix,GT,37.7028030000,-122.1124560000,2.516114922878586,30.144304,0.1,307.57935,1694115401999,,,,
Fix,GT,37.7029695000,-122.1127276000,2.3301546117870657,30.388048,0.1,307.5082,1694115402999,,,,
Fix,GT,37.7031376000,-122.1130021000,2.1411347170266595,30.74091,0.1,307.5138,1694115403999,,,,
Fix,GT,37.7033077000,-122.1132798000,1.9471394903991808,31.081442,0.1,307.45285,1694115404999,,,,
Fix,GT,37.7034788000,-122.1135603000,1.7461444040843617,31.273664,0.1,307.30075,1694115405999,,,,
Fix,GT,37.7036505000,-122.1138425000,1.5571443086576195,31.408422,0.1,307.35046,1694115406999,,,,
Fix,GT,37.7038230000,-122.1141253000,1.3611492048748062,31.470434,0.1,307.40292,1694115407999,,,,
Fix,GT,37.7039962000,-122.1144082000,1.1701293101778631,31.500229,0.1,307.64914,1694115408999,,,,
Fix,GT,37.7041704000,-122.1146903000,1.071094486905821,31.524372,0.1,307.81067,1694115409999,,,,
Fix,GT,37.7043444000,-122.1149727000,0.9920993977249566,31.425262,0.1,307.5982,1694115410999,,,,
Fix,GT,37.7045162000,-122.1152539000,0.8131932917055664,31.166962,0.1,307.3017,1694115411999,,,,
Fix,GT,37.7046853000,-122.1155364000,0.4312623188244089,31.22477,0.1,306.39377,1694115412999,,,,
Fix,GT,37.7048513000,-122.1158231000,-0.07067374351463229,31.355362,0.1,305.66153,1694115413999,,,,
Fix,GT,37.7050146000,-122.1161126000,-0.6886149017447849,31.242332,0.1,304.8907,1694115414999,,,,
Fix,GT,37.7051743000,-122.1164033000,-1.393590512024275,31.124521,0.1,304.3159,1694115415999,,,,
Fix,GT,37.7053319000,-122.1166960000,-2.2035317326695463,31.25606,0.1,303.6998,1694115416999,,,,
Fix,GT,37.7054871000,-122.1169929000,-3.117497733317066,31.428804,0.1,302.81506,1694115417999,,,,
Fix,GT,37.7056391000,-122.1172933000,-4.038503059112998,31.373158,0.1,302.0084,1694115418999,,,,
Fix,GT,37.7057876000,-122.1175951000,-4.989463944547424,31.245928,0.1,301.3979,1694115419999,,,,
Fix,GT,37.7059327000,-122.1178979000,-5.895523345874835,31.116177,0.1,300.59488,1694115420999,,,,
Fix,GT,37.7060737000,-122.1182021000,-6.8305089799549705,30.995144,0.1,299.8501,1694115421999,,,,
Fix,GT,37.7062117000,-122.1185068000,-7.7794750083076,30.871405,0.1,299.3112,1694115422999,,,,
Fix,GT,37.7063469000,-122.1188121000,-8.804417817360388,30.792553,0.1,298.79657,1694115423999,,,,
Fix,GT,37.7064807000,-122.1191188000,-9.84443291487554,30.965014,0.1,298.5784,1694115424999,,,,
Fix,GT,37.7066153000,-122.1194277000,-10.885462084224741,31.167295,0.1,298.7866,1694115425999,,,,
Fix,GT,37.7067517000,-122.1197379000,-11.850477301479259,31.344494,0.1,298.86108,1694115426999,,,,
Fix,GT,37.7068892000,-122.1200484000,-12.949380276891759,31.34097,0.1,299.12738,1694115427999,,,,
Fix,GT,37.7070294000,-122.1203567000,-14.160332580497027,31.266304,0.1,300.5421,1694115428999,,,,
Fix,GT,37.7071798000,-122.1206557000,-15.2584737176212,31.159252,0.1,303.69284,1694115429999,,,,
Fix,GT,37.7073409000,-122.1209443000,-16.211488795906916,31.02406,0.1,306.3446,1694115430999,,,,
Fix,GT,37.7075123000,-122.1212215000,-17.16248752480226,30.962027,0.1,309.29312,1694115431999,,,,
Fix,GT,37.7076949000,-122.1214876000,-18.049561715495997,31.03788,0.1,312.23532,1694115432999,,,,
Fix,GT,37.7078875000,-122.1217434000,-18.672682379197795,31.072027,0.1,314.29282,1694115433999,,,,
Fix,GT,37.7080843000,-122.1219937000,-19.08975988638008,31.035748,0.1,314.7331,1694115434999,,,,
Fix,GT,37.7082814000,-122.1222430000,-19.48875055986855,31.001831,0.1,314.6908,1694115435999,,,,
Fix,GT,37.7084776000,-122.1224927000,-19.724857091306035,30.923264,0.1,314.52,1694115436999,,,,
Fix,GT,37.7086731000,-122.1227417000,-19.777979241940443,30.800787,0.1,314.5294,1694115437999,,,,
Fix,GT,37.7088680000,-122.1229892000,-19.70697817182395,30.666061,0.1,314.6869,1694115438999,,,,
Fix,GT,37.7090625000,-122.1232360000,-19.62698303672869,30.651499,0.1,314.54254,1694115439999,,,,
Fix,GT,37.7092566000,-122.1234835000,-19.478055040135587,30.691349,0.1,314.44595,1694115440999,,,,
Fix,GT,37.7094506000,-122.1237321000,-19.145117282729643,30.755766,0.1,314.35318,1694115441999,,,,
Fix,GT,37.7096440000,-122.1239822000,-18.790141613113974,30.810236,0.1,313.87137,1694115442999,,,,
Fix,GT,37.7098339000,-122.1242370000,-18.38114103995167,30.772171,0.1,312.41037,1694115443999,,,,
Fix,GT,37.7100179000,-122.1244971000,-17.86521395391719,30.653746,0.1,310.65784,1694115444999,,,,
Fix,GT,37.7101941000,-122.1247637000,-17.321217877171875,30.507584,0.1,308.7623,1694115445999,,,,
Fix,GT,37.7103625000,-122.1250360000,-16.79320338657851,30.374441,0.1,306.88248,1694115446999,,,,
Fix,GT,37.7105240000,-122.1253138000,-16.25621206578535,30.341362,0.1,305.39847,1694115447999,,,,
Fix,GT,37.7106793000,-122.1255967000,-15.762127287423482,30.319895,0.1,303.68768,1694115448999,,,,
Fix,GT,37.7108288000,-122.1258846000,-15.42704115595086,30.325922,0.1,302.49924,1694115449999,,,,
Fix,GT,37.7109749000,-122.1261744000,-14.905317378309235,30.17411,0.1,302.18903,1694115450999,,,,
Fix,GT,37.7111197000,-122.1264614000,-14.040450682916855,29.70089,0.1,302.33652,1694115451999,,,,
Fix,GT,37.7112621000,-122.1267421000,-12.973459357263437,29.000824,0.1,302.51248,1694115452999,,,,
Fix,GT,37.7114011000,-122.1270164000,-12.024369109138377,28.481413,0.1,302.36636,1694115453999,,,,
Fix,GT,37.7115382000,-122.1272873000,-11.17434933440876,28.159891,0.1,302.41483,1694115454999,,,,
Fix,GT,37.7116748000,-122.1275548000,-10.503188026856833,27.923975,0.1,302.7624,1694115455999,,,,
Fix,GT,37.7118124000,-122.1278189000,-10.074159446590897,27.790798,0.1,303.61102,1694115456999,,,,
Fix,GT,37.7119546000,-122.1280780000,-9.591163234774172,27.750242,0.1,305.33533,1694115457999,,,,
Fix,GT,37.7121025000,-122.1283319000,-9.148163196507653,27.772247,0.1,307.0257,1694115458999,,,,
Fix,GT,37.7122575000,-122.1285794000,-8.718144725584182,27.804852,0.1,309.16977,1694115459999,,,,
Fix,GT,37.7124194000,-122.1288206000,-8.295144211115257,27.886477,0.1,310.7783,1694115460999,,,,
Fix,GT,37.7125876000,-122.1290572000,-7.8991294820582425,28.117186,0.1,312.63873,1694115461999,,,,
Fix,GT,37.7127632000,-122.1292894000,-7.57009582661783,28.4179,0.1,314.26913,1694115462999,,,,
Fix,GT,37.7129465000,-122.1295169000,-7.330039378119807,28.694624,0.1,316.25104,1694115463999,,,,
Fix,GT,37.7131374000,-122.1297386000,-7.172020471063604,28.95002,0.1,318.13904,1694115464999,,,,
Fix,GT,37.7133359000,-122.1299541000,-7.094977939326213,29.244768,0.1,319.98608,1694115465999,,,,
Fix,GT,37.7135416000,-122.1301641000,-7.016992414663321,29.52995,0.1,321.72232,1694115466999,,,,
Fix,GT,37.7137546000,-122.1303675000,-6.936987283077258,29.798784,0.1,323.56842,1694115467999,,,,
Fix,GT,37.7139742000,-122.1305643000,-6.859987580770053,29.978333,0.1,325.30722,1694115468999,,,,
Fix,GT,37.7141992000,-122.1307513000,-6.779987621778503,29.801575,0.1,327.6364,1694115469999,,,,
Fix,GT,37.7144272000,-122.1309258000,-6.713992281509661,29.419136,0.1,329.52448,1694115470999,,,,
Fix,GT,37.7146564000,-122.1310887000,-6.6320060159316085,29.016384,0.1,331.4315,1694115471999,,,,
Fix,GT,37.7148873000,-122.1312398000,-6.584001429848968,28.817215,0.1,333.31973,1694115472999,,,,
Fix,GT,37.7151212000,-122.1313823000,-6.511987353797849,28.797842,0.1,334.94302,1694115473999,,,,
Fix,GT,37.7153570000,-122.1315144000,-6.434019889805029,28.45826,0.1,336.70166,1694115474999,,,,
Fix,GT,37.7155921000,-122.1316374000,-6.256061776466254,28.043827,0.1,337.96362,1694115475999,,,,
Fix,GT,37.7158256000,-122.1317529000,-6.186917152129581,27.685913,0.1,338.6917,1694115476999,,,,
Fix,GT,37.7160571000,-122.1318658000,-6.460782516095435,27.430382,0.1,338.79608,1694115477999,,,,
Fix,GT,37.7162867000,-122.1319770000,-6.740778237702102,27.189121,0.1,338.8249,1694115478999,,,,
Fix,GT,37.7165146000,-122.1320876000,-7.000843126023653,27.08829,0.1,338.77994,1694115479999,,,,
Fix,GT,37.7167423000,-122.1321982000,-7.17790354426424,27.075796,0.1,338.66122,1694115480999,,,,
Fix,GT,37.7169694000,-122.1323094000,-7.147000718125923,27.002089,0.1,338.53726,1694115481999,,,,
Fix,GT,37.7171955000,-122.1324206000,-6.981023917497794,26.882734,0.1,338.54007,1694115482999,,,,
Fix,GT,37.7174207000,-122.1325314000,-6.834024007798632,26.783684,0.1,338.49008,1694115483999,,,,
Fix,GT,37.7176448000,-122.1326419000,-6.611074691483822,26.59484,0.1,338.49054,1694115484999,,,,
Fix,GT,37.7178662000,-122.1327510000,-6.278111303454665,26.155378,0.1,338.66486,1694115485999,,,,
Fix,GT,37.7180836000,-122.1328581000,-5.762194323893482,25.721054,0.1,338.33768,1694115486999,,,,
Fix,GT,37.7182982000,-122.1329658000,-5.238170898741174,25.594631,0.1,338.0109,1694115487999,,,,
Fix,GT,37.7185113000,-122.1330756000,-4.770156950407568,25.512703,0.1,337.37735,1694115488999,,,,
Fix,GT,37.7187229000,-122.1331876000,-4.337106100906283,25.457798,0.1,336.80255,1694115489999,,,,
Fix,GT,37.7189335000,-122.1333026000,-3.8821381706879947,25.53632,0.1,336.22784,1694115490999,,,,
Fix,GT,37.7191449000,-122.1334208000,-3.453115151943422,25.89033,0.1,335.7458,1694115491999,,,,
Fix,GT,37.7193592000,-122.1335433000,-3.1400279488515963,26.324682,0.1,335.20667,1694115492999,,,,
Fix,GT,37.7195757000,-122.1336706000,-2.859059786950283,26.717731,0.1,334.52017,1694115493999,,,,
Fix,GT,37.7197940000,-122.1338033000,-2.6720001801253943,27.123491,0.1,333.81003,1694115494999,,,,
Fix,GT,37.7200145000,-122.1339411000,-2.5839774604402805,27.402174,0.1,333.27765,1694115495999,,,,
Fix,GT,37.7202336000,-122.1340814000,-2.590927185191788,27.145153,0.1,332.62042,1694115496999,,,,
Fix,GT,37.7204488000,-122.1342238000,-2.7098541909314378,26.834476,0.1,331.91595,1694115497999,,,,
Fix,GT,37.7206605000,-122.1343673000,-2.9108314784914455,26.529364,0.1,331.31735,1694115498999,,,,
Fix,GT,37.7208686000,-122.1345119000,-3.1978042218117366,26.256496,0.1,330.7928,1694115499999,,,,
Fix,GT,37.7210736000,-122.1346577000,-3.557745380352685,26.023344,0.1,330.04257,1694115500999,,,,
Fix,GT,37.7212753000,-122.1348061000,-4.0317228398002385,25.827152,0.1,329.20694,1694115501999,,,,
Fix,GT,37.7214741000,-122.1349562000,-4.5936547780420085,25.672737,0.1,328.8767,1694115502999,,,,
Fix,GT,37.7216717000,-122.1351066000,-5.296618863790172,25.571104,0.1,328.54614,1694115503999,,,,
Fix,GT,37.7218677000,-122.1352579000,-6.0476191132950134,25.477354,0.1,328.39505,1694115504999,,,,
Fix,GT,37.7220632000,-122.1354087000,-6.798619367150991,25.478527,0.1,328.3532,1694115505999,,,,
Fix,GT,37.7222604000,-122.1355608000,-7.451705940088942,25.893784,0.1,328.40634,1694115506999,,,,
Fix,GT,37.7224602000,-122.1357152000,-7.832823652580373,26.002584,0.1,328.28592,1694115507999,,,,
Fix,GT,37.7226589000,-122.1358687000,-8.027887118138096,25.760115,0.1,328.19513,1694115508999,,,,
Fix,GT,37.7228563000,-122.1360226000,-8.02497256628601,25.818375,0.1,328.1491,1694115509999,,,,
Fix,GT,37.7230551000,-122.1361767000,-7.982976755213485,26.04354,0.1,328.35587,1694115510999,,,,
Fix,GT,37.7232564000,-122.1363314000,-7.972954005451186,26.3015,0.1,328.59915,1694115511999,,,,
Fix,GT,37.7234603000,-122.1364866000,-8.020891891902238,26.605888,0.1,328.73822,1694115512999,,,,
Fix,GT,37.7236672000,-122.1366429000,-8.159891889754363,26.93476,0.1,329.1555,1694115513999,,,,
Fix,GT,37.7238782000,-122.1367936000,-8.122035375178996,26.799213,0.1,331.47092,1694115514999,,,,
Fix,GT,37.7240913000,-122.1369320000,-7.817107156129396,26.48635,0.1,333.64374,1694115515999,,,,
Fix,GT,37.7243075000,-122.1370598000,-7.35419623953743,26.519764,0.1,335.71597,1694115516999,,,,
Fix,GT,37.7245274000,-122.1371774000,-6.718276341710407,26.493347,0.1,337.93625,1694115517999,,,,
Fix,GT,37.7247502000,-122.1372842000,-5.929316197345145,26.41705,0.1,340.09763,1694115518999,,,,
Fix,GT,37.7249754000,-122.1373802000,-5.126302466196677,26.333792,0.1,342.13055,1694115519999,,,,
Fix,GT,37.7252021000,-122.1374660000,-4.331310960861572,26.254698,0.1,344.05103,1694115520999,,,,
Fix,GT,37.7254308000,-122.1375416000,-3.616235197428267,26.223904,0.1,346.2852,1694115521999,,,,
Fix,GT,37.7256617000,-122.1376054000,-2.9852123821460737,26.214045,0.1,348.49954,1694115522999,,,,
Fix,GT,37.7258941000,-122.1376586000,-2.4471811339506075,26.229527,0.1,350.61523,1694115523999,,,,
Fix,GT,37.7261278000,-122.1377027000,-1.8682209981880078,26.234114,0.1,351.94504,1694115524999,,,,
Fix,GT,37.7263623000,-122.1377405000,-1.3211541236808273,26.252441,0.1,353.08347,1694115525999,,,,
Fix,GT,37.7265975000,-122.1377754000,-0.9581006970946575,26.328207,0.1,353.0947,1694115526999,,,,
Fix,GT,37.7268334000,-122.1378113000,-0.5971493152863872,26.390432,0.1,352.96677,1694115527999,,,,
Fix,GT,37.7270692000,-122.1378471000,-0.09019328776185631,26.311455,0.1,353.05667,1694115528999,,,,
Fix,GT,37.7273039000,-122.1378821000,0.5597495085371271,26.157665,0.1,353.15387,1694115529999,,,,
Fix,GT,37.7275372000,-122.1379175000,1.263785122359316,26.001963,0.1,352.97095,1694115530999,,,,
Fix,GT,37.7277679000,-122.1379533000,1.8517985613921724,25.616793,0.1,352.69604,1694115531999,,,,
Fix,GT,37.7279963000,-122.1379906000,2.3178824857311326,25.512808,0.1,352.28116,1694115532999,,,,
Fix,GT,37.7282246000,-122.1380309000,2.6639092556960122,25.713964,0.1,351.62494,1694115533999,,,,
Fix,GT,37.7284548000,-122.1380748000,2.8499620331172366,25.974058,0.1,351.00235,1694115534999,,,,
Fix,GT,37.7286871000,-122.1381224000,2.9679841151737776,26.276585,0.1,350.3238,1694115535999,,,,
Fix,GT,37.7289210000,-122.1381750000,2.9800676393633267,26.340157,0.1,349.23926,1694115536999,,,,
Fix,GT,37.7291526000,-122.1382323000,2.917089577175929,26.033958,0.1,348.3589,1694115537999,,,,
Fix,GT,37.7293805000,-122.1382924000,2.767163889031508,25.685812,0.1,347.92712,1694115538999,,,,
Fix,GT,37.7296054000,-122.1383536000,2.4881724806153613,25.397692,0.1,347.48502,1694115539999,,,,
Fix,GT,37.7298275000,-122.1384156000,2.2101331449409685,25.11093,0.1,347.22412,1694115540999,,,,
Fix,GT,37.7300468000,-122.1384776000,2.026224734616619,24.77805,0.1,347.3388,1694115541999,,,,
Fix,GT,37.7302637000,-122.1385385000,1.9640673821541554,24.619438,0.1,347.18582,1694115542999,,,,
Fix,GT,37.7304802000,-122.1386000000,1.8950542870411908,24.661144,0.1,347.1855,1694115543999,,,,
Fix,GT,37.7306971000,-122.1386612000,1.9120151862392447,24.6966,0.1,347.1358,1694115544999,,,,
Fix,GT,37.7309144000,-122.1387236000,1.8600717049629765,24.776821,0.1,346.89832,1694115545999,,,,
Fix,GT,37.7311321000,-122.1387869000,1.8700933932843782,24.827593,0.1,346.78058,1694115546999,,,,
Fix,GT,37.7313492000,-122.1388496000,1.8538763405547911,24.571531,0.1,347.07535,1694115547999,,,,
Fix,GT,37.7315635000,-122.1389104000,1.803049921989441,24.213009,0.1,347.22546,1694115548999,,,,
Fix,GT,37.7317749000,-122.1389701000,1.7710716298016038,23.879557,0.1,347.25262,1694115549999,,,,
Fix,GT,37.7319834000,-122.1390287000,1.7450629322244424,23.578962,0.1,347.24542,1694115550999,,,,
Fix,GT,37.7321917000,-122.1390873000,1.7210585489736019,23.845175,0.1,347.4146,1694115551999,,,,
Fix,GT,37.7324032000,-122.1391456000,1.6810672131123923,24.199047,0.1,347.68604,1694115552999,,,,
Fix,GT,37.7326179000,-122.1392027000,1.6570629522736127,24.547375,0.1,348.1545,1694115553999,,,,
Fix,GT,37.7328357000,-122.1392584000,1.6250542574750142,24.693565,0.1,348.57202,1694115554999,,,,
Fix,GT,37.7330541000,-122.1393122000,1.596071425655822,24.712824,0.1,349.02997,1694115555999,,,,
Fix,GT,37.7332731000,-122.1393640000,1.571054228625954,24.760427,0.1,349.403,1694115556999,,,,
Fix,GT,37.7334929000,-122.1394144000,1.5250671062993675,24.832983,0.1,349.6724,1694115557999,,,,
Fix,GT,37.7337133000,-122.1394643000,1.4900671215231824,24.874344,0.1,349.5699,1694115558999,,,,
Fix,GT,37.7339339000,-122.1395148000,1.4660543149583134,24.81617,0.1,349.48633,1694115559999,,,,
Fix,GT,37.7341527000,-122.1395652000,1.5020199490900268,24.620754,0.1,349.58228,1694115560999,,,,
Fix,GT,37.7343710000,-122.1396148000,1.6848746295800225,24.599709,0.1,349.72058,1694115561999,,,,
Fix,GT,37.7345894000,-122.1396638000,1.9258832960449865,24.658049,0.1,349.79916,1694115562999,,,,
Fix,GT,37.7348084000,-122.1397135000,2.261011567264333,24.74696,0.1,349.47565,1694115563999,,,,
Fix,GT,37.7350282000,-122.1397639000,2.586926297361771,24.848824,0.1,349.63217,1694115564999,,,,
Fix,GT,37.7352495000,-122.1398142000,2.9728541655377967,25.073938,0.1,349.59204,1694115565999,,,,
Fix,GT,37.7354723000,-122.1398658000,3.4858160776039284,25.205399,0.1,349.4073,1694115566999,,,,
Fix,GT,37.7356963000,-122.1399181000,4.007841663732279,25.34806,0.1,349.44244,1694115567999,,,,
Fix,GT,37.7359208000,-122.1399718000,4.526829192205582,25.390148,0.1,349.0652,1694115568999,,,,
Fix,GT,37.7361453000,-122.1400280000,5.043846590525391,25.428843,0.1,348.08972,1694115569999,,,,
Fix,GT,37.7363684000,-122.1400941000,5.520867753277514,25.481138,0.1,345.54654,1694115570999,,,,
Fix,GT,37.7365897000,-122.1401726000,5.882910264047496,25.581024,0.1,342.98547,1694115571999,,,,
Fix,GT,37.7368088000,-122.1402647000,6.206918752496705,25.685234,0.1,340.06528,1694115572999,,,,
Fix,GT,37.7370243000,-122.1403717000,6.530898122915971,25.78283,0.1,337.02075,1694115573999,,,,
Fix,GT,37.7372364000,-122.1404923000,6.8009700046312105,25.90006,0.1,334.57516,1694115574999,,,,
Fix,GT,37.7374455000,-122.1406241000,7.026965706428825,26.02506,0.1,332.0696,1694115575999,,,,
Fix,GT,37.7376503000,-122.1407691000,7.125138502450682,26.13041,0.1,329.10666,1694115576999,,,,
Fix,GT,37.7378495000,-122.1409281000,7.148067133875998,26.239372,0.1,326.25198,1694115577999,,,,
Fix,GT,37.7380434000,-122.1410997000,7.087096187116316,26.401947,0.1,323.56882,1694115578999,,,,
Fix,GT,37.7382327000,-122.1412828000,6.926129946396429,26.583992,0.1,321.06735,1694115579999,,,,
Fix,GT,37.7384151000,-122.1414785000,6.644205283201586,26.581074,0.1,318.23273,1694115580999,,,,
Fix,GT,37.7385896000,-122.1416839000,6.136288996800658,26.450378,0.1,315.7007,1694115581999,,,,
Fix,GT,37.7387584000,-122.1418946000,5.5663597172318475,26.318583,0.1,315.06027,1694115582999,,,,
Fix,GT,37.7389256000,-122.1421055000,4.87036764901768,26.22883,0.1,314.81448,1694115583999,,,,
Fix,GT,37.7390932000,-122.1423161000,4.079388301824167,26.429762,0.1,315.3853,1694115584999,,,,
Fix,GT,37.7392672000,-122.1425264000,3.1744463731051837,27.187792,0.1,316.62164,1694115585999,,,,
Fix,GT,37.7394493000,-122.1427403000,2.1605041083932406,27.86656,0.1,316.97495,1694115586999,,,,
Fix,GT,37.7396337000,-122.1429554000,1.0845286265412568,27.925001,0.1,317.11484,1694115587999,,,,
Fix,GT,37.7398193000,-122.1431694000,-0.032488467031729584,27.932869,0.1,317.55194,1694115588999,,,,
Fix,GT,37.7400067000,-122.1433811000,-1.0795430403080104,27.938417,0.1,318.51953,1694115589999,,,,
Fix,GT,37.7401984000,-122.1435860000,-2.0106013184305596,27.86119,0.1,320.79468,1694115590999,,,,
Fix,GT,37.7403969000,-122.1437783000,-2.659713764361072,27.710493,0.1,323.8098,1694115591999,,,,
Fix,GT,37.7406011000,-122.1439570000,-3.0698504965843085,27.473227,0.1,325.9207,1694115592999,,,,
Fix,GT,37.7408076000,-122.1441254000,-3.1199663625342,27.114279,0.1,328.03247,1694115593999,,,,
Fix,GT,37.7410151000,-122.1442836000,-3.000028430742134,26.718853,0.1,329.0875,1694115594999,,,,
Fix,GT,37.7412208000,-122.1444366000,-2.7390944635531014,26.356258,0.1,329.42172,1694115595999,,,,
Fix,GT,37.7414249000,-122.1445886000,-2.39909415757279,26.315535,0.1,329.3026,1694115596999,,,,
Fix,GT,37.7416290000,-122.1447406000,-2.0571022303931557,26.296612,0.1,329.3691,1694115597999,,,,
Fix,GT,37.7418330000,-122.1448924000,-1.7180610602842137,26.396149,0.1,329.35037,1694115598999,,,,
Fix,GT,37.7420387000,-122.1450479000,-1.364089735311019,26.863428,0.1,328.624,1694115599999,,,,
Fix,GT,37.7422462000,-122.1452095000,-1.0370977733683304,27.301462,0.1,327.6998,1694115600999,,,,
Fix,GT,37.7424525000,-122.1453808000,-0.736040205783695,27.402407,0.1,325.37384,1694115601999,,,,
Fix,GT,37.7426516000,-122.1455608000,-0.5669992364391732,27.017284,0.1,323.31818,1694115602999,,,,
Fix,GT,37.7428430000,-122.1457484000,-0.4240154546633903,26.920033,0.1,320.80145,1694115603999,,,,
Fix,GT,37.7430278000,-122.1459478000,-0.2680358632093167,27.124367,0.1,317.9493,1694115604999,,,,
Fix,GT,37.7432062000,-122.1461594000,0.03789484267281118,27.30453,0.1,315.39133,1694115605999,,,,
Fix,GT,37.7433781000,-122.1463821000,0.3799194912696535,27.451038,0.1,313.03497,1694115606999,,,,
Fix,GT,37.7435449000,-122.1466124000,0.7568544212281267,27.45559,0.1,311.71756,1694115607999,,,,
Fix,GT,37.7437079000,-122.1468437000,1.289801778955237,27.015497,0.1,311.54877,1694115608999,,,,
Fix,GT,37.7438689000,-122.1470692000,1.9737612913469036,26.424747,0.1,311.8773,1694115609999,,,,
Fix,GT,37.7440265000,-122.1472893000,2.720737342454626,25.818428,0.1,311.98203,1694115610999,,,,
Fix,GT,37.7441811000,-122.1475035000,3.461753844506461,25.213078,0.1,312.1594,1694115611999,,,,
Fix,GT,37.7443338000,-122.1477115000,4.197746122214227,24.792892,0.1,312.9757,1694115612999,,,,
Fix,GT,37.7444888000,-122.1479117000,5.006701941152301,24.473446,0.1,315.35144,1694115613999,,,,
Fix,GT,37.7446483000,-122.1481011000,5.858718728701035,24.237442,0.1,317.48563,1694115614999,,,,
Fix,GT,37.7448123000,-122.1482816000,6.655755376583443,24.138323,0.1,319.88293,1694115615999,,,,
Fix,GT,37.7449831000,-122.1484539000,7.353808099262295,24.460695,0.1,322.28827,1694115616999,,,,
Fix,GT,37.7451622000,-122.1486194000,7.979848592704798,24.888494,0.1,324.78687,1694115617999,,,,
Fix,GT,37.7453503000,-122.1487775000,8.559800431099575,25.326157,0.1,327.09518,1694115618999,,,,
Fix,GT,37.7455453000,-122.1489275000,9.040840862566938,25.218466,0.1,329.6798,1694115619999,,,,
Fix,GT,37.7457426000,-122.1490642000,9.44590107584304,24.749884,0.1,332.27628,1694115620999,,,,
Fix,GT,37.7459410000,-122.1491879000,9.738945595053394,24.47551,0.1,334.57068,1694115621999,,,,
Fix,GT,37.7461428000,-122.1493020000,10.0359015532066,24.633453,0.1,336.49588,1694115622999,,,,
Fix,GT,37.7463484000,-122.1494091000,10.50684939248498,24.748735,0.1,338.09677,1694115623999,,,,
Fix,GT,37.7465569000,-122.1495109000,10.93693389547235,24.906443,0.1,339.1449,1694115624999,,,,
Fix,GT,37.7467673000,-122.1496125000,11.109005855415035,25.13545,0.1,338.68802,1694115625999,,,,
Fix,GT,37.7469793000,-122.1497164000,11.231001656674266,25.347795,0.1,338.61337,1694115626999,,,,
Fix,GT,37.7471931000,-122.1498211000,11.35199402797707,25.567898,0.1,338.65454,1694115627999,,,,
Fix,GT,37.7474084000,-122.1499259000,11.530966122872542,25.582386,0.1,338.80084,1694115628999,,,,
Fix,GT,37.7476223000,-122.1500301000,11.776934689352856,25.379852,0.1,338.6523,1694115629999,,,,
Fix,GT,37.7478355000,-122.1501343000,12.107886526176458,25.41937,0.1,338.6393,1694115630999,,,,
Fix,GT,37.7480498000,-122.1502389000,12.52585914860083,25.601048,0.1,338.67212,1694115631999,,,,
Fix,GT,37.7482654000,-122.1503442000,13.032839514557566,25.751844,0.1,338.73846,1694115632999,,,,
Fix,GT,37.7484824000,-122.1504496000,13.614799938752867,25.846348,0.1,338.78293,1694115633999,,,,
Fix,GT,37.7486990000,-122.1505552000,14.287776822018714,25.575146,0.1,338.6212,1694115634999,,,,
Fix,GT,37.7489114000,-122.1506586000,15.004761338295566,24.984749,0.1,338.70383,1694115635999,,,,
Fix,GT,37.7491190000,-122.1507598000,15.702777396669262,24.502405,0.1,338.68417,1694115636999,,,,
Fix,GT,37.7493243000,-122.1508606000,16.386782609196416,24.439749,0.1,338.4678,1694115637999,,,,
Fix,GT,37.7495292000,-122.1509615000,17.07977188631628,24.398602,0.1,338.60425,1694115638999,,,,
Fix,GT,37.7497339000,-122.1510621000,17.749788013244142,24.367937,0.1,338.48495,1694115639999,,,,
Fix,GT,37.7499372000,-122.1511621000,18.336870689479838,24.028992,0.1,338.66077,1694115640999,,,,
Fix,GT,37.7501379000,-122.1512580000,18.69990125018171,23.598753,0.1,339.37292,1694115641999,,,,
Fix,GT,37.7503358000,-122.1513485000,19.01693613226098,23.136442,0.1,340.24783,1694115642999,,,,
Fix,GT,37.7505317000,-122.1514302000,19.372890177663976,22.640936,0.1,343.10767,1694115643999,,,,
Fix,GT,37.7507272000,-122.1514919000,19.862862756370077,22.102476,0.1,348.0113,1694115644999,,,,
Fix,GT,37.7509214000,-122.1515336000,20.291910694182206,21.612982,0.1,351.8215,1694115645999,,,,
Fix,GT,37.7511129000,-122.1515596000,20.629921902660953,21.159061,0.1,354.86496,1694115646999,,,,
Fix,GT,37.7513012000,-122.1515752000,20.9229291133297,20.723125,0.1,356.86774,1694115647999,,,,
Fix,GT,37.7514859000,-122.1515830000,21.19291413992437,20.303856,0.1,358.60352,1694115648999,,,,
Fix,GT,37.7516671000,-122.1515832000,21.445961210025303,19.890438,0.1,0.85731024,1694115649999,,,,
Fix,GT,37.7518438000,-122.1515734000,21.66598781940729,19.396696,0.1,3.4264116,1694115650999,,,,
Fix,GT,37.7520161000,-122.1515535000,21.83292563407508,19.009476,0.1,6.1782722,1694115651999,,,,
Fix,GT,37.7521843000,-122.1515256000,21.881084988033308,18.666061,0.1,8.103438,1694115652999,,,,
Fix,GT,37.7523488000,-122.1514910000,21.786186265056813,18.246893,0.1,10.292728,1694115653999,,,,
Fix,GT,37.7525052000,-122.1514491000,21.510088482191918,17.167427,0.1,13.1007395,1694115654999,,,,
Fix,GT,37.7526491000,-122.1514012000,21.02025858851448,15.736197,0.1,15.8658905,1694115655999,,,,
Fix,GT,37.7527770000,-122.1513499000,20.45526742745642,13.916858,0.1,18.518133,1694115656999,,,,
Fix,GT,37.7528831000,-122.1513007000,19.87125023215765,11.14308,0.1,20.86016,1694115657999,,,,
Fix,GT,37.7529642000,-122.1512576000,19.342254520564552,8.438064,0.1,23.513624,1694115658999,,,,
Fix,GT,37.7530245000,-122.1512221000,18.873219829103164,6.4558315,0.1,25.2064,1694115659999,,,,
Fix,GT,37.7530710000,-122.1511929000,18.467192620531705,5.1349335,0.1,26.414799,1694115660999,,,,
Fix,GT,37.7531094000,-122.1511679000,18.133177476534,4.7732425,0.1,27.190775,1694115661999,,,,
Fix,GT,37.7531492000,-122.1511416000,17.804180691927513,5.2322087,0.1,27.662367,1694115662999,,,,
Fix,GT,37.7531951000,-122.1511102000,17.458164566402388,6.183793,0.1,28.674726,1694115663999,,,,
Fix,GT,37.7532445000,-122.1510746000,17.188135303312947,6.380727,0.1,29.913546,1694115664999,,,,
Fix,GT,37.7532940000,-122.1510374000,17.032096893089715,6.422929,0.1,31.054024,1694115665999,,,,
Fix,GT,37.7533445000,-122.1509986000,16.970024119851132,6.700115,0.1,31.196411,1694115666999,,,,
Fix,GT,37.7533984000,-122.1509638000,17.005012572132046,6.657046,0.1,24.418186,1694115667999,,,,
Fix,GT,37.7534550000,-122.1509463000,17.092001095046726,6.367203,0.1,10.6330805,1694115668999,,,,
Fix,GT,37.7535108000,-122.1509491000,17.098039670614185,6.1361213,0.1,353.98456,1694115669999,,,,
Fix,GT,37.7535607000,-122.1509749000,17.07911837969141,6.0697856,0.1,333.52295,1694115670999,,,,
Fix,GT,37.7536039000,-122.1510221000,17.011062551885743,6.821113,0.1,315.345,1694115671999,,,,
Fix,GT,37.7536433000,-122.1510883000,16.8991217074381,7.764577,0.1,305.17877,1694115672999,,,,
Fix,GT,37.7536837000,-122.1511655000,16.78107999016254,8.535694,0.1,303.175,1694115673999,,,,
Fix,GT,37.7537283000,-122.1512495000,16.680099007960962,9.234977,0.1,303.7639,1694115674999,,,,
Fix,GT,37.7537758000,-122.1513374000,16.556092759055787,9.386952,0.1,304.15466,1694115675999,,,,
Fix,GT,37.7538229000,-122.1514255000,16.427125015791944,9.32152,0.1,303.12405,1694115676999,,,,
Fix,GT,37.7538640000,-122.1515171000,16.311088061002238,9.246339,0.1,297.13727,1694115677999,,,,
Fix,GT,37.7539000000,-122.1516110000,16.186054172953845,9.005027,0.1,295.52765,1694115678999,,,,
Fix,GT,37.7539361000,-122.1516958000,16.08906531439618,7.819412,0.1,299.3116,1694115679999,,,,
Fix,GT,37.7539694000,-122.1517628000,16.003068610562195,6.024122,0.1,302.5761,1694115680999,,,,
Fix,GT,37.7539940000,-122.1518083000,15.93408707466051,3.6375246,0.1,304.0294,1694115681999,,,,
Fix,GT,37.7540072000,-122.1518323000,15.90305695312611,1.7372117,0.1,304.16275,1694115682999,,,,
Fix,GT,37.7540127000,-122.1518427000,15.88005344137855,0.44599068,0.1,304.04984,1694115683999,,,,
Fix,GT,37.7540130000,-122.1518434000,15.87505332608987,0.0036157027,0.1,304.04163,1694115684999,,,,
Fix,GT,37.7540130000,-122.1518434000,15.875049591064453,0.001412669,0.1,304.04242,1694115685999,,,,
Fix,GT,37.7540130000,-122.1518434000,15.871053603629662,0.0009962753,0.1,304.04074,1694115686999,,,,
Fix,GT,37.7540130000,-122.1518434000,15.865049362182617,0.0,0.1,304.04022,1694115687999,,,,
Fix,GT,37.7540130000,-122.1518434000,15.865049362182617,0.001,0.1,304.0403,1694115688999,,,,
Fix,GT,37.7540130000,-122.1518434000,15.864049911499023,0.0,0.1,304.04037,1694115689999,,,,
Fix,GT,37.7540130000,-122.1518434000,15.865049362182617,0.0000037070515,0.1,304.04004,1694115690999,,,,
Fix,GT,37.7540130000,-122.1518434000,15.864053612105636,0.0,0.1,304.04025,1694115691999,,,,
Fix,GT,37.7540130000,-122.1518434000,15.864049911499023,0.0009963019,0.1,304.04044,1694115692999,,,,
Fix,GT,37.7540130000,-122.1518433000,15.864049911499023,0.001,0.1,304.04037,1694115693999,,,,
Fix,GT,37.7540130000,-122.1518433000,15.863049507141113,0.013417291,0.1,304.04074,1694115694999,,,,
Fix,GT,37.7540149000,-122.1518467000,15.845060910348764,0.981161,0.1,303.99924,1694115695999,,,,
Fix,GT,37.7540248000,-122.1518653000,15.800071863004405,2.8985379,0.1,303.84152,1694115696999,,,,
Fix,GT,37.7540437000,-122.1519014000,15.745086238033537,4.6545343,0.1,303.2128,1694115697999,,,,
Fix,GT,37.7540675000,-122.1519559000,15.620108223158752,6.3528366,0.1,296.74164,1694115698999,,,,
Fix,GT,37.7540838000,-122.1520327000,15.504071306104606,7.640585,0.1,280.23404,1694115699999,,,,
Fix,GT,37.7540763000,-122.1521220000,15.514987665641911,8.362684,0.1,257.57486,1694115700999,,,,
Fix,GT,37.7540465000,-122.1522155000,15.693969348955193,9.568895,0.1,245.12837,1694115701999,,,,
Fix,GT,37.7540001000,-122.1523152000,16.042889986704893,10.788639,0.1,237.78252,1694115702999,,,,
Fix,GT,37.7539423000,-122.1524211000,16.702751349041137,11.820695,0.1,234.0623,1694115703999,,,,
Fix,GT,37.7538683000,-122.1525235000,17.591660529407136,12.5723505,0.1,223.18776,1694115704999,,,,
Fix,GT,37.7537824000,-122.1526128000,18.507763305372464,12.082771,0.1,218.13815,1694115705999,,,,
Fix,GT,37.7536990000,-122.1526905000,19.36177465957212,10.679216,0.1,215.37581,1694115706999,,,,
Fix,GT,37.7536263000,-122.1527499000,20.11679957783963,8.748943,0.1,211.54019,1694115707999,,,,
Fix,GT,37.7535641000,-122.1527949000,20.761796718750702,7.1981864,0.1,209.23825,1694115708999,,,,
Fix,GT,37.7535125000,-122.1528295000,21.29884840028933,5.879391,0.1,207.74533,1694115709999,,,,
Fix,GT,37.7534700000,-122.1528573000,21.793880154673047,4.7770243,0.1,207.07439,1694115710999,,,,
Fix,GT,37.7534316000,-122.1528812000,22.252898065275076,4.7330804,0.1,205.5238,1694115711999,,,,
Fix,GT,37.7533958000,-122.1528999000,22.672930819404883,3.8398159,0.1,201.49203,1694115712999,,,,
Fix,GT,37.7533664000,-122.1529072000,22.997953351328306,2.91441,0.1,191.47691,1694115713999,,,,
Fix,GT,37.7533410000,-122.1529031000,23.21198297775777,3.3003328,0.1,175.84625,1694115714999,,,,
Fix,GT,37.7533059000,-122.1528818000,23.567895756255894,5.370103,0.1,153.96071,1694115715999,,,,
Fix,GT,37.7532635000,-122.1528317000,23.70698926562352,7.583359,0.1,134.85027,1694115716999,,,,
Fix,GT,37.7532159000,-122.1527540000,23.7340399882429,9.743425,0.1,126.14238,1694115717999,,,,
Fix,GT,37.7531582000,-122.1526563000,23.656114222857468,11.629231,0.1,126.87827,1694115718999,,,,
Fix,GT,37.7530862000,-122.1525465000,23.655000183323864,13.399847,0.1,131.32933,1694115719999,,,,
Fix,GT,37.7529937000,-122.1524365000,24.023885372421773,14.781007,0.1,139.69968,1694115720999,,,,
Fix,GT,37.7528789000,-122.1523377000,24.622818690718418,16.041092,0.1,149.4019,1694115721999,,,,
Fix,GT,37.7527444000,-122.1522558000,25.229879933114262,17.177313,0.1,157.13545,1694115722999,,,,
Fix,GT,37.7525930000,-122.1521889000,25.761897540733116,18.432352,0.1,162.43234,1694115723999,,,,
Fix,GT,37.7524258000,-122.1521390000,26.082932440957165,19.701567,0.1,170.01018,1694115724999,,,,
Fix,GT,37.7522436000,-122.1521161000,26.17911792165046,20.911606,0.1,177.77194,1694115725999,,,,
Fix,GT,37.7520498000,-122.1521105000,25.814206729485136,22.073874,0.1,179.43602,1694115726999,,,,
Fix,GT,37.7518463000,-122.1521095000,25.499113898464657,23.123516,0.1,179.55757,1694115727999,,,,
Fix,GT,37.7516335000,-122.1521026000,25.175128560302483,24.148579,0.1,177.24266,1694115728999,,,,
Fix,GT,37.7514120000,-122.1520822000,24.72430137070114,25.171837,0.1,174.29134,1694115729999,,,,
Fix,GT,37.7511829000,-122.1520448000,24.29721278703198,26.1,0.1,171.08234,1694115730999,,,,
Fix,GT,37.7509474000,-122.1519901000,23.743254019342658,27.079466,0.1,167.96483,1694115731999,,,,
Fix,GT,37.7507043000,-122.1519180000,23.101308256465018,28.5285,0.1,165.41003,1694115732999,,,,
Fix,GT,37.7504507000,-122.1518247000,22.36133788998086,30.172361,0.1,161.90512,1694115733999,,,,
Fix,GT,37.7501876000,-122.1517058000,21.198549934109906,31.86218,0.1,158.53001,1694115734999,,,,
Fix,GT,37.7499203000,-122.1515676000,19.78356590880776,32.18474,0.1,157.06775,1694115735999,,,,
Fix,GT,37.7496524000,-122.1514254000,18.345537508273992,32.294518,0.1,157.55663,1694115736999,,,,
Fix,GT,37.7493827000,-122.1512882000,17.109396938962163,32.262745,0.1,158.13881,1694115737999,,,,
Fix,GT,37.7491129000,-122.1511542000,16.197353923961032,32.117367,0.1,158.57327,1694115738999,,,,
Fix,GT,37.7488438000,-122.1510228000,15.300360197381224,31.950066,0.1,158.64812,1694115739999,,,,
Fix,GT,37.7485760000,-122.1508923000,14.388366107496495,31.788149,0.1,158.74542,1694115740999,,,,
Fix,GT,37.7483093000,-122.1507623000,13.563313698796492,31.71419,0.1,158.64392,1694115741999,,,,
Fix,GT,37.7480433000,-122.1506318000,12.859275617035735,31.656427,0.1,158.50871,1694115742999,,,,
Fix,GT,37.7477778000,-122.1505013000,12.298223403429347,31.598831,0.1,158.58083,1694115743999,,,,
Fix,GT,37.7475128000,-122.1503715000,11.850178178590681,31.506376,0.1,158.69688,1694115744999,,,,
Fix,GT,37.7472487000,-122.1502429000,11.533139555652667,31.385366,0.1,158.7795,1694115745999,,,,
Fix,GT,37.7469856000,-122.1501147000,11.3421014371458,31.201452,0.1,158.67844,1694115746999,,,,
Fix,GT,37.7467246000,-122.1499877000,11.202076866963296,30.907877,0.1,158.77605,1694115747999,,,,
Fix,GT,37.7464667000,-122.1498617000,11.401922488216087,30.47792,0.1,158.69298,1694115748999,,,,
Fix,GT,37.7462130000,-122.1497361000,11.692970261791857,30.041485,0.1,158.2107,1694115749999,,,,
Fix,GT,37.7459648000,-122.1496058000,11.873053171713309,29.661633,0.1,156.36848,1694115750999,,,,
Fix,GT,37.7457237000,-122.1494646000,11.642156212562895,29.403406,0.1,153.5248,1694115751999,,,,
Fix,GT,37.7454902000,-122.1493097000,11.183234338471266,29.223324,0.1,150.82266,1694115752999,,,,
Fix,GT,37.7452640000,-122.1491420000,10.745206976271277,29.051945,0.1,147.97366,1694115753999,,,,
Fix,GT,37.7450454000,-122.1489622000,10.17029927029455,28.927425,0.1,145.66379,1694115754999,,,,
Fix,GT,37.7448343000,-122.1487709000,9.515347006909906,28.81927,0.1,142.67468,1694115755999,,,,
Fix,GT,37.7446317000,-122.1485671000,8.752318836275435,28.762136,0.1,140.02615,1694115756999,,,,
Fix,GT,37.7444366000,-122.1483527000,7.890366635638173,28.743385,0.1,137.74327,1694115757999,,,,
Fix,GT,37.7442491000,-122.1481280000,6.927390193614883,28.748856,0.1,134.7178,1694115758999,,,,
Fix,GT,37.7440697000,-122.1478922000,5.676529043094092,28.835075,0.1,132.76547,1694115759999,,,,
Fix,GT,37.7438946000,-122.1476495000,4.245545130180744,28.98228,0.1,131.7547,1694115760999,,,,
Fix,GT,37.7437205000,-122.1474032000,2.7894633130316606,29.131351,0.1,131.48297,1694115761999,,,,
Fix,GT,37.7435457000,-122.1471557000,1.348533679329087,29.256319,0.1,131.66832,1694115762999,,,,
Fix,GT,37.7433688000,-122.1469087000,0.07944854748490648,29.352077,0.1,132.08037,1694115763999,,,,
Fix,GT,37.7431900000,-122.1466634000,-1.0266126874325892,29.336052,0.1,132.76053,1694115764999,,,,
Fix,GT,37.7430071000,-122.1464240000,-1.7877648872868548,29.197226,0.1,135.18834,1694115765999,,,,
Fix,GT,37.7428160000,-122.1461982000,-2.1668591620802147,28.946938,0.1,138.09015,1694115766999,,,,
Fix,GT,37.7426186000,-122.1459862000,-2.331892842010106,28.639164,0.1,140.77824,1694115767999,,,,
Fix,GT,37.7424149000,-122.1457896000,-2.4718894320925244,28.321482,0.1,144.05623,1694115768999,,,,
Fix,GT,37.7422060000,-122.1456083000,-2.5709500312805176,27.998888,0.1,146.4719,1694115769999,,,,
Fix,GT,37.7419935000,-122.1454396000,-2.4929733805231535,27.805548,0.1,148.55336,1694115770999,,,,
Fix,GT,37.7417787000,-122.1452783000,-2.4099767438308675,27.701998,0.1,149.40971,1694115771999,,,,
Fix,GT,37.7415641000,-122.1451189000,-2.3289732815201205,27.612309,0.1,149.22408,1694115772999,,,,
Fix,GT,37.7413506000,-122.1449591000,-2.2539765333872595,27.526865,0.1,149.10622,1694115773999,,,,
Fix,GT,37.7411382000,-122.1447988000,-2.168986438794718,27.42832,0.1,148.97597,1694115774999,,,,
Fix,GT,37.7409266000,-122.1446394000,-2.0550097988681557,27.313267,0.1,149.23604,1694115775999,,,,
Fix,GT,37.7407157000,-122.1444804000,-1.824049461583968,27.313772,0.1,148.77547,1694115776999,,,,
Fix,GT,37.7405057000,-122.1443164000,-1.4241190423933858,27.516697,0.1,147.39903,1694115777999,,,,
Fix,GT,37.7402986000,-122.1441435000,-0.9281121312008054,27.662659,0.1,145.4756,1694115778999,,,,
Fix,GT,37.7400962000,-122.1439596000,-0.3691647800724418,27.744074,0.1,142.65144,1694115779999,,,,
Fix,GT,37.7399014000,-122.1437625000,0.30581247039716164,27.74588,0.1,139.59854,1694115780999,,,,
Fix,GT,37.7397145000,-122.1435535000,1.0118358958862643,27.74672,0.1,137.27759,1694115781999,,,,
Fix,GT,37.7395345000,-122.1433350000,1.6148525728677612,27.746328,0.1,134.99501,1694115782999,,,,
Fix,GT,37.7393601000,-122.1431126000,2.2028560773908765,27.312689,0.1,134.43976,1694115783999,,,,
Fix,GT,37.7391883000,-122.1428940000,2.780856420354965,26.970573,0.1,134.79472,1694115784999,,,,
Fix,GT,37.7390172000,-122.1426782000,3.347873219987605,26.78527,0.1,134.85127,1694115785999,,,,
Fix,GT,37.7388471000,-122.1424639000,3.8179094887341307,26.637466,0.1,134.78302,1694115786999,,,,
Fix,GT,37.7386780000,-122.1422503000,4.194935437343247,26.530014,0.1,134.72864,1694115787999,,,,
Fix,GT,37.7385092000,-122.1420379000,4.492975074759016,26.438807,0.1,134.95526,1694115788999,,,,
Fix,GT,37.7383391000,-122.1418284000,4.659010902369857,26.401243,0.1,136.36906,1694115789999,,,,
Fix,GT,37.7381625000,-122.1416279000,4.81998193567847,26.374945,0.1,139.21451,1694115790999,,,,
Fix,GT,37.7379781000,-122.1414393000,5.042017407030528,26.368565,0.1,142.29242,1694115791999,,,,
Fix,GT,37.7377860000,-122.1412624000,5.159043501847236,26.442251,0.1,145.00146,1694115792999,,,,
Fix,GT,37.7375862000,-122.1410977000,5.197066287768962,26.579617,0.1,148.37016,1694115793999,,,,
Fix,GT,37.7373785000,-122.1409458000,5.122072922190682,26.724997,0.1,151.02696,1694115794999,,,,
Fix,GT,37.7371638000,-122.1408064000,4.9410888033239075,26.899912,0.1,153.76819,1694115795999,,,,
Fix,GT,37.7369425000,-122.1406792000,4.671137132842375,27.102768,0.1,156.84135,1694115796999,,,,
Fix,GT,37.7367141000,-122.1405655000,4.325156131958238,27.40017,0.1,159.64938,1694115797999,,,,
Fix,GT,37.7364786000,-122.1404671000,3.9461787723268458,27.690321,0.1,163.2224,1694115798999,,,,
Fix,GT,37.7362364000,-122.1403851000,3.622111046306884,27.966902,0.1,166.2474,1694115799999,,,,
Fix,GT,37.7359894000,-122.1403162000,3.5180726345395215,28.14903,0.1,168.4077,1694115800999,,,,
Fix,GT,37.7357396000,-122.1402565000,3.4620723696449716,28.304283,0.1,169.59726,1694115801999,,,,
Fix,GT,37.7354875000,-122.1402000000,3.341123667007821,28.58913,0.1,169.90103,1694115802999,,,,
Fix,GT,37.7352321000,-122.1401432000,3.0221618537204904,28.977745,0.1,169.77191,1694115803999,,,,
Fix,GT,37.7349734000,-122.1400849000,2.653177666542547,29.367071,0.1,169.6748,1694115804999,,,,
Fix,GT,37.7347113000,-122.1400248000,2.269145593552139,29.754436,0.1,169.44536,1694115805999,,,,
Fix,GT,37.7344461000,-122.1399640000,1.8841326315918465,30.075254,0.1,169.62209,1694115806999,,,,
Fix,GT,37.7341790000,-122.1399036000,1.557151523417609,30.065178,0.1,169.75623,1694115807999,,,,
Fix,GT,37.7339137000,-122.1398443000,1.4860341686161433,29.725327,0.1,169.79329,1694115808999,,,,
Fix,GT,37.7336514000,-122.1397852000,1.6609740360628678,29.472456,0.1,169.68022,1694115809999,,,,
Fix,GT,37.7333909000,-122.1397242000,1.8829804699644725,29.379932,0.1,169.12822,1694115810999,,,,
Fix,GT,37.7331310000,-122.1396608000,2.0390090981360913,29.386034,0.1,168.8203,1694115811999,,,,
Fix,GT,37.7328711000,-122.1395959000,2.0990374471379027,29.429184,0.1,168.70186,1694115812999,,,,
Fix,GT,37.7326107000,-122.1395307000,2.1360436967401597,29.491926,0.1,168.54729,1694115813999,,,,
Fix,GT,37.7323502000,-122.1394628000,2.1780406208571605,29.57475,0.1,167.92786,1694115814999,,,,
Fix,GT,37.7320895000,-122.1393916000,2.182062531309782,29.66989,0.1,167.39297,1694115815999,,,,
Fix,GT,37.7318280000,-122.1393179000,2.098087685816594,29.803543,0.1,167.28116,1694115816999,,,,
Fix,GT,37.7315659000,-122.1392438000,1.9720937169224655,29.81986,0.1,167.1318,1694115817999,,,,
