% program   : RTKLIB ver.demo5 gdsc_2022
% inp file  : supplemental\gnss_log.obs
% inp file  : ..\slac2000.21o
% inp file  : ..\BRDM00DLR_S_20212000000_01D_MN.rnx
% obs start : 2021/07/19 20:49:39.0 GPST (week2167 161379.0s)
% obs end   : 2021/07/19 21:21:16.0 GPST (week2167 163276.0s)
% pos mode  : Kinematic
% freqs     : L1+L2/E5b+L5
% solution  : Combined-No Phase Reset
% elev mask : 5.0 deg
% dynamics  : on
% tidecorr  : off
% ionos opt : Broadcast
% tropo opt : Saastamoinen
% ephemeris : Broadcast
% navi sys  : GPS GLONASS Galileo
% amb res   : OFF
% amb glo   : OFF
% val thres : 3.0
% antenna1  :                       ( 0.0000  0.0000  0.0000)
% antenna2  :                       ( 0.0000  0.0000  0.0000)
% ref pos   : 37.416519040-122.204268280   63.7780
%
% (lat/lon/height=WGS84/ellipsoidal,Q=1:fix,2:float,3:sbas,4:dgps,5:single,6:ppp,ns=# of satellites)
%  GPST          latitude(deg) longitude(deg)  height(m)   Q  ns   sdn(m)   sde(m)   sdu(m)  sdne(m)  sdeu(m)  sdun(m) age(s)  ratio
2167 161379.000   37.444142951 -122.232765979    10.7408   2   8   0.5836   0.5688   0.9602   0.2778   0.2505  -0.1207   9.00    0.0
2167 161380.000   37.444138411 -122.232772455    10.7970   2   8   0.5798   0.5646   0.9618   0.2578   0.2428  -0.0509  10.00    0.0
2167 161381.000   37.444146608 -122.232767492    10.5306   2   5   0.5987   0.5767   0.9734   0.2679   0.2395  -0.1196  11.00    0.0
2167 161382.000   37.444141628 -122.232766680    10.5086   2   8   0.5724   0.5726   0.9864   0.2589   0.2544  -0.1421  12.00    0.0
2167 161383.000   37.444142912 -122.232762994    10.2756   2   8   0.5956   0.5844   1.0035   0.2692   0.2563  -0.1608  13.00    0.0
2167 161384.000   37.444142261 -122.232760053     7.3478   2   6   0.6330   0.6072   1.5788   0.2887   0.4202  -0.3834  14.00    0.0
2167 161385.000   37.444131311 -122.232749142    11.6978   2   4   0.7162   0.7535   2.2287   0.2891   0.7282  -0.5122  15.00    0.0
2167 161386.000   37.444131420 -122.232766134    11.0681   4   2   0.7552   0.6469   1.0871   0.2941   0.3311   0.0178 -14.00    0.0
2167 161387.000   37.444140283 -122.232779455    10.9382   4   0   0.8287   0.7226   0.8775   0.0503   0.2271   0.3070 -13.00    0.0
2167 161388.000   37.444144655 -122.232790702    11.6080   2   4   0.8174   1.1589   0.8122  -0.4763  -0.2732   0.3427 -12.00    0.0
2167 161389.000   37.444151195 -122.232793877    11.1709   2   4   0.8918   1.6746   0.8146  -0.8379  -0.5102   0.3905 -11.00    0.0
2167 161390.000   37.444140679 -122.232817171    11.6236   2   5   0.9636   0.8529   1.4529  -0.4342  -0.4608   0.7150 -10.00    0.0
2167 161391.000   37.444168836 -122.232817572    10.5367   4   0   0.9352   0.7058   1.0982  -0.4673  -0.6046   0.4698  -9.00    0.0
2167 161392.000   37.444175712 -122.232879619    10.1690   4   0   0.7338   0.6166   0.8494  -0.4658  -0.6034   0.1834  -8.00    0.0
2167 161393.000   37.444127519 -122.232914870    10.6618   2   5   0.3723   0.5185   0.6467  -0.2858  -0.4552   0.1817  -7.00    0.0
2167 161394.000   37.444080341 -122.232934345    10.4186   2   4   0.2098   0.4774   0.5017  -0.1013  -0.3040  -0.0074  -6.00    0.0
2167 161395.000   37.444051473 -122.232956942    10.8413   2   7   0.1993   0.2413   0.4466   0.1293  -0.1677  -0.0986  -5.00    0.0
2167 161396.000   37.444032786 -122.232967365    10.8322   2   8   0.1992   0.2078   0.4346   0.1304  -0.1271  -0.0974  -4.00    0.0
2167 161397.000   37.444012541 -122.232977973    10.3340   2   9   0.1944   0.2074   0.4319   0.1300  -0.1262  -0.1055  -3.00    0.0
2167 161398.000   37.443991974 -122.232992561    10.4656   2   8   0.1942   0.2069   0.4309   0.1285  -0.1241  -0.0994  -2.00    0.0
2167 161399.000   37.443959467 -122.233013195    10.3766   2   9   0.1944   0.2074   0.4323   0.1289  -0.1264  -0.0994  -1.00    0.0
2167 161400.000   37.443924551 -122.233035773    10.1419   2  10   0.1945   0.2069   0.4321   0.1288  -0.1260  -0.0989  -0.00    0.0
2167 161401.000   37.443893289 -122.233060978     9.8957   2   7   0.1975   0.2070   0.4321   0.1307  -0.1246  -0.0987   1.00    0.0
2167 161402.000   37.443871168 -122.233084669     9.7758   2   8   0.1973   0.2067   0.4328   0.1292  -0.1242  -0.0942   2.00    0.0
2167 161403.000   37.443859236 -122.233101038     9.5266   2   8   0.1981   0.2062   0.4347   0.1288  -0.1253  -0.0934   3.00    0.0
2167 161404.000   37.443853449 -122.233124574     9.4840   2   8   0.2129   0.2296   0.5013   0.1538  -0.2015  -0.1637   4.00    0.0
2167 161405.000   37.443854129 -122.233161050     9.5647   2   6   0.2052   0.2104   0.4317   0.1281  -0.1223  -0.0968   5.00    0.0
2167 161406.000   37.443869038 -122.233209335     9.4676   2   7   0.2106   0.2017   0.4157   0.1338  -0.1029  -0.0830   6.00    0.0
2167 161407.000   37.443896608 -122.233274441     9.0988   2   8   0.2036   0.1973   0.4125   0.1259  -0.0928  -0.0580   7.00    0.0
2167 161408.000   37.443935007 -122.233355948     8.7070   2  10   0.2012   0.1971   0.4114   0.1246  -0.0918  -0.0605   8.00    0.0
2167 161409.000   37.443979626 -122.233447534     8.4452   2  10   0.2002   0.1963   0.4106   0.1236  -0.0909  -0.0610   9.00    0.0
2167 161410.000   37.444028962 -122.233547056     8.1724   2  11   0.2011   0.1965   0.4140   0.1240  -0.0917  -0.0632  10.00    0.0
2167 161411.000   37.444079801 -122.233649724     7.9300   2  10   0.2016   0.1967   0.4341   0.1243  -0.0926  -0.0579  11.00    0.0
2167 161412.000   37.444132952 -122.233754462     6.9659   2   9   0.2032   0.2004   0.5469   0.1274   0.0651   0.0558  12.00    0.0
2167 161413.000   37.444186866 -122.233856631     6.5702   2   6   0.2095   0.1990   0.5111   0.1282  -0.1143   0.0551  13.00    0.0
2167 161414.000   37.444247619 -122.233954540     7.6641   2   6   0.2731   0.2307   0.4369   0.1838  -0.1298  -0.0649  14.00    0.0
2167 161415.000   37.444295256 -122.234049106     8.2664   4   3   0.2942   0.2555   0.3459   0.1698  -0.1036  -0.0967  15.00    0.0
2167 161416.000   37.444337307 -122.234132677     8.1819   2   7   0.1364   0.2215   0.3109   0.0737  -0.1005  -0.0839 -14.00    0.0
2167 161417.000   37.444370148 -122.234197603     8.1292   2   9   0.1788   0.2457   0.3590   0.1418  -0.0767  -0.0732 -13.00    0.0
2167 161418.000   37.444387044 -122.234243648     8.0447   2   5   0.1179   0.1938   0.2796   0.0572  -0.0908  -0.0953 -12.00    0.0
2167 161419.000   37.444398240 -122.234268468     7.8354   2   7   0.1161   0.1906   0.2655   0.0522  -0.0882  -0.0888 -11.00    0.0
2167 161420.000   37.444403035 -122.234280872     7.7542   2  12   0.1157   0.1893   0.2636   0.0516  -0.0874  -0.0872 -10.00    0.0
2167 161421.000   37.444403585 -122.234281371     7.7519   2  12   0.1156   0.1898   0.2630   0.0511  -0.0867  -0.0869  -9.00    0.0
2167 161422.000   37.444403451 -122.234280877     7.6690   2  13   0.1156   0.1892   0.2631   0.0516  -0.0871  -0.0870  -8.00    0.0
2167 161423.000   37.444403649 -122.234280396     7.7424   2  13   0.1156   0.1888   0.2631   0.0516  -0.0868  -0.0870  -7.00    0.0
2167 161424.000   37.444403708 -122.234281088     7.7303   2  13   0.1155   0.1887   0.2631   0.0517  -0.0867  -0.0871  -6.00    0.0
2167 161425.000   37.444403753 -122.234280569     7.7640   2  13   0.1156   0.1886   0.2631   0.0516  -0.0865  -0.0870  -5.00    0.0
2167 161426.000   37.444403563 -122.234280835     7.7185   2  12   0.1156   0.1886   0.2632   0.0517  -0.0864  -0.0871  -4.00    0.0
2167 161427.000   37.444403556 -122.234280042     7.7272   2  12   0.1157   0.1888   0.2636   0.0517  -0.0867  -0.0873  -3.00    0.0
2167 161428.000   37.444403243 -122.234279951     7.7114   2  11   0.1158   0.1892   0.2634   0.0516  -0.0865  -0.0870  -2.00    0.0
2167 161429.000   37.444403442 -122.234279704     7.7138   2  12   0.1159   0.1885   0.2635   0.0519  -0.0860  -0.0866  -1.00    0.0
2167 161430.000   37.444403664 -122.234280383     7.6913   2  11   0.1164   0.1891   0.2632   0.0511  -0.0868  -0.0867  -0.00    0.0
2167 161431.000   37.444403216 -122.234278885     7.6116   2  11   0.1163   0.1893   0.2641   0.0517  -0.0869  -0.0872   1.00    0.0
2167 161432.000   37.444403193 -122.234276771     7.6614   2  11   0.1165   0.1937   0.2653   0.0496  -0.0860  -0.0880   2.00    0.0
2167 161433.000   37.444406998 -122.234277175     6.6689   2   9   0.1188   0.2322   0.3619   0.0142  -0.0931  -0.1016   3.00    0.0
2167 161434.000   37.444420388 -122.234317154     7.5586   4   3   0.1192   0.2432   0.2613  -0.0288  -0.0931  -0.0836   4.00    0.0
2167 161435.000   37.444434098 -122.234391915     7.8245   2   9   0.1161   0.1405   0.2421   0.0681  -0.0891  -0.0843   5.00    0.0
2167 161436.000   37.444431442 -122.234473268     7.9636   2  12   0.1236   0.1459   0.2388   0.0786  -0.0871  -0.0878   6.00    0.0
2167 161437.000   37.444404201 -122.234557410     7.4827   2  11   0.1578   0.2107   0.2672   0.1291  -0.1109  -0.1001   7.00    0.0
2167 161438.000   37.444348069 -122.234635085     7.8834   2   7   0.0858   0.1028   0.2232   0.0350  -0.0692  -0.0783   8.00    0.0
2167 161439.000   37.444271942 -122.234704939     8.1127   2  11   0.0849   0.0932   0.2186   0.0302  -0.0551  -0.0758   9.00    0.0
2167 161440.000   37.444179858 -122.234776721     8.4414   2  13   0.0847   0.0922   0.2192   0.0312  -0.0549  -0.0764  10.00    0.0
2167 161441.000   37.444074746 -122.234851416     8.7766   2   9   0.0856   0.0921   0.2210   0.0326  -0.0559  -0.0786  11.00    0.0
2167 161442.000   37.443961144 -122.234926371     9.1351   2  10   0.0844   0.0916   0.2190   0.0320  -0.0529  -0.0764  12.00    0.0
2167 161443.000   37.443835737 -122.235006361     9.6275   2  12   0.0840   0.0913   0.2156   0.0313  -0.0514  -0.0740  13.00    0.0
2167 161444.000   37.443702719 -122.235091553    10.0134   2  13   0.0840   0.0912   0.2153   0.0314  -0.0517  -0.0738  14.00    0.0
2167 161445.000   37.443561571 -122.235183853    10.1410   2  10   0.0841   0.0914   0.2155   0.0316  -0.0517  -0.0738  15.00    0.0
2167 161446.000   37.443413325 -122.235282110    10.2489   2  12   0.0842   0.0915   0.2154   0.0314  -0.0517  -0.0735 -14.00    0.0
2167 161447.000   37.443263582 -122.235382811    10.3889   2  11   0.0844   0.0920   0.2168   0.0312  -0.0506  -0.0732 -13.00    0.0
2167 161448.000   37.443116938 -122.235481772    10.6087   2   6   0.0850   0.0917   0.2151   0.0313  -0.0494  -0.0741 -12.00    0.0
2167 161449.000   37.442973516 -122.235578612    10.8824   2   7   0.0853   0.0914   0.2111   0.0315  -0.0492  -0.0720 -11.00    0.0
2167 161450.000   37.442830538 -122.235674265    11.2747   2   6   0.0853   0.0917   0.2174   0.0310  -0.0462  -0.0725 -10.00    0.0
2167 161451.000   37.442686854 -122.235769274    11.7529   2   8   0.0870   0.0919   0.2165   0.0310  -0.0477  -0.0623  -9.00    0.0
2167 161452.000   37.442542138 -122.235862964    12.5730   2   5   0.0813   0.0922   0.2098   0.0297  -0.0493  -0.0720  -8.00    0.0
2167 161453.000   37.442400381 -122.235955359    13.6606   2  11   0.0804   0.0915   0.2102   0.0315  -0.0478  -0.0724  -7.00    0.0
2167 161454.000   37.442263721 -122.236044985    14.7278   2  10   0.0804   0.0918   0.2111   0.0326  -0.0467  -0.0722  -6.00    0.0
2167 161455.000   37.442134457 -122.236132755    15.8209   2   8   0.0804   0.0921   0.2127   0.0318  -0.0467  -0.0743  -5.00    0.0
2167 161456.000   37.442007780 -122.236219603    16.6901   2   9   0.0808   0.0923   0.2120   0.0326  -0.0482  -0.0750  -4.00    0.0
2167 161457.000   37.441881799 -122.236307745    17.4494   2   9   0.0799   0.0914   0.2029   0.0325  -0.0540  -0.0742  -3.00    0.0
2167 161458.000   37.441756820 -122.236396919    18.1402   2  13   0.0798   0.0913   0.2034   0.0324  -0.0540  -0.0744  -2.00    0.0
2167 161459.000   37.441627601 -122.236488050    18.7464   2  14   0.0802   0.0915   0.2061   0.0324  -0.0548  -0.0752  -1.00    0.0
2167 161460.000   37.441492513 -122.236586232    19.5327   2   9   0.0807   0.0923   0.2116   0.0327  -0.0578  -0.0768  -0.00    0.0
2167 161461.000   37.441359111 -122.236699634    20.6726   2   5   0.0802   0.0925   0.2113   0.0297  -0.0542  -0.0590   1.00    0.0
2167 161462.000   37.441224623 -122.236829964    21.4504   2   9   0.0873   0.0913   0.1884   0.0179  -0.0512  -0.0727   2.00    0.0
2167 161463.000   37.441094297 -122.236978532    22.4011   2  13   0.0806   0.0902   0.1887   0.0285  -0.0487  -0.0737   3.00    0.0
2167 161464.000   37.440965681 -122.237143750    23.5878   2   8   0.0793   0.0885   0.1890   0.0313  -0.0490  -0.0735   4.00    0.0
2167 161465.000   37.440845634 -122.237324483    24.8052   2  12   0.0784   0.0861   0.1884   0.0346  -0.0519  -0.0725   5.00    0.0
2167 161466.000   37.440736394 -122.237517259    25.9872   2  13   0.0785   0.0856   0.1890   0.0345  -0.0513  -0.0729   6.00    0.0
2167 161467.000   37.440632086 -122.237715098    27.2121   2  12   0.0791   0.0859   0.1906   0.0339  -0.0500  -0.0743   7.00    0.0
2167 161468.000   37.440527614 -122.237913544    28.4225   2   7   0.0792   0.0860   0.1901   0.0332  -0.0491  -0.0737   8.00    0.0
2167 161469.000   37.440416832 -122.238105412    29.8052   2   9   0.0769   0.0856   0.1886   0.0350  -0.0502  -0.0716   9.00    0.0
2167 161470.000   37.440299630 -122.238290386    30.9530   2   8   0.0774   0.0840   0.1882   0.0360  -0.0522  -0.0699  10.00    0.0
2167 161471.000   37.440179732 -122.238473232    31.9899   2  10   0.0766   0.0835   0.1877   0.0370  -0.0514  -0.0706  11.00    0.0
2167 161472.000   37.440055439 -122.238653694    33.0462   2  10   0.0765   0.0836   0.1876   0.0371  -0.0513  -0.0704  12.00    0.0
2167 161473.000   37.439925446 -122.238830899    34.1972   2  11   0.0766   0.0837   0.1875   0.0367  -0.0511  -0.0706  13.00    0.0
2167 161474.000   37.439790023 -122.239002081    35.1710   2  10   0.0770   0.0844   0.1879   0.0357  -0.0503  -0.0709  14.00    0.0
2167 161475.000   37.439651216 -122.239167364    36.0744   2  10   0.0769   0.0841   0.1882   0.0362  -0.0501  -0.0712  15.00    0.0
2167 161476.000   37.439509270 -122.239321269    37.3049   2  10   0.0767   0.0836   0.1879   0.0371  -0.0515  -0.0707 -14.00    0.0
2167 161477.000   37.439367397 -122.239463849    38.4838   2  11   0.0768   0.0839   0.1875   0.0364  -0.0512  -0.0705 -13.00    0.0
2167 161478.000   37.439225686 -122.239601057    39.4683   2   9   0.0766   0.0829   0.1874   0.0374  -0.0523  -0.0703 -12.00    0.0
2167 161479.000   37.439081928 -122.239729592    40.4429   2  13   0.0762   0.0819   0.1873   0.0386  -0.0526  -0.0702 -11.00    0.0
2167 161480.000   37.438936422 -122.239851961    41.3490   2  10   0.0762   0.0819   0.1872   0.0388  -0.0522  -0.0706 -10.00    0.0
2167 161481.000   37.438789268 -122.239968115    42.1427   2  15   0.0760   0.0819   0.1871   0.0387  -0.0521  -0.0705  -9.00    0.0
2167 161482.000   37.438638931 -122.240079347    42.6770   2  14   0.0759   0.0818   0.1871   0.0389  -0.0522  -0.0705  -8.00    0.0
2167 161483.000   37.438483780 -122.240185531    43.0523   2  13   0.0759   0.0816   0.1868   0.0388  -0.0514  -0.0703  -7.00    0.0
2167 161484.000   37.438323117 -122.240285317    43.4426   2  11   0.0759   0.0817   0.1872   0.0388  -0.0514  -0.0704  -6.00    0.0
2167 161485.000   37.438158436 -122.240378979    43.6955   2  12   0.0761   0.0817   0.1874   0.0388  -0.0516  -0.0706  -5.00    0.0
2167 161486.000   37.437988383 -122.240468141    44.0026   2  10   0.0760   0.0816   0.1866   0.0386  -0.0514  -0.0699  -4.00    0.0
2167 161487.000   37.437816361 -122.240552277    44.1951   2  14   0.0761   0.0815   0.1866   0.0386  -0.0518  -0.0698  -3.00    0.0
2167 161488.000   37.437643545 -122.240632968    44.2676   2  13   0.0762   0.0816   0.1869   0.0386  -0.0520  -0.0700  -2.00    0.0
2167 161489.000   37.437470654 -122.240715126    44.3877   2  10   0.0760   0.0816   0.1869   0.0386  -0.0522  -0.0697  -1.00    0.0
2167 161490.000   37.437298214 -122.240802074    44.6876   2  14   0.0760   0.0815   0.1865   0.0385  -0.0520  -0.0696  -0.00    0.0
2167 161491.000   37.437128493 -122.240894775    45.0834   2  14   0.0758   0.0815   0.1864   0.0385  -0.0519  -0.0695   1.00    0.0
2167 161492.000   37.436964659 -122.240994042    45.5559   2  17   0.0757   0.0815   0.1865   0.0386  -0.0517  -0.0696   2.00    0.0
2167 161493.000   37.436809576 -122.241103988    46.2257   2  14   0.0758   0.0818   0.1869   0.0387  -0.0520  -0.0699   3.00    0.0
2167 161494.000   37.436666807 -122.241229166    47.0088   2  11   0.0758   0.0816   0.1866   0.0385  -0.0511  -0.0696   4.00    0.0
2167 161495.000   37.436541052 -122.241368808    47.7620   2  11   0.0758   0.0812   0.1866   0.0382  -0.0516  -0.0694   5.00    0.0
2167 161496.000   37.436429949 -122.241517128    48.2726   2  13   0.0759   0.0813   0.1865   0.0383  -0.0516  -0.0692   6.00    0.0
2167 161497.000   37.436328189 -122.241666406    48.9771   2  15   0.0760   0.0813   0.1864   0.0384  -0.0518  -0.0688   7.00    0.0
2167 161498.000   37.436235290 -122.241812504    49.6408   2  15   0.0761   0.0814   0.1865   0.0384  -0.0516  -0.0688   8.00    0.0
2167 161499.000   37.436152928 -122.241953353    50.2932   2  12   0.0764   0.0816   0.1868   0.0386  -0.0514  -0.0687   9.00    0.0
2167 161500.000   37.436084074 -122.242084336    50.8841   2  10   0.0772   0.0820   0.1871   0.0391  -0.0519  -0.0689  10.00    0.0
2167 161501.000   37.436033993 -122.242197655    51.2247   2  10   0.0765   0.0819   0.1876   0.0364  -0.0540  -0.0701  11.00    0.0
2167 161502.000   37.436004590 -122.242287488    51.4595   2   8   0.0747   0.0826   0.1865   0.0383  -0.0529  -0.0716  12.00    0.0
2167 161503.000   37.435991221 -122.242352077    51.6319   2  12   0.0746   0.0815   0.1868   0.0375  -0.0505  -0.0717  13.00    0.0
2167 161504.000   37.435986679 -122.242390879    51.6300   2  12   0.0757   0.0836   0.1902   0.0379  -0.0512  -0.0740  14.00    0.0
2167 161505.000   37.435984804 -122.242412454    51.6616   2  12   0.0905   0.1042   0.2392   0.0583  -0.0948  -0.1112  15.00    0.0
2167 161506.000   37.435982720 -122.242446818    51.8484   2   6   0.0692   0.1262   0.1883  -0.0197  -0.0188  -0.0669 -14.00    0.0
2167 161507.000   37.435979431 -122.242493136    52.0249   2  10   0.0621   0.0524   0.1680  -0.0192  -0.0296  -0.0553 -13.00    0.0
2167 161508.000   37.435985127 -122.242571713    52.3708   2  13   0.0602   0.0499   0.1619  -0.0093  -0.0277  -0.0492 -12.00    0.0
2167 161509.000   37.435998732 -122.242661845    52.7424   2  10   0.0611   0.0496   0.1620  -0.0053  -0.0266  -0.0479 -11.00    0.0
2167 161510.000   37.436022237 -122.242760726    53.0701   2  11   0.0560   0.0491   0.1611  -0.0111  -0.0270  -0.0504 -10.00    0.0
2167 161511.000   37.436053061 -122.242868819    53.5205   2  12   0.0557   0.0489   0.1610  -0.0115  -0.0269  -0.0506  -9.00    0.0
2167 161512.000   37.436090127 -122.242984702    54.0634   2  11   0.0556   0.0489   0.1611  -0.0118  -0.0270  -0.0504  -8.00    0.0
2167 161513.000   37.436132481 -122.243104788    54.6714   2  10   0.0555   0.0487   0.1612  -0.0131  -0.0272  -0.0503  -7.00    0.0
2167 161514.000   37.436178321 -122.243226159    55.3170   2  15   0.0552   0.0487   0.1611  -0.0125  -0.0269  -0.0505  -6.00    0.0
2167 161515.000   37.436223644 -122.243342711    55.9761   2  16   0.0549   0.0487   0.1611  -0.0126  -0.0270  -0.0509  -5.00    0.0
2167 161516.000   37.436267518 -122.243453811    56.6097   2  16   0.0547   0.0486   0.1611  -0.0129  -0.0271  -0.0511  -4.00    0.0
2167 161517.000   37.436312073 -122.243564381    57.1925   2  13   0.0543   0.0486   0.1609  -0.0128  -0.0274  -0.0517  -3.00    0.0
2167 161518.000   37.436359263 -122.243677989    57.9175   2  14   0.0543   0.0486   0.1610  -0.0127  -0.0275  -0.0518  -2.00    0.0
2167 161519.000   37.436411352 -122.243796124    58.6277   2  17   0.0543   0.0486   0.1607  -0.0128  -0.0272  -0.0516  -1.00    0.0
2167 161520.000   37.436467194 -122.243914423    59.3219   2  16   0.0545   0.0486   0.1609  -0.0128  -0.0271  -0.0515  -0.00    0.0
2167 161521.000   37.436528514 -122.244031916    60.0572   2  16   0.0549   0.0486   0.1610  -0.0125  -0.0267  -0.0511   1.00    0.0
2167 161522.000   37.436595356 -122.244148236    60.7057   2  16   0.0545   0.0486   0.1607  -0.0126  -0.0268  -0.0519   2.00    0.0
2167 161523.000   37.436667551 -122.244264129    61.5328   2  16   0.0545   0.0486   0.1607  -0.0127  -0.0267  -0.0520   3.00    0.0
2167 161524.000   37.436745055 -122.244378731    62.3444   2  17   0.0546   0.0486   0.1608  -0.0127  -0.0266  -0.0520   4.00    0.0
2167 161525.000   37.436826632 -122.244492764    63.2208   2  18   0.0545   0.0487   0.1608  -0.0127  -0.0266  -0.0521   5.00    0.0
2167 161526.000   37.436910971 -122.244608037    64.0694   2  17   0.0546   0.0487   0.1609  -0.0126  -0.0266  -0.0522   6.00    0.0
2167 161527.000   37.436996988 -122.244724594    64.8774   2  17   0.0547   0.0487   0.1610  -0.0126  -0.0267  -0.0522   7.00    0.0
2167 161528.000   37.437084099 -122.244844546    65.6470   2  17   0.0549   0.0487   0.1610  -0.0126  -0.0266  -0.0521   8.00    0.0
2167 161529.000   37.437173774 -122.244968502    66.2663   2  17   0.0549   0.0487   0.1611  -0.0128  -0.0267  -0.0522   9.00    0.0
2167 161530.000   37.437266834 -122.245095667    66.9912   2  17   0.0548   0.0488   0.1612  -0.0128  -0.0268  -0.0524  10.00    0.0
2167 161531.000   37.437364259 -122.245227181    67.6436   2  17   0.0550   0.0488   0.1613  -0.0126  -0.0268  -0.0524  11.00    0.0
2167 161532.000   37.437465508 -122.245364105    68.3007   2  17   0.0552   0.0489   0.1614  -0.0125  -0.0269  -0.0523  12.00    0.0
2167 161533.000   37.437571762 -122.245505259    68.9963   2  16   0.0553   0.0488   0.1616  -0.0130  -0.0271  -0.0523  13.00    0.0
2167 161534.000   37.437681087 -122.245648149    69.7275   2  14   0.0554   0.0490   0.1615  -0.0117  -0.0273  -0.0532  14.00    0.0
2167 161535.000   37.437791697 -122.245789824    70.4813   2  11   0.0559   0.0492   0.1618  -0.0104  -0.0278  -0.0534  15.00    0.0
2167 161536.000   37.437901452 -122.245931576    71.2280   2  12   0.0557   0.0491   0.1616  -0.0114  -0.0273  -0.0534 -14.00    0.0
2167 161537.000   37.438008581 -122.246078025    71.9857   2  16   0.0551   0.0487   0.1613  -0.0136  -0.0262  -0.0527 -13.00    0.0
2167 161538.000   37.438117918 -122.246228899    72.7459   2  16   0.0549   0.0487   0.1613  -0.0138  -0.0262  -0.0527 -12.00    0.0
2167 161539.000   37.438233219 -122.246383825    73.5107   2  17   0.0550   0.0487   0.1613  -0.0137  -0.0262  -0.0527 -11.00    0.0
2167 161540.000   37.438354031 -122.246539954    74.3531   2  15   0.0552   0.0487   0.1615  -0.0135  -0.0262  -0.0526 -10.00    0.0
2167 161541.000   37.438478898 -122.246696063    75.1540   2  15   0.0555   0.0487   0.1617  -0.0135  -0.0264  -0.0525  -9.00    0.0
2167 161542.000   37.438604286 -122.246849081    75.9051   2  14   0.0551   0.0487   0.1614  -0.0136  -0.0263  -0.0533  -8.00    0.0
2167 161543.000   37.438729570 -122.247001287    76.7136   2  15   0.0548   0.0487   0.1614  -0.0139  -0.0264  -0.0535  -7.00    0.0
2167 161544.000   37.438852619 -122.247151801    77.4987   2  15   0.0548   0.0487   0.1615  -0.0140  -0.0265  -0.0534  -6.00    0.0
2167 161545.000   37.438974450 -122.247303667    78.2854   2  15   0.0549   0.0487   0.1614  -0.0140  -0.0263  -0.0533  -5.00    0.0
2167 161546.000   37.439096661 -122.247457423    79.0693   2  16   0.0549   0.0487   0.1613  -0.0140  -0.0263  -0.0533  -4.00    0.0
2167 161547.000   37.439221052 -122.247615047    79.8816   2  16   0.0550   0.0487   0.1613  -0.0140  -0.0262  -0.0532  -3.00    0.0
2167 161548.000   37.439348246 -122.247776434    80.6506   2  16   0.0551   0.0487   0.1613  -0.0140  -0.0261  -0.0532  -2.00    0.0
2167 161549.000   37.439476859 -122.247940369    81.5328   2  16   0.0551   0.0487   0.1613  -0.0139  -0.0261  -0.0533  -1.00    0.0
2167 161550.000   37.439606658 -122.248105812    82.2975   2  16   0.0548   0.0487   0.1613  -0.0140  -0.0262  -0.0536  -0.00    0.0
2167 161551.000   37.439737584 -122.248271381    83.1200   2  16   0.0548   0.0487   0.1614  -0.0141  -0.0262  -0.0536   1.00    0.0
2167 161552.000   37.439868149 -122.248438001    83.9585   2  14   0.0548   0.0487   0.1614  -0.0141  -0.0262  -0.0537   2.00    0.0
2167 161553.000   37.439999084 -122.248606977    84.7948   2  15   0.0548   0.0487   0.1615  -0.0140  -0.0262  -0.0537   3.00    0.0
2167 161554.000   37.440129826 -122.248776837    85.6579   2  14   0.0548   0.0487   0.1614  -0.0141  -0.0261  -0.0536   4.00    0.0
2167 161555.000   37.440261261 -122.248948155    86.5503   2  13   0.0548   0.0487   0.1614  -0.0142  -0.0261  -0.0536   5.00    0.0
2167 161556.000   37.440392869 -122.249121247    87.3570   2  14   0.0548   0.0487   0.1614  -0.0142  -0.0260  -0.0536   6.00    0.0
2167 161557.000   37.440524644 -122.249294331    88.2247   2  14   0.0547   0.0487   0.1614  -0.0144  -0.0261  -0.0536   7.00    0.0
2167 161558.000   37.440656440 -122.249466671    89.0484   2  14   0.0548   0.0487   0.1614  -0.0143  -0.0261  -0.0535   8.00    0.0
2167 161559.000   37.440788289 -122.249638722    89.8423   2  14   0.0548   0.0487   0.1614  -0.0143  -0.0261  -0.0535   9.00    0.0
2167 161560.000   37.440921536 -122.249811596    90.7037   2  13   0.0550   0.0487   0.1613  -0.0142  -0.0260  -0.0534  10.00    0.0
2167 161561.000   37.441056104 -122.249985795    91.5374   2  15   0.0551   0.0487   0.1614  -0.0142  -0.0262  -0.0533  11.00    0.0
2167 161562.000   37.441192143 -122.250162165    92.3957   2  15   0.0551   0.0487   0.1614  -0.0144  -0.0263  -0.0533  12.00    0.0
2167 161563.000   37.441329516 -122.250340727    93.2616   2  13   0.0547   0.0487   0.1613  -0.0147  -0.0265  -0.0536  13.00    0.0
2167 161564.000   37.441468358 -122.250521235    94.2372   2  12   0.0546   0.0487   0.1612  -0.0144  -0.0263  -0.0536  14.00    0.0
2167 161565.000   37.441608133 -122.250703632    95.2136   2  14   0.0546   0.0487   0.1612  -0.0145  -0.0263  -0.0535  15.00    0.0
2167 161566.000   37.441748699 -122.250887736    96.2929   2  15   0.0546   0.0487   0.1612  -0.0144  -0.0264  -0.0533 -14.00    0.0
2167 161567.000   37.441890081 -122.251073220    97.2976   2  15   0.0546   0.0487   0.1613  -0.0144  -0.0266  -0.0533 -13.00    0.0
2167 161568.000   37.442032150 -122.251259498    98.3849   2  14   0.0546   0.0488   0.1614  -0.0144  -0.0268  -0.0532 -12.00    0.0
2167 161569.000   37.442171991 -122.251446719    99.3446   2  15   0.0547   0.0488   0.1615  -0.0145  -0.0270  -0.0530 -11.00    0.0
2167 161570.000   37.442307995 -122.251637705   100.2675   2  15   0.0548   0.0489   0.1618  -0.0146  -0.0275  -0.0527 -10.00    0.0
2167 161571.000   37.442439416 -122.251832836   101.1490   2  13   0.0549   0.0490   0.1618  -0.0142  -0.0276  -0.0529  -9.00    0.0
2167 161572.000   37.442567152 -122.252031464   102.0246   2  12   0.0548   0.0492   0.1621  -0.0142  -0.0285  -0.0529  -8.00    0.0
2167 161573.000   37.442690070 -122.252233349   102.9026   2  16   0.0549   0.0491   0.1620  -0.0142  -0.0281  -0.0526  -7.00    0.0
2167 161574.000   37.442808216 -122.252439117   103.8038   2  12   0.0551   0.0493   0.1622  -0.0140  -0.0284  -0.0523  -6.00    0.0
2167 161575.000   37.442921736 -122.252648394   104.6760   2  12   0.0553   0.0497   0.1625  -0.0132  -0.0297  -0.0523  -5.00    0.0
2167 161576.000   37.443030547 -122.252860439   105.5213   2   9   0.0556   0.0497   0.1622  -0.0127  -0.0292  -0.0523  -4.00    0.0
2167 161577.000   37.443135212 -122.253075603   106.3714   2  13   0.0546   0.0490   0.1612  -0.0143  -0.0280  -0.0531  -3.00    0.0
2167 161578.000   37.443235679 -122.253293274   107.2363   2   9   0.0546   0.0490   0.1610  -0.0137  -0.0278  -0.0534  -2.00    0.0
2167 161579.000   37.443332784 -122.253513134   108.0540   2  13   0.0548   0.0493   0.1609  -0.0126  -0.0279  -0.0535  -1.00    0.0
2167 161580.000   37.443425937 -122.253736322   108.9633   2   9   0.0549   0.0494   0.1612  -0.0126  -0.0284  -0.0535  -0.00    0.0
2167 161581.000   37.443514617 -122.253962305   109.9304   2  11   0.0553   0.0496   0.1621  -0.0125  -0.0299  -0.0532   1.00    0.0
2167 161582.000   37.443598749 -122.254190295   110.8253   2  12   0.0550   0.0501   0.1629  -0.0114  -0.0320  -0.0544   2.00    0.0
2167 161583.000   37.443677554 -122.254419472   111.6444   2  11   0.0543   0.0491   0.1622  -0.0133  -0.0296  -0.0542   3.00    0.0
2167 161584.000   37.443752136 -122.254650097   112.4598   2  13   0.0540   0.0487   0.1611  -0.0140  -0.0279  -0.0537   4.00    0.0
2167 161585.000   37.443821518 -122.254883275   113.3248   2  16   0.0539   0.0486   0.1606  -0.0141  -0.0271  -0.0534   5.00    0.0
2167 161586.000   37.443886272 -122.255115500   114.1846   2  15   0.0540   0.0485   0.1605  -0.0141  -0.0267  -0.0533   6.00    0.0
2167 161587.000   37.443946480 -122.255346851   115.0911   2  15   0.0538   0.0484   0.1606  -0.0147  -0.0269  -0.0534   7.00    0.0
2167 161588.000   37.444003085 -122.255579851   115.8995   2  13   0.0538   0.0484   0.1607  -0.0147  -0.0270  -0.0535   8.00    0.0
2167 161589.000   37.444054955 -122.255813420   116.7336   2  13   0.0539   0.0484   0.1610  -0.0146  -0.0270  -0.0537   9.00    0.0
2167 161590.000   37.444102147 -122.256047681   117.6006   2  13   0.0539   0.0485   0.1612  -0.0142  -0.0268  -0.0540  10.00    0.0
2167 161591.000   37.444144834 -122.256282071   118.3855   2  11   0.0541   0.0486   0.1610  -0.0142  -0.0265  -0.0536  11.00    0.0
2167 161592.000   37.444182663 -122.256517115   119.1155   2  13   0.0541   0.0483   0.1607  -0.0143  -0.0269  -0.0535  12.00    0.0
2167 161593.000   37.444216227 -122.256752125   119.9211   2  16   0.0542   0.0482   0.1606  -0.0146  -0.0268  -0.0535  13.00    0.0
2167 161594.000   37.444245980 -122.256987354   120.6103   2  15   0.0539   0.0482   0.1604  -0.0146  -0.0268  -0.0535  14.00    0.0
2167 161595.000   37.444272263 -122.257223370   121.2424   2  16   0.0540   0.0484   0.1605  -0.0143  -0.0270  -0.0536  15.00    0.0
2167 161596.000   37.444292665 -122.257460564   121.9569   2  14   0.0540   0.0485   0.1605  -0.0138  -0.0274  -0.0538 -14.00    0.0
2167 161597.000   37.444309418 -122.257697745   122.5565   2  14   0.0538   0.0483   0.1601  -0.0144  -0.0265  -0.0535 -13.00    0.0
2167 161598.000   37.444321355 -122.257935613   123.0725   2  16   0.0537   0.0481   0.1601  -0.0148  -0.0264  -0.0535 -12.00    0.0
2167 161599.000   37.444328927 -122.258174559   123.5542   2  15   0.0537   0.0480   0.1600  -0.0150  -0.0262  -0.0535 -11.00    0.0
2167 161600.000   37.444332454 -122.258414408   124.0967   2  17   0.0537   0.0480   0.1601  -0.0149  -0.0262  -0.0535 -10.00    0.0
2167 161601.000   37.444331554 -122.258655512   124.6588   2  16   0.0538   0.0481   0.1602  -0.0148  -0.0263  -0.0535  -9.00    0.0
2167 161602.000   37.444325499 -122.258897928   125.0454   2  16   0.0539   0.0483   0.1604  -0.0145  -0.0266  -0.0536  -8.00    0.0
2167 161603.000   37.444315140 -122.259142777   125.4326   2  15   0.0539   0.0484   0.1604  -0.0143  -0.0267  -0.0536  -7.00    0.0
2167 161604.000   37.444301070 -122.259389071   125.6776   2  14   0.0540   0.0484   0.1606  -0.0143  -0.0268  -0.0538  -6.00    0.0
2167 161605.000   37.444283901 -122.259638382   125.8696   2  12   0.0541   0.0483   0.1607  -0.0141  -0.0269  -0.0539  -5.00    0.0
2167 161606.000   37.444263789 -122.259892291   126.0272   2  13   0.0544   0.0485   0.1611  -0.0137  -0.0277  -0.0542  -4.00    0.0
2167 161607.000   37.444243651 -122.260149394   126.1788   2  12   0.0542   0.0485   0.1612  -0.0139  -0.0277  -0.0541  -3.00    0.0
2167 161608.000   37.444223438 -122.260409114   126.2844   2  12   0.0544   0.0485   0.1613  -0.0137  -0.0279  -0.0544  -2.00    0.0
2167 161609.000   37.444202604 -122.260672861   126.3608   2  12   0.0545   0.0485   0.1615  -0.0135  -0.0280  -0.0547  -1.00    0.0
2167 161610.000   37.444180944 -122.260939882   126.4747   2  10   0.0543   0.0485   0.1615  -0.0137  -0.0279  -0.0545  -0.00    0.0
2167 161611.000   37.444159260 -122.261204007   126.6357   2  11   0.0547   0.0485   0.1620  -0.0134  -0.0282  -0.0551   1.00    0.0
2167 161612.000   37.444137738 -122.261464047   126.7640   2  12   0.0544   0.0484   0.1615  -0.0136  -0.0277  -0.0547   2.00    0.0
2167 161613.000   37.444116106 -122.261719798   126.9348   2  12   0.0544   0.0484   0.1614  -0.0135  -0.0276  -0.0547   3.00    0.0
2167 161614.000   37.444095664 -122.261971681   127.0048   2  10   0.0543   0.0484   0.1612  -0.0136  -0.0275  -0.0544   4.00    0.0
2167 161615.000   37.444076216 -122.262219631   127.1396   2  13   0.0545   0.0485   0.1614  -0.0134  -0.0278  -0.0546   5.00    0.0
2167 161616.000   37.444056969 -122.262463523   127.2803   2  13   0.0545   0.0486   0.1615  -0.0134  -0.0282  -0.0545   6.00    0.0
2167 161617.000   37.444038620 -122.262703660   127.3369   2  10   0.0544   0.0485   0.1616  -0.0136  -0.0281  -0.0543   7.00    0.0
2167 161618.000   37.444021160 -122.262940189   127.3822   2  14   0.0543   0.0484   0.1614  -0.0139  -0.0279  -0.0541   8.00    0.0
2167 161619.000   37.444004441 -122.263173134   127.4694   2  16   0.0542   0.0484   0.1612  -0.0139  -0.0276  -0.0541   9.00    0.0
2167 161620.000   37.443987500 -122.263402342   127.5451   2  15   0.0543   0.0485   0.1613  -0.0138  -0.0278  -0.0542  10.00    0.0
2167 161621.000   37.443970075 -122.263628444   127.6204   2  14   0.0543   0.0485   0.1613  -0.0136  -0.0276  -0.0543  11.00    0.0
2167 161622.000   37.443952940 -122.263851088   127.7273   2  13   0.0544   0.0485   0.1615  -0.0135  -0.0276  -0.0546  12.00    0.0
2167 161623.000   37.443937641 -122.264074863   127.7342   2  14   0.0543   0.0485   0.1612  -0.0137  -0.0273  -0.0542  13.00    0.0
2167 161624.000   37.443925185 -122.264303644   127.7272   2  16   0.0542   0.0484   0.1608  -0.0143  -0.0268  -0.0537  14.00    0.0
2167 161625.000   37.443917990 -122.264537833   127.6973   2  13   0.0542   0.0486   0.1607  -0.0144  -0.0270  -0.0536  15.00    0.0
2167 161626.000   37.443915140 -122.264775970   127.7244   2  15   0.0542   0.0487   0.1607  -0.0146  -0.0270  -0.0534 -14.00    0.0
2167 161627.000   37.443916249 -122.265015288   127.6662   2  13   0.0542   0.0485   0.1608  -0.0145  -0.0267  -0.0535 -13.00    0.0
2167 161628.000   37.443921137 -122.265259040   127.5729   2  15   0.0543   0.0487   0.1611  -0.0147  -0.0270  -0.0538 -12.00    0.0
2167 161629.000   37.443930029 -122.265506952   127.4299   2  15   0.0544   0.0486   0.1612  -0.0146  -0.0270  -0.0540 -11.00    0.0
2167 161630.000   37.443943542 -122.265760079   127.2519   2  15   0.0545   0.0487   0.1615  -0.0141  -0.0277  -0.0542 -10.00    0.0
2167 161631.000   37.443962410 -122.266017041   127.0847   2  13   0.0546   0.0487   0.1615  -0.0136  -0.0279  -0.0543  -9.00    0.0
2167 161632.000   37.443986812 -122.266278517   126.8510   2  14   0.0548   0.0488   0.1616  -0.0133  -0.0283  -0.0545  -8.00    0.0
2167 161633.000   37.444016582 -122.266544450   126.5647   2  12   0.0548   0.0487   0.1618  -0.0137  -0.0284  -0.0547  -7.00    0.0
2167 161634.000   37.444051618 -122.266816474   126.2173   2  12   0.0546   0.0487   0.1620  -0.0141  -0.0282  -0.0545  -6.00    0.0
2167 161635.000   37.444091573 -122.267093608   125.8961   2  14   0.0546   0.0486   0.1615  -0.0143  -0.0275  -0.0541  -5.00    0.0
2167 161636.000   37.444137789 -122.267374265   125.5265   2  13   0.0545   0.0485   0.1614  -0.0146  -0.0273  -0.0539  -4.00    0.0
2167 161637.000   37.444191360 -122.267657291   125.1900   2  12   0.0544   0.0487   0.1614  -0.0146  -0.0274  -0.0538  -3.00    0.0
2167 161638.000   37.444251986 -122.267938344   124.8033   2  13   0.0545   0.0488   0.1612  -0.0144  -0.0270  -0.0538  -2.00    0.0
2167 161639.000   37.444318087 -122.268215469   124.4168   2  11   0.0545   0.0487   0.1612  -0.0142  -0.0272  -0.0538  -1.00    0.0
2167 161640.000   37.444389799 -122.268488286   124.0785   2  14   0.0547   0.0489   0.1614  -0.0139  -0.0279  -0.0540  -0.00    0.0
2167 161641.000   37.444466308 -122.268756714   123.6766   2  14   0.0545   0.0486   0.1612  -0.0139  -0.0274  -0.0541   1.00    0.0
2167 161642.000   37.444547516 -122.269022517   123.6439   2  11   0.0546   0.0486   0.1612  -0.0135  -0.0273  -0.0541   2.00    0.0
2167 161643.000   37.444634451 -122.269282496   122.9590   2  10   0.0548   0.0487   0.1613  -0.0130  -0.0273  -0.0541   3.00    0.0
2167 161644.000   37.444726734 -122.269544041   122.5778   2  12   0.0551   0.0486   0.1612  -0.0129  -0.0268  -0.0539   4.00    0.0
2167 161645.000   37.444823736 -122.269805652   122.2011   2   8   0.0551   0.0489   0.1611  -0.0112  -0.0272  -0.0553   5.00    0.0
2167 161646.000   37.444926481 -122.270065948   121.8371   2   7   0.0564   0.0490   0.1617  -0.0101  -0.0279  -0.0558   6.00    0.0
2167 161647.000   37.445033719 -122.270325254   121.3943   2   7   0.0565   0.0491   0.1623  -0.0124  -0.0293  -0.0549   7.00    0.0
2167 161648.000   37.445147844 -122.270582817   121.0704   2  13   0.0553   0.0486   0.1615  -0.0144  -0.0280  -0.0536   8.00    0.0
2167 161649.000   37.445268921 -122.270837636   120.8889   2  11   0.0551   0.0484   0.1611  -0.0152  -0.0272  -0.0524   9.00    0.0
2167 161650.000   37.445395760 -122.271089757   120.7022   2   9   0.0549   0.0485   0.1614  -0.0161  -0.0280  -0.0519  10.00    0.0
2167 161651.000   37.445529632 -122.271338258   120.6272   2  11   0.0549   0.0484   0.1617  -0.0166  -0.0280  -0.0512  11.00    0.0
2167 161652.000   37.445669368 -122.271583217   120.5104   2  11   0.0549   0.0482   0.1611  -0.0168  -0.0272  -0.0515  12.00    0.0
2167 161653.000   37.445815488 -122.271824001   120.5145   2  14   0.0546   0.0481   0.1608  -0.0169  -0.0266  -0.0517  13.00    0.0
2167 161654.000   37.445966097 -122.272061286   120.6457   2  14   0.0546   0.0481   0.1607  -0.0169  -0.0264  -0.0518  14.00    0.0
2167 161655.000   37.446120788 -122.272294480   120.9033   2  16   0.0547   0.0481   0.1608  -0.0169  -0.0263  -0.0517  15.00    0.0
2167 161656.000   37.446278511 -122.272523597   121.1218   2  15   0.0548   0.0481   0.1609  -0.0169  -0.0263  -0.0516 -14.00    0.0
2167 161657.000   37.446437089 -122.272751002   121.4687   2  16   0.0547   0.0481   0.1609  -0.0171  -0.0264  -0.0519 -13.00    0.0
2167 161658.000   37.446595065 -122.272977887   121.8416   2  16   0.0546   0.0481   0.1608  -0.0170  -0.0264  -0.0520 -12.00    0.0
2167 161659.000   37.446753029 -122.273203801   122.2171   2  17   0.0545   0.0482   0.1608  -0.0168  -0.0265  -0.0521 -11.00    0.0
2167 161660.000   37.446910671 -122.273428764   122.7201   2  14   0.0546   0.0483   0.1611  -0.0164  -0.0270  -0.0523 -10.00    0.0
2167 161661.000   37.447067357 -122.273653416   123.3635   2  12   0.0548   0.0486   0.1618  -0.0158  -0.0282  -0.0526  -9.00    0.0
2167 161662.000   37.447222926 -122.273876899   123.8994   2  11   0.0548   0.0488   0.1619  -0.0157  -0.0285  -0.0526  -8.00    0.0
2167 161663.000   37.447377558 -122.274099623   124.5888   2  12   0.0547   0.0487   0.1618  -0.0158  -0.0283  -0.0526  -7.00    0.0
2167 161664.000   37.447531774 -122.274320783   125.3031   2  13   0.0547   0.0487   0.1617  -0.0159  -0.0281  -0.0525  -6.00    0.0
2167 161665.000   37.447685165 -122.274540386   125.9988   2  11   0.0547   0.0489   0.1616  -0.0157  -0.0280  -0.0525  -5.00    0.0
2167 161666.000   37.447838152 -122.274758468   126.6622   2  12   0.0548   0.0493   0.1618  -0.0152  -0.0284  -0.0525  -4.00    0.0
2167 161667.000   37.447989979 -122.274976512   127.4210   2   8   0.0549   0.0505   0.1620  -0.0141  -0.0296  -0.0528  -3.00    0.0
2167 161668.000   37.448141717 -122.275191558   128.1635   2   9   0.0549   0.0506   0.1624  -0.0147  -0.0314  -0.0529  -2.00    0.0
2167 161669.000   37.448293220 -122.275407545   128.9327   2  11   0.0548   0.0496   0.1624  -0.0156  -0.0306  -0.0525  -1.00    0.0
2167 161670.000   37.448445827 -122.275623230   129.6491   2  12   0.0552   0.0495   0.1629  -0.0165  -0.0313  -0.0519  -0.00    0.0
2167 161671.000   37.448600840 -122.275839664   130.3097   2  11   0.0553   0.0496   0.1632  -0.0165  -0.0320  -0.0521   1.00    0.0
2167 161672.000   37.448756674 -122.276057683   131.0122   2  10   0.0550   0.0493   0.1628  -0.0168  -0.0312  -0.0520   2.00    0.0
2167 161673.000   37.448911772 -122.276277459   131.7813   2  13   0.0549   0.0491   0.1625  -0.0168  -0.0304  -0.0519   3.00    0.0
2167 161674.000   37.449063973 -122.276498790   132.5688   2  11   0.0549   0.0491   0.1624  -0.0169  -0.0303  -0.0517   4.00    0.0
2167 161675.000   37.449214393 -122.276721504   133.1458   2  12   0.0550   0.0491   0.1627  -0.0170  -0.0305  -0.0515   5.00    0.0
2167 161676.000   37.449364426 -122.276946237   133.8846   2  10   0.0549   0.0493   0.1626  -0.0167  -0.0306  -0.0517   6.00    0.0
2167 161677.000   37.449514913 -122.277170925   134.5562   2  12   0.0548   0.0492   0.1626  -0.0167  -0.0308  -0.0518   7.00    0.0
2167 161678.000   37.449662865 -122.277392874   135.0782   2  14   0.0548   0.0488   0.1621  -0.0170  -0.0296  -0.0518   8.00    0.0
2167 161679.000   37.449807015 -122.277612528   135.4905   2  17   0.0548   0.0488   0.1621  -0.0173  -0.0295  -0.0519   9.00    0.0
2167 161680.000   37.449949030 -122.277829061   135.9397   2  13   0.0547   0.0490   0.1628  -0.0176  -0.0307  -0.0519  10.00    0.0
2167 161681.000   37.450090103 -122.278044199   136.3470   2  15   0.0548   0.0490   0.1628  -0.0176  -0.0305  -0.0519  11.00    0.0
2167 161682.000   37.450231053 -122.278260297   136.7084   2  13   0.0547   0.0491   0.1630  -0.0175  -0.0310  -0.0523  12.00    0.0
2167 161683.000   37.450372791 -122.278475558   137.1883   2   9   0.0547   0.0491   0.1634  -0.0178  -0.0314  -0.0521  13.00    0.0
2167 161684.000   37.450516283 -122.278688134   137.5509   2  15   0.0548   0.0492   0.1636  -0.0183  -0.0317  -0.0517  14.00    0.0
2167 161685.000   37.450657131 -122.278901257   137.6925   2  14   0.0550   0.0488   0.1627  -0.0182  -0.0297  -0.0517  15.00    0.0
2167 161686.000   37.450799337 -122.279115780   137.8641   2  11   0.0549   0.0486   0.1624  -0.0185  -0.0290  -0.0518 -14.00    0.0
2167 161687.000   37.450941692 -122.279332336   137.9950   2  13   0.0550   0.0489   0.1624  -0.0178  -0.0292  -0.0523 -13.00    0.0
2167 161688.000   37.451085518 -122.279550061   138.0217   2  14   0.0549   0.0486   0.1621  -0.0182  -0.0283  -0.0522 -12.00    0.0
2167 161689.000   37.451230674 -122.279768547   138.0004   2  14   0.0549   0.0486   0.1622  -0.0184  -0.0282  -0.0522 -11.00    0.0
2167 161690.000   37.451376109 -122.279988279   138.0454   2  16   0.0548   0.0485   0.1620  -0.0186  -0.0278  -0.0522 -10.00    0.0
2167 161691.000   37.451521438 -122.280209293   138.0766   2  16   0.0549   0.0484   0.1618  -0.0187  -0.0275  -0.0522  -9.00    0.0
2167 161692.000   37.451666554 -122.280431894   138.0610   2  15   0.0549   0.0484   0.1619  -0.0188  -0.0273  -0.0522  -8.00    0.0
2167 161693.000   37.451810783 -122.280656121   137.8624   2  16   0.0552   0.0484   0.1620  -0.0188  -0.0271  -0.0520  -7.00    0.0
2167 161694.000   37.451954705 -122.280879795   137.7606   2  15   0.0551   0.0484   0.1622  -0.0189  -0.0271  -0.0521  -6.00    0.0
2167 161695.000   37.452099970 -122.281102626   137.5562   2  16   0.0550   0.0484   0.1622  -0.0189  -0.0270  -0.0523  -5.00    0.0
2167 161696.000   37.452246967 -122.281325072   137.2961   2  15   0.0550   0.0484   0.1623  -0.0189  -0.0271  -0.0524  -4.00    0.0
2167 161697.000   37.452395388 -122.281548374   137.0313   2  16   0.0551   0.0484   0.1623  -0.0189  -0.0272  -0.0524  -3.00    0.0
2167 161698.000   37.452544382 -122.281774860   136.6984   2  15   0.0552   0.0485   0.1624  -0.0188  -0.0273  -0.0526  -2.00    0.0
2167 161699.000   37.452692994 -122.282005110   136.4654   2  10   0.0551   0.0485   0.1629  -0.0189  -0.0279  -0.0528  -1.00    0.0
2167 161700.000   37.452844600 -122.282237788   136.0649   2  10   0.0551   0.0487   0.1637  -0.0189  -0.0288  -0.0528  -0.00    0.0
2167 161701.000   37.452999521 -122.282473152   135.5481   2  10   0.0554   0.0487   0.1633  -0.0184  -0.0284  -0.0529   1.00    0.0
2167 161702.000   37.453157294 -122.282711980   135.0249   2  15   0.0555   0.0486   0.1630  -0.0188  -0.0281  -0.0526   2.00    0.0
2167 161703.000   37.453317988 -122.282954540   134.4120   2  15   0.0553   0.0485   0.1627  -0.0189  -0.0277  -0.0528   3.00    0.0
2167 161704.000   37.453481485 -122.283200993   133.7917   2  14   0.0552   0.0485   0.1625  -0.0190  -0.0277  -0.0528   4.00    0.0
2167 161705.000   37.453646859 -122.283451896   133.1380   2  15   0.0552   0.0485   0.1624  -0.0190  -0.0275  -0.0528   5.00    0.0
2167 161706.000   37.453813747 -122.283707814   132.5324   2  15   0.0552   0.0485   0.1623  -0.0190  -0.0274  -0.0528   6.00    0.0
2167 161707.000   37.453982286 -122.283965897   131.8845   2  12   0.0552   0.0485   0.1627  -0.0189  -0.0276  -0.0530   7.00    0.0
2167 161708.000   37.454150534 -122.284222724   131.1861   2  12   0.0552   0.0485   0.1630  -0.0189  -0.0280  -0.0531   8.00    0.0
2167 161709.000   37.454318992 -122.284477811   130.5783   2  14   0.0552   0.0485   0.1629  -0.0189  -0.0277  -0.0532   9.00    0.0
2167 161710.000   37.454487864 -122.284732275   129.8929   2  13   0.0552   0.0485   0.1627  -0.0188  -0.0275  -0.0531  10.00    0.0
2167 161711.000   37.454656764 -122.284986913   129.2808   2  14   0.0552   0.0486   0.1628  -0.0189  -0.0278  -0.0529  11.00    0.0
2167 161712.000   37.454825484 -122.285241778   128.6003   2  14   0.0557   0.0486   0.1627  -0.0188  -0.0276  -0.0525  12.00    0.0
2167 161713.000   37.454993175 -122.285498128   127.8775   2  15   0.0556   0.0485   0.1624  -0.0188  -0.0273  -0.0525  13.00    0.0
2167 161714.000   37.455160935 -122.285755207   127.2141   2  15   0.0555   0.0485   0.1623  -0.0189  -0.0273  -0.0526  14.00    0.0
2167 161715.000   37.455329478 -122.286012013   126.4943   2  14   0.0553   0.0485   0.1624  -0.0190  -0.0273  -0.0528  15.00    0.0
2167 161716.000   37.455498436 -122.286268919   125.7787   2  16   0.0552   0.0485   0.1622  -0.0190  -0.0272  -0.0528 -14.00    0.0
2167 161717.000   37.455666944 -122.286527123   125.0668   2  14   0.0552   0.0485   0.1621  -0.0190  -0.0270  -0.0528 -13.00    0.0
2167 161718.000   37.455837039 -122.286785370   124.2979   2  15   0.0551   0.0485   0.1622  -0.0190  -0.0271  -0.0529 -12.00    0.0
2167 161719.000   37.456010579 -122.287041780   123.5950   2  16   0.0551   0.0485   0.1622  -0.0191  -0.0271  -0.0528 -11.00    0.0
2167 161720.000   37.456188456 -122.287294747   123.0893   2  16   0.0553   0.0485   0.1620  -0.0188  -0.0268  -0.0526 -10.00    0.0
2167 161721.000   37.456372807 -122.287541055   122.7120   2  14   0.0553   0.0485   0.1620  -0.0186  -0.0267  -0.0526  -9.00    0.0
2167 161722.000   37.456565060 -122.287779044   122.5046   2  14   0.0553   0.0485   0.1619  -0.0187  -0.0268  -0.0525  -8.00    0.0
2167 161723.000   37.456765047 -122.288008765   122.3692   2  15   0.0552   0.0485   0.1619  -0.0189  -0.0271  -0.0523  -7.00    0.0
2167 161724.000   37.456971750 -122.288230857   122.3303   2  15   0.0551   0.0485   0.1618  -0.0190  -0.0272  -0.0524  -6.00    0.0
2167 161725.000   37.457184408 -122.288445710   122.5077   2  15   0.0550   0.0484   0.1618  -0.0191  -0.0272  -0.0525  -5.00    0.0
2167 161726.000   37.457401582 -122.288650090   122.7197   2  14   0.0549   0.0484   0.1616  -0.0191  -0.0272  -0.0525  -4.00    0.0
2167 161727.000   37.457622927 -122.288843888   123.1453   2  17   0.0549   0.0484   0.1615  -0.0190  -0.0272  -0.0523  -3.00    0.0
2167 161728.000   37.457848482 -122.289027677   123.6525   2  17   0.0548   0.0483   0.1614  -0.0189  -0.0271  -0.0523  -2.00    0.0
2167 161729.000   37.458077854 -122.289201065   124.2317   2  16   0.0547   0.0483   0.1612  -0.0189  -0.0271  -0.0522  -1.00    0.0
2167 161730.000   37.458310211 -122.289365231   124.8363   2  14   0.0547   0.0483   0.1612  -0.0189  -0.0271  -0.0521  -0.00    0.0
2167 161731.000   37.458545133 -122.289518824   125.4274   2  15   0.0547   0.0483   0.1613  -0.0188  -0.0272  -0.0518   1.00    0.0
2167 161732.000   37.458783632 -122.289660656   126.0634   2  14   0.0547   0.0485   0.1612  -0.0185  -0.0270  -0.0517   2.00    0.0
2167 161733.000   37.459024209 -122.289791339   126.5933   2  15   0.0547   0.0486   0.1613  -0.0185  -0.0269  -0.0517   3.00    0.0
2167 161734.000   37.459266904 -122.289912251   127.1934   2  17   0.0547   0.0486   0.1612  -0.0184  -0.0268  -0.0516   4.00    0.0
2167 161735.000   37.459512085 -122.290022683   127.7181   2  16   0.0546   0.0485   0.1611  -0.0185  -0.0269  -0.0516   5.00    0.0
2167 161736.000   37.459759322 -122.290122891   128.2990   2  16   0.0547   0.0484   0.1612  -0.0185  -0.0269  -0.0516   6.00    0.0
2167 161737.000   37.460007724 -122.290214416   128.8791   2  14   0.0554   0.0484   0.1615  -0.0190  -0.0271  -0.0507   7.00    0.0
2167 161738.000   37.460256725 -122.290296852   129.8201   2  15   0.0553   0.0484   0.1615  -0.0187  -0.0271  -0.0507   8.00    0.0
2167 161739.000   37.460508355 -122.290367787   130.2907   2  14   0.0553   0.0484   0.1621  -0.0187  -0.0275  -0.0508   9.00    0.0
2167 161740.000   37.460762832 -122.290427144   130.8116   2  10   0.0565   0.0494   0.1628  -0.0148  -0.0289  -0.0521  10.00    0.0
2167 161741.000   37.461020046 -122.290476544   131.3977   2   9   0.0575   0.0501   0.1655  -0.0128  -0.0316  -0.0530  11.00    0.0
2167 161742.000   37.461280221 -122.290515974   131.8309   2   8   0.0576   0.0539   0.1774  -0.0078  -0.0466  -0.0557  12.00    0.0
2167 161743.000   37.461543819 -122.290538151   131.8015   2   5   0.0590   0.0713   0.1849   0.0221  -0.0620  -0.0567  13.00    0.0
2167 161744.000   37.461806979 -122.290555471   132.5949   2  10   0.0590   0.0713   0.1829   0.0209  -0.0602  -0.0558  14.00    0.0
2167 161745.000   37.462070159 -122.290568867   133.3947   2  11   0.0588   0.0679   0.1812   0.0180  -0.0582  -0.0555  15.00    0.0
2167 161746.000   37.462333173 -122.290580719   134.1337   2  10   0.0602   0.0673   0.1813   0.0119  -0.0586  -0.0524 -14.00    0.0
2167 161747.000   37.462597126 -122.290589577   134.6608   2   9   0.0600   0.0669   0.1806   0.0110  -0.0580  -0.0525 -13.00    0.0
2167 161748.000   37.462861365 -122.290598400   135.2849   2  10   0.0594   0.0666   0.1800   0.0103  -0.0575  -0.0529 -12.00    0.0
2167 161749.000   37.463125814 -122.290607065   135.8136   2  14   0.0597   0.0664   0.1796   0.0095  -0.0571  -0.0523 -11.00    0.0
2167 161750.000   37.463390125 -122.290615719   136.4648   2  12   0.0597   0.0663   0.1796   0.0089  -0.0569  -0.0518 -10.00    0.0
2167 161751.000   37.463651381 -122.290623851   137.2587   2  15   0.0600   0.0663   0.1796   0.0081  -0.0570  -0.0513  -9.00    0.0
2167 161752.000   37.463908328 -122.290635353   138.0055   2  15   0.0596   0.0662   0.1792   0.0082  -0.0568  -0.0519  -8.00    0.0
2167 161753.000   37.464162020 -122.290652025   138.5525   2  15   0.0593   0.0662   0.1790   0.0080  -0.0568  -0.0523  -7.00    0.0
2167 161754.000   37.464413036 -122.290672736   138.9037   2  15   0.0591   0.0662   0.1788   0.0079  -0.0568  -0.0526  -6.00    0.0
2167 161755.000   37.464661724 -122.290695776   139.2749   2  16   0.0592   0.0663   0.1788   0.0084  -0.0566  -0.0525  -5.00    0.0
2167 161756.000   37.464908680 -122.290720494   139.6580   2  17   0.0591   0.0664   0.1787   0.0083  -0.0568  -0.0527  -4.00    0.0
2167 161757.000   37.465153618 -122.290749412   139.9758   2  13   0.0593   0.0667   0.1791   0.0092  -0.0572  -0.0534  -3.00    0.0
2167 161758.000   37.465395802 -122.290786879   140.3273   2  15   0.0593   0.0673   0.1792   0.0100  -0.0578  -0.0538  -2.00    0.0
2167 161758.999   37.465636509 -122.290834217   140.5702   2  16   0.0595   0.0691   0.1796   0.0118  -0.0591  -0.0544  -1.00    0.0
2167 161759.999   37.465875499 -122.290889279   141.0478   2  17   0.0612   0.0749   0.1817   0.0159  -0.0638  -0.0572  -0.00    0.0
2167 161761.000   37.466115494 -122.290938026   141.1067   2  13   0.0587   0.0652   0.1792   0.0068  -0.0564  -0.0532   1.00    0.0
2167 161762.000   37.466352053 -122.290988953   141.3794   2  15   0.0586   0.0651   0.1791   0.0062  -0.0563  -0.0532   2.00    0.0
2167 161763.000   37.466582435 -122.291041448   141.8094   2  17   0.0584   0.0650   0.1786   0.0056  -0.0559  -0.0533   3.00    0.0
2167 161764.000   37.466802592 -122.291097759   142.0429   2  16   0.0583   0.0650   0.1783   0.0055  -0.0556  -0.0532   4.00    0.0
2167 161765.000   37.467012393 -122.291158187   141.9681   2  15   0.0592   0.0650   0.1785   0.0064  -0.0554  -0.0522   5.00    0.0
2167 161766.000   37.467210837 -122.291220777   141.6355   2  15   0.0589   0.0649   0.1783   0.0051  -0.0555  -0.0526   6.00    0.0
2167 161767.000   37.467396512 -122.291284372   141.3854   2  14   0.0587   0.0649   0.1786   0.0053  -0.0557  -0.0531   7.00    0.0
2167 161768.000   37.467572016 -122.291348467   140.7820   2   8   0.0628   0.0663   0.1818   0.0144  -0.0585  -0.0527   8.00    0.0
2167 161769.000   37.467738068 -122.291411898   139.9973   2  14   0.0631   0.0661   0.1819   0.0138  -0.0583  -0.0522   9.00    0.0
2167 161770.000   37.467893529 -122.291479343   139.3084   2  15   0.0615   0.0655   0.1796   0.0118  -0.0568  -0.0536  10.00    0.0
2167 161771.000   37.468037985 -122.291547955   138.4578   2  16   0.0606   0.0653   0.1786   0.0108  -0.0562  -0.0537  11.00    0.0
2167 161772.000   37.468172438 -122.291610632   137.6398   2  14   0.0603   0.0652   0.1783   0.0097  -0.0561  -0.0536  12.00    0.0
2167 161773.000   37.468298860 -122.291664772   136.7093   2  14   0.0602   0.0652   0.1781   0.0089  -0.0560  -0.0534  13.00    0.0
2167 161774.000   37.468415905 -122.291709867   136.0113   2  15   0.0597   0.0651   0.1778   0.0088  -0.0557  -0.0537  14.00    0.0
2167 161775.000   37.468516729 -122.291746749   135.5266   2  17   0.0596   0.0650   0.1778   0.0089  -0.0559  -0.0533 -15.00    0.0
2167 161776.000   37.468598443 -122.291779229   135.3363   2  14   0.0593   0.0650   0.1780   0.0089  -0.0559  -0.0533 -14.00    0.0
2167 161777.000   37.468656685 -122.291809972   135.2310   2  14   0.0594   0.0650   0.1782   0.0082  -0.0558  -0.0533 -13.00    0.0
2167 161778.000   37.468689239 -122.291833395   135.1536   2  11   0.0599   0.0653   0.1782   0.0061  -0.0559  -0.0531 -12.00    0.0
2167 161779.000   37.468701964 -122.291843931   135.1026   2  17   0.0599   0.0653   0.1780   0.0052  -0.0559  -0.0531 -11.00    0.0
2167 161780.000   37.468703396 -122.291845210   135.1596   2  16   0.0595   0.0654   0.1779   0.0085  -0.0554  -0.0533 -10.00    0.0
2167 161781.000   37.468707169 -122.291848186   135.1292   2  16   0.0597   0.0655   0.1779   0.0091  -0.0553  -0.0531  -9.00    0.0
2167 161782.000   37.468719859 -122.291859294   135.1704   2  18   0.0595   0.0653   0.1778   0.0088  -0.0554  -0.0532  -8.00    0.0
2167 161783.000   37.468744737 -122.291882866   135.1780   2  14   0.0592   0.0655   0.1778   0.0094  -0.0553  -0.0535  -7.00    0.0
2167 161784.000   37.468775378 -122.291922362   135.3851   2  11   0.0595   0.0661   0.1782   0.0099  -0.0559  -0.0536  -6.00    0.0
2167 161785.000   37.468797089 -122.291985205   135.4491   2   4   0.0662   0.0707   0.1869   0.0261  -0.0664  -0.0626  -5.00    0.0
2167 161786.000   37.468798562 -122.292069284   135.8480   2  10   0.2546   0.1796   0.2462   0.1388  -0.1661  -0.0619  -4.00    0.0
2167 161787.000   37.468772569 -122.292158394   136.5851   2  10   0.1271   0.1150   0.2111   0.0680  -0.1116  -0.0682  -3.00    0.0
2167 161788.000   37.468730442 -122.292241029   136.9532   2   6   0.2159   0.1156   0.2424   0.1047  -0.0868   0.1221  -2.00    0.0
2167 161789.000   37.468672607 -122.292323051   137.2789   4   0   0.7625   0.3829   0.3568   0.3581   0.1836   0.4122  -1.00    0.0
2167 161790.000   37.468576882 -122.292402466   137.1961   4   0   1.0249   0.8641   0.4744   0.4670   0.2802   0.4778   0.00    0.0
2167 161793.000   37.468304487 -122.292744811   136.5088   4   2   0.1603   0.3583   0.2845  -0.0858  -0.0864   0.1045   3.00    0.0
2167 161794.000   37.468225777 -122.292864013   135.7872   2   7   0.1444   0.1443   0.2452   0.1088   0.0541   0.0783   4.00    0.0
2167 161795.000   37.468142938 -122.292969265   135.1700   2  10   0.1285   0.1193   0.2353   0.0830   0.0766   0.0896   5.00    0.0
2167 161796.000   37.468065861 -122.293064372   134.5646   2  13   0.1305   0.1189   0.2363   0.0823   0.0746   0.0935   6.00    0.0
2167 161797.000   37.468002288 -122.293159546   133.7514   2  14   0.1275   0.1187   0.2296   0.0826   0.0749   0.0846   7.00    0.0
2167 161798.000   37.467962698 -122.293257082   132.8900   2  14   0.1307   0.1196   0.2322   0.0831   0.0747   0.0878   8.00    0.0
2167 161799.000   37.467957246 -122.293356723   131.6084   2  12   0.1482   0.1178   0.2473   0.0832   0.0738   0.1122   9.00    0.0
2167 161800.000   37.467990299 -122.293454425   131.6750   2   7   0.1206   0.1171   0.2195   0.0848   0.0804   0.0747  10.00    0.0
2167 161801.000   37.468053205 -122.293546099   131.6658   2  17   0.1211   0.1149   0.2162   0.0843   0.0839   0.0761  11.00    0.0
2167 161802.000   37.468134832 -122.293644042   131.7200   2  13   0.1198   0.1156   0.2161   0.0845   0.0841   0.0748  12.00    0.0
2167 161803.000   37.468225472 -122.293746992   131.7344   2  16   0.1192   0.1156   0.2155   0.0835   0.0826   0.0735  13.00    0.0
2167 161804.000   37.468323732 -122.293857574   132.1555   2  16   0.1187   0.1163   0.2151   0.0829   0.0809   0.0718  14.00    0.0
2167 161805.000   37.468428118 -122.293974225   132.7326   2  16   0.1186   0.1190   0.2154   0.0830   0.0793   0.0709 -15.00    0.0
2167 161806.000   37.468534157 -122.294093951   133.3310   2  16   0.1216   0.1319   0.2223   0.0874   0.0817   0.0795 -14.00    0.0
2167 161807.000   37.468641635 -122.294195993   134.0466   2   7   0.1437   0.1677   0.2424   0.1005   0.0808   0.1065 -13.00    0.0
2167 161808.000   37.468750274 -122.294261272   134.5762   2  10   0.1473   0.1237   0.2803   0.1008   0.1164  -0.0477 -12.00    0.0
2167 161809.000   37.468862730 -122.294285592   135.8549   2   8   0.1021   0.0894   0.2140   0.0604   0.0882   0.0726 -11.00    0.0
2167 161810.000   37.468973029 -122.294273387   136.6136   2  16   0.0935   0.0701   0.1915   0.0387   0.0510   0.0420 -10.00    0.0
2167 161811.000   37.469077162 -122.294223040   137.3705   2  15   0.0907   0.0668   0.1894   0.0339   0.0446   0.0342  -9.00    0.0
2167 161812.000   37.469169160 -122.294137628   138.1125   2  15   0.0912   0.0671   0.1902   0.0309   0.0424   0.0347  -8.00    0.0
2167 161813.000   37.469241600 -122.294021264   138.8129   2  12   0.0892   0.0643   0.1914   0.0357   0.0467   0.0287  -7.00    0.0
2167 161814.000   37.469285979 -122.293883293   139.6683   2   8   0.0908   0.0641   0.2007   0.0371   0.0507   0.0380  -6.00    0.0
2167 161815.000   37.469296079 -122.293734678   140.6260   2  12   0.0935   0.0617   0.2003   0.0355   0.0429   0.0453  -5.00    0.0
2167 161816.000   37.469270934 -122.293588291   141.4842   2  14   0.0789   0.0765   0.1976   0.0510   0.0729   0.0199  -4.00    0.0
2167 161817.000   37.469210876 -122.293454355   142.0879   2  12   0.0690   0.0463   0.1583   0.0262  -0.0390  -0.0603  -3.00    0.0
2167 161818.000   37.469123771 -122.293333522   142.5445   2  14   0.0662   0.0445   0.1516   0.0243  -0.0431  -0.0641  -2.00    0.0
2167 161819.000   37.469020835 -122.293214079   143.0755   2  18   0.0657   0.0445   0.1519   0.0246  -0.0431  -0.0640  -1.00    0.0
2167 161820.000   37.468905322 -122.293089858   143.5055   2  13   0.0658   0.0446   0.1520   0.0247  -0.0428  -0.0642   0.00    0.0
2167 161821.000   37.468775697 -122.292961500   143.8813   2  14   0.0657   0.0443   0.1519   0.0246  -0.0431  -0.0641   1.00    0.0
2167 161822.000   37.468632469 -122.292826049   143.8365   2  13   0.0657   0.0443   0.1520   0.0247  -0.0432  -0.0642   2.00    0.0
2167 161823.000   37.468475488 -122.292688138   143.6990   2  13   0.0657   0.0444   0.1522   0.0246  -0.0430  -0.0640   3.00    0.0
