$GPGGA,193327.43,3741.5323960,N,12205.3039700,W,1,0,0.0,21.0769,M,0.0000,M,0.0000,0000*52
$GPRMC,193327.43,A,3741.5323960,N,12205.3039700,W,0.0019,288.2671,070923,,,,A*6e
$GPGGA,193328.43,3741.5323960,N,12205.3039700,W,1,0,0.0,21.0770,M,0.0000,M,0.0000,0000*55
$GPRMC,193328.43,A,3741.5323960,N,12205.3039700,W,0.0019,288.2669,070923,,,,A*68
$GPGGA,193329.43,3741.5323960,N,12205.3039700,W,1,0,0.0,21.0770,M,0.0000,M,0.0000,0000*54
$GPRMC,193329.43,A,3741.5323960,N,12205.3039700,W,0.0015,288.2672,070923,,,,A*6f
$GPGGA,193330.43,3741.5323960,N,12205.3039700,W,1,0,0.0,21.0770,M,0.0000,M,0.0000,0000*5c
$GPRMC,193330.43,A,3741.5323960,N,12205.3039700,W,0.0037,288.2680,070923,,,,A*6a
$GPGGA,193331.43,3741.5323960,N,12205.3039700,W,1,0,0.0,21.0770,M,0.0000,M,0.0000,0000*5d
$GPRMC,193331.43,A,3741.5323960,N,12205.3039700,W,0.0053,288.2674,070923,,,,A*62
$GPGGA,193332.43,3741.5323960,N,12205.3039700,W,1,0,0.0,21.0770,M,0.0000,M,0.0000,0000*5e
$GPRMC,193332.43,A,3741.5323960,N,12205.3039700,W,0.0013,288.2673,070923,,,,A*62
$GPGGA,193333.43,3741.5323960,N,12205.3039760,W,1,0,0.0,21.0769,M,0.0000,M,0.0000,0000*51
$GPRMC,193333.43,A,3741.5323960,N,12205.3039760,W,0.0025,288.2678,070923,,,,A*6b
$GPGGA,193334.43,3741.5323960,N,12205.3039760,W,1,0,0.0,21.0770,M,0.0000,M,0.0000,0000*5e
$GPRMC,193334.43,A,3741.5323960,N,12205.3039760,W,0.0021,288.2673,070923,,,,A*63
$GPGGA,193335.43,3741.5323960,N,12205.3039760,W,1,0,0.0,21.0780,M,0.0000,M,0.0000,0000*50
$GPRMC,193335.43,A,3741.5323960,N,12205.3039760,W,0.0000,288.2659,070923,,,,A*69
$GPGGA,193336.43,3741.5323960,N,12205.3039760,W,1,0,0.0,21.0779,M,0.0000,M,0.0000,0000*55
$GPRMC,193336.43,A,3741.5323960,N,12205.3039760,W,0.0027,288.2659,070923,,,,A*6f
$GPGGA,193337.43,3741.5323900,N,12205.3039460,W,1,0,0.0,21.0803,M,0.0000,M,0.0000,0000*53
$GPRMC,193337.43,A,3741.5323900,N,12205.3039460,W,0.2464,288.2738,070923,,,,A*6c
$GPGGA,193338.43,3741.5323480,N,12205.3037900,W,1,0,0.0,21.0903,M,0.0000,M,0.0000,0000*5d
$GPRMC,193338.43,A,3741.5323480,N,12205.3037900,W,0.7410,288.4276,070923,,,,A*6c
$GPGGA,193339.43,3741.5322940,N,12205.3034180,W,1,0,0.0,21.1076,M,0.0000,M,0.0000,0000*55
$GPRMC,193339.43,A,3741.5322940,N,12205.3034180,W,1.3407,290.5926,070923,,,,A*6b
$GPGGA,193340.43,3741.5322820,N,12205.3028120,W,1,0,0.0,21.1306,M,0.0000,M,0.0000,0000*5f
$GPRMC,193340.43,A,3741.5322820,N,12205.3028120,W,1.7816,300.1829,070923,,,,A*6f
$GPGGA,193341.43,3741.5321620,N,12205.3020860,W,1,0,0.0,21.1513,M,0.0000,M,0.0000,0000*54
$GPRMC,193341.43,A,3741.5321620,N,12205.3020860,W,1.5369,312.3518,070923,,,,A*69
$GPGGA,193342.43,3741.5321020,N,12205.3018940,W,1,0,0.0,21.1613,M,0.0000,M,0.0000,0000*5a
$GPRMC,193342.43,A,3741.5321020,N,12205.3018940,W,0.0511,315.6796,070923,,,,A*6f
$GPGGA,193343.43,3741.5321080,N,12205.3018940,W,1,0,0.0,21.1566,M,0.0000,M,0.0000,0000*50
$GPRMC,193343.43,A,3741.5321080,N,12205.3018940,W,0.0211,315.8341,070923,,,,A*63
$GPGGA,193344.43,3741.5322640,N,12205.3020740,W,1,0,0.0,21.1403,M,0.0000,M,0.0000,0000*59
$GPRMC,193344.43,A,3741.5322640,N,12205.3020740,W,1.8056,316.4838,070923,,,,A*6a
$GPGGA,193345.43,3741.5329540,N,12205.3027160,W,1,0,0.0,21.0959,M,0.0000,M,0.0000,0000*50
$GPRMC,193345.43,A,3741.5329540,N,12205.3027160,W,4.4514,320.4244,070923,,,,A*6e
$GPGGA,193346.43,3741.5343340,N,12205.3037300,W,1,0,0.0,21.0128,M,0.0000,M,0.0000,0000*52
$GPRMC,193346.43,A,3741.5343340,N,12205.3037300,W,7.0530,328.0186,070923,,,,A*62
$GPGGA,193347.43,3741.5364460,N,12205.3047860,W,1,0,0.0,20.8936,M,0.0000,M,0.0000,0000*57
$GPRMC,193347.43,A,3741.5364460,N,12205.3047860,W,9.3975,338.6967,070923,,,,A*69
$GPGGA,193348.43,3741.5391520,N,12205.3054940,W,1,0,0.0,20.8406,M,0.0000,M,0.0000,0000*58
$GPRMC,193348.43,A,3741.5391520,N,12205.3054940,W,10.1833,349.0905,070923,,,,A*55
$GPGGA,193349.43,3741.5420800,N,12205.3060400,W,1,0,0.0,20.7383,M,0.0000,M,0.0000,0000*50
$GPRMC,193349.43,A,3741.5420800,N,12205.3060400,W,11.5408,351.1213,070923,,,,A*5d
$GPGGA,193350.43,3741.5454880,N,12205.3070180,W,1,0,0.0,20.6018,M,0.0000,M,0.0000,0000*5f
$GPRMC,193350.43,A,3741.5454880,N,12205.3070180,W,13.5182,345.0068,070923,,,,A*5d
$GPGGA,193351.43,3741.5492020,N,12205.3088540,W,1,0,0.0,20.4188,M,0.0000,M,0.0000,0000*53
$GPRMC,193351.43,A,3741.5492020,N,12205.3088540,W,14.7613,336.7335,070923,,,,A*59
$GPGGA,193352.43,3741.5529400,N,12205.3111640,W,1,0,0.0,20.2241,M,0.0000,M,0.0000,0000*55
$GPRMC,193352.43,A,3741.5529400,N,12205.3111640,W,15.1704,332.7784,070923,,,,A*55
$GPGGA,193353.43,3741.5566420,N,12205.3137320,W,1,0,0.0,20.0294,M,0.0000,M,0.0000,0000*50
$GPRMC,193353.43,A,3741.5566420,N,12205.3137320,W,15.2466,330.6965,070923,,,,A*5c
$GPGGA,193354.43,3741.5603320,N,12205.3163960,W,1,0,0.0,19.8725,M,0.0000,M,0.0000,0000*52
$GPRMC,193354.43,A,3741.5603320,N,12205.3163960,W,15.2864,329.7659,070923,,,,A*54
$GPGGA,193355.43,3741.5639920,N,12205.3191200,W,1,0,0.0,19.7024,M,0.0000,M,0.0000,0000*59
$GPRMC,193355.43,A,3741.5639920,N,12205.3191200,W,15.3019,329.1854,070923,,,,A*50
$GPGGA,193356.43,3741.5675440,N,12205.3217960,W,1,0,0.0,19.5425,M,0.0000,M,0.0000,0000*5e
$GPRMC,193356.43,A,3741.5675440,N,12205.3217960,W,14.1085,328.8885,070923,,,,A*52
$GPGGA,193357.43,3741.5707000,N,12205.3240940,W,1,0,0.0,19.4022,M,0.0000,M,0.0000,0000*59
$GPRMC,193357.43,A,3741.5707000,N,12205.3240940,W,12.1009,330.4551,070923,,,,A*54
$GPGGA,193358.43,3741.5735260,N,12205.3257680,W,1,0,0.0,19.3035,M,0.0000,M,0.0000,0000*57
$GPRMC,193358.43,A,3741.5735260,N,12205.3257680,W,10.5124,336.1100,070923,,,,A*50
$GPGGA,193359.43,3741.5762140,N,12205.3264100,W,1,0,0.0,19.1946,M,0.0000,M,0.0000,0000*55
$GPRMC,193359.43,A,3741.5762140,N,12205.3264100,W,9.5857,351.9487,070923,,,,A*6b
$GPGGA,193400.43,3741.5788060,N,12205.3263800,W,1,0,0.0,19.1482,M,0.0000,M,0.0000,0000*52
$GPRMC,193400.43,A,3741.5788060,N,12205.3263800,W,8.8215,359.5757,070923,,,,A*63
$GPGGA,193401.43,3741.5809780,N,12205.3265360,W,1,0,0.0,19.0699,M,0.0000,M,0.0000,0000*5e
$GPRMC,193401.43,A,3741.5809780,N,12205.3265360,W,6.6977,356.4014,070923,,,,A*67
$GPGGA,193402.43,3741.5825020,N,12205.3268300,W,1,0,0.0,19.0310,M,0.0000,M,0.0000,0000*51
$GPRMC,193402.43,A,3741.5825020,N,12205.3268300,W,4.3225,352.2455,070923,,,,A*64
$GPGGA,193403.43,3741.5834320,N,12205.3271060,W,1,0,0.0,19.0159,M,0.0000,M,0.0000,0000*51
$GPRMC,193403.43,A,3741.5834320,N,12205.3271060,W,2.6709,349.2789,070923,,,,A*6b
$GPGGA,193404.43,3741.5839120,N,12205.3272560,W,1,0,0.0,19.0076,M,0.0000,M,0.0000,0000*53
$GPRMC,193404.43,A,3741.5839120,N,12205.3272560,W,0.7273,347.8436,070923,,,,A*6d
$GPGGA,193405.43,3741.5840440,N,12205.3273040,W,1,0,0.0,18.9966,M,0.0000,M,0.0000,0000*59
$GPRMC,193405.43,A,3741.5840440,N,12205.3273040,W,0.3779,347.3667,070923,,,,A*61
$GPGGA,193406.43,3741.5840740,N,12205.3273100,W,1,0,0.0,18.9909,M,0.0000,M,0.0000,0000*55
$GPRMC,193406.43,A,3741.5840740,N,12205.3273100,W,0.0459,347.2540,070923,,,,A*61
$GPGGA,193407.43,3741.5840920,N,12205.3273220,W,1,0,0.0,18.9859,M,0.0000,M,0.0000,0000*59
$GPRMC,193407.43,A,3741.5840920,N,12205.3273220,W,0.2495,347.1811,070923,,,,A*61
$GPGGA,193408.43,3741.5843920,N,12205.3274240,W,1,0,0.0,18.9572,M,0.0000,M,0.0000,0000*50
$GPRMC,193408.43,A,3741.5843920,N,12205.3274240,W,1.9305,346.3003,070923,,,,A*60
$GPGGA,193409.43,3741.5850760,N,12205.3277120,W,1,0,0.0,18.8355,M,0.0000,M,0.0000,0000*5d
$GPRMC,193409.43,A,3741.5850760,N,12205.3277120,W,3.4220,344.3809,070923,,,,A*66
$GPGGA,193410.43,3741.5860060,N,12205.3281380,W,1,0,0.0,18.7239,M,0.0000,M,0.0000,0000*54
$GPRMC,193410.43,A,3741.5860060,N,12205.3281380,W,3.3597,340.9694,070923,,,,A*63
$GPGGA,193411.43,3741.5868400,N,12205.3286240,W,1,0,0.0,18.5309,M,0.0000,M,0.0000,0000*55
$GPRMC,193411.43,A,3741.5868400,N,12205.3286240,W,3.3406,337.4677,070923,,,,A*6b
$GPGGA,193412.43,3741.5875960,N,12205.3291520,W,1,0,0.0,18.6250,M,0.0000,M,0.0000,0000*58
$GPRMC,193412.43,A,3741.5875960,N,12205.3291520,W,3.2015,333.1838,070923,,,,A*6b
$GPGGA,193413.43,3741.5883280,N,12205.3300040,W,1,0,0.0,18.7290,M,0.0000,M,0.0000,0000*52
$GPRMC,193413.43,A,3741.5883280,N,12205.3300040,W,3.4954,322.6274,070923,,,,A*63
$GPGGA,193414.43,3741.5888200,N,12205.3310720,W,1,0,0.0,18.8304,M,0.0000,M,0.0000,0000*55
$GPRMC,193414.43,A,3741.5888200,N,12205.3310720,W,3.1118,308.4523,070923,,,,A*6d
$GPGGA,193415.43,3741.5890180,N,12205.3320080,W,1,0,0.0,18.9043,M,0.0000,M,0.0000,0000*59
$GPRMC,193415.43,A,3741.5890180,N,12205.3320080,W,2.2135,296.6505,070923,,,,A*6d
$GPGGA,193416.43,3741.5891440,N,12205.3329920,W,1,0,0.0,18.9276,M,0.0000,M,0.0000,0000*5c
$GPRMC,193416.43,A,3741.5891440,N,12205.3329920,W,3.9519,287.1102,070923,,,,A*68
$GPGGA,193417.43,3741.5893420,N,12205.3349600,W,1,0,0.0,18.9607,M,0.0000,M,0.0000,0000*50
$GPRMC,193417.43,A,3741.5893420,N,12205.3349600,W,7.0050,279.7694,070923,,,,A*6c
$GPGGA,193418.43,3741.5895700,N,12205.3377500,W,1,0,0.0,19.0240,M,0.0000,M,0.0000,0000*59
$GPRMC,193418.43,A,3741.5895700,N,12205.3377500,W,8.6171,275.2987,070923,,,,A*65
$GPGGA,193419.43,3741.5895280,N,12205.3407740,W,1,0,0.0,19.0763,M,0.0000,M,0.0000,0000*57
$GPRMC,193419.43,A,3741.5895280,N,12205.3407740,W,8.3964,268.3167,070923,,,,A*6d
$GPGGA,193420.43,3741.5891980,N,12205.3437140,W,1,0,0.0,19.1020,M,0.0000,M,0.0000,0000*56
$GPRMC,193420.43,A,3741.5891980,N,12205.3437140,W,8.7238,261.5308,070923,,,,A*6f
$GPGGA,193421.43,3741.5885920,N,12205.3466420,W,1,0,0.0,19.1390,M,0.0000,M,0.0000,0000*57
$GPRMC,193421.43,A,3741.5885920,N,12205.3466420,W,8.4043,254.7718,070923,,,,A*6a
$GPGGA,193422.43,3741.5877880,N,12205.3492760,W,1,0,0.0,19.1917,M,0.0000,M,0.0000,0000*5b
$GPRMC,193422.43,A,3741.5877880,N,12205.3492760,W,7.2987,248.7019,070923,,,,A*60
$GPGGA,193423.43,3741.5870740,N,12205.3512320,W,1,0,0.0,19.2310,M,0.0000,M,0.0000,0000*59
$GPRMC,193423.43,A,3741.5870740,N,12205.3512320,W,5.0034,245.6626,070923,,,,A*6b
$GPGGA,193424.43,3741.5865580,N,12205.3525220,W,1,0,0.0,19.2590,M,0.0000,M,0.0000,0000*5f
$GPRMC,193424.43,A,3741.5865580,N,12205.3525220,W,3.2879,244.0459,070923,,,,A*6b
$GPGGA,193425.43,3741.5862040,N,12205.3533560,W,1,0,0.0,19.2806,M,0.0000,M,0.0000,0000*56
$GPRMC,193425.43,A,3741.5862040,N,12205.3533560,W,2.3285,242.9471,070923,,,,A*6c
$GPGGA,193426.43,3741.5859640,N,12205.3539380,W,1,0,0.0,19.2973,M,0.0000,M,0.0000,0000*5a
$GPRMC,193426.43,A,3741.5859640,N,12205.3539380,W,1.3327,242.6226,070923,,,,A*62
$GPGGA,193427.43,3741.5858560,N,12205.3541960,W,1,0,0.0,19.3003,M,0.0000,M,0.0000,0000*5f
$GPRMC,193427.43,A,3741.5858560,N,12205.3541960,W,0.5297,242.6334,070923,,,,A*67
$GPGGA,193428.43,3741.5858020,N,12205.3543280,W,1,0,0.0,19.3039,M,0.0000,M,0.0000,0000*5f
$GPRMC,193428.43,A,3741.5858020,N,12205.3543280,W,0.2336,242.6458,070923,,,,A*6e
$GPGGA,193429.43,3741.5857900,N,12205.3543640,W,1,0,0.0,19.3029,M,0.0000,M,0.0000,0000*53
$GPRMC,193429.43,A,3741.5857900,N,12205.3543640,W,0.0227,242.6515,070923,,,,A*68
$GPGGA,193430.43,3741.5857900,N,12205.3543640,W,1,0,0.0,19.3019,M,0.0000,M,0.0000,0000*58
$GPRMC,193430.43,A,3741.5857900,N,12205.3543640,W,0.0035,242.6517,070923,,,,A*63
$GPGGA,193431.43,3741.5857900,N,12205.3543640,W,1,0,0.0,19.3009,M,0.0000,M,0.0000,0000*58
$GPRMC,193431.43,A,3741.5857900,N,12205.3543640,W,0.0028,242.6490,070923,,,,A*60
$GPGGA,193432.43,3741.5857900,N,12205.3543640,W,1,0,0.0,19.3009,M,0.0000,M,0.0000,0000*5b
$GPRMC,193432.43,A,3741.5857900,N,12205.3543640,W,0.0007,242.6489,070923,,,,A*66
$GPGGA,193433.43,3741.5857900,N,12205.3543640,W,1,0,0.0,19.3009,M,0.0000,M,0.0000,0000*5a
$GPRMC,193433.43,A,3741.5857900,N,12205.3543640,W,0.0000,242.6488,070923,,,,A*61
$GPGGA,193434.43,3741.5857900,N,12205.3543640,W,1,0,0.0,19.3009,M,0.0000,M,0.0000,0000*5d
$GPRMC,193434.43,A,3741.5857900,N,12205.3543640,W,0.0000,242.6487,070923,,,,A*69
$GPGGA,193435.43,3741.5857900,N,12205.3543640,W,1,0,0.0,19.3009,M,0.0000,M,0.0000,0000*5c
$GPRMC,193435.43,A,3741.5857900,N,12205.3543640,W,0.0000,242.6485,070923,,,,A*6a
$GPGGA,193436.43,3741.5857900,N,12205.3543640,W,1,0,0.0,19.3009,M,0.0000,M,0.0000,0000*5f
$GPRMC,193436.43,A,3741.5857900,N,12205.3543640,W,0.0013,242.6485,070923,,,,A*6b
$GPGGA,193437.43,3741.5857900,N,12205.3543640,W,1,0,0.0,19.3009,M,0.0000,M,0.0000,0000*5e
$GPRMC,193437.43,A,3741.5857900,N,12205.3543640,W,0.0000,242.6484,070923,,,,A*69
$GPGGA,193438.43,3741.5857900,N,12205.3543640,W,1,0,0.0,19.3009,M,0.0000,M,0.0000,0000*51
$GPRMC,193438.43,A,3741.5857900,N,12205.3543640,W,0.0000,242.6484,070923,,,,A*66
$GPGGA,193439.43,3741.5857900,N,12205.3543640,W,1,0,0.0,19.3009,M,0.0000,M,0.0000,0000*50
$GPRMC,193439.43,A,3741.5857900,N,12205.3543640,W,0.0000,242.6481,070923,,,,A*62
$GPGGA,193440.43,3741.5857900,N,12205.3543640,W,1,0,0.0,19.3009,M,0.0000,M,0.0000,0000*5e
$GPRMC,193440.43,A,3741.5857900,N,12205.3543640,W,0.0000,242.6482,070923,,,,A*6f
$GPGGA,193441.43,3741.5857900,N,12205.3543640,W,1,0,0.0,19.3009,M,0.0000,M,0.0000,0000*5f
$GPRMC,193441.43,A,3741.5857900,N,12205.3543640,W,0.0000,242.6482,070923,,,,A*6e
$GPGGA,193442.43,3741.5857900,N,12205.3543640,W,1,0,0.0,19.3009,M,0.0000,M,0.0000,0000*5c
$GPRMC,193442.43,A,3741.5857900,N,12205.3543640,W,0.0000,242.6478,070923,,,,A*68
$GPGGA,193443.43,3741.5857900,N,12205.3543640,W,1,0,0.0,19.3009,M,0.0000,M,0.0000,0000*5d
$GPRMC,193443.43,A,3741.5857900,N,12205.3543640,W,0.0009,242.6478,070923,,,,A*60
$GPGGA,193444.43,3741.5857900,N,12205.3543640,W,1,0,0.0,19.3009,M,0.0000,M,0.0000,0000*5a
$GPRMC,193444.43,A,3741.5857900,N,12205.3543640,W,0.0013,242.6477,070923,,,,A*63
$GPGGA,193445.43,3741.5857900,N,12205.3543640,W,1,0,0.0,19.3009,M,0.0000,M,0.0000,0000*5b
$GPRMC,193445.43,A,3741.5857900,N,12205.3543640,W,0.0054,242.6476,070923,,,,A*60
$GPGGA,193446.43,3741.5857660,N,12205.3544240,W,1,0,0.0,19.2979,M,0.0000,M,0.0000,0000*5d
$GPRMC,193446.43,A,3741.5857660,N,12205.3544240,W,0.7016,242.6587,070923,,,,A*67
$GPGGA,193447.43,3741.5855980,N,12205.3548380,W,1,0,0.0,19.3096,M,0.0000,M,0.0000,0000*57
$GPRMC,193447.43,A,3741.5855980,N,12205.3548380,W,1.9154,242.6886,070923,,,,A*60
$GPGGA,193448.43,3741.5852380,N,12205.3557260,W,1,0,0.0,19.3253,M,0.0000,M,0.0000,0000*5f
$GPRMC,193448.43,A,3741.5852380,N,12205.3557260,W,4.0427,242.7861,070923,,,,A*66
$GPGGA,193449.43,3741.5845900,N,12205.3573400,W,1,0,0.0,19.3633,M,0.0000,M,0.0000,0000*5e
$GPRMC,193449.43,A,3741.5845900,N,12205.3573400,W,6.3479,242.9339,070923,,,,A*67
$GPGGA,193450.43,3741.5836480,N,12205.3596980,W,1,0,0.0,19.4244,M,0.0000,M,0.0000,0000*5a
$GPRMC,193450.43,A,3741.5836480,N,12205.3596980,W,8.6150,243.1338,070923,,,,A*6d
$GPGGA,193451.43,3741.5825020,N,12205.3625840,W,1,0,0.0,19.5020,M,0.0000,M,0.0000,0000*50
$GPRMC,193451.43,A,3741.5825020,N,12205.3625840,W,10.2080,243.4956,070923,,,,A*50
$GPGGA,193452.43,3741.5811460,N,12205.3661780,W,1,0,0.0,19.6348,M,0.0000,M,0.0000,0000*59
$GPRMC,193452.43,A,3741.5811460,N,12205.3661780,W,12.5183,244.5686,070923,,,,A*54
$GPGGA,193453.43,3741.5796400,N,12205.3705280,W,1,0,0.0,19.8101,M,0.0000,M,0.0000,0000*59
$GPRMC,193453.43,A,3741.5796400,N,12205.3705280,W,14.4112,246.7631,070923,,,,A*56
$GPGGA,193454.43,3741.5781340,N,12205.3753100,W,1,0,0.0,19.9430,M,0.0000,M,0.0000,0000*55
$GPRMC,193454.43,A,3741.5781340,N,12205.3753100,W,15.3531,248.3728,070923,,,,A*5c
$GPGGA,193455.43,3741.5764480,N,12205.3806200,W,1,0,0.0,20.1639,M,0.0000,M,0.0000,0000*51
$GPRMC,193455.43,A,3741.5764480,N,12205.3806200,W,17.3042,247.9826,070923,,,,A*56
$GPGGA,193456.43,3741.5743480,N,12205.3864580,W,1,0,0.0,20.4238,M,0.0000,M,0.0000,0000*5c
$GPRMC,193456.43,A,3741.5743480,N,12205.3864580,W,19.4074,244.5500,070923,,,,A*51
$GPGGA,193457.43,3741.5717920,N,12205.3929020,W,1,0,0.0,20.6885,M,0.0000,M,0.0000,0000*52
$GPRMC,193457.43,A,3741.5717920,N,12205.3929020,W,21.9178,243.2860,070923,,,,A*51
$GPGGA,193458.43,3741.5689720,N,12205.4003000,W,1,0,0.0,21.0647,M,0.0000,M,0.0000,0000*56
$GPRMC,193458.43,A,3741.5689720,N,12205.4003000,W,24.9636,244.7255,070923,,,,A*54
$GPGGA,193459.43,3741.5658400,N,12205.4086580,W,1,0,0.0,21.6132,M,0.0000,M,0.0000,0000*59
$GPRMC,193459.43,A,3741.5658400,N,12205.4086580,W,27.7967,244.0806,070923,,,,A*55
$GPGGA,193500.43,3741.5620960,N,12205.4176880,W,1,0,0.0,22.2765,M,0.0000,M,0.0000,0000*50
$GPRMC,193500.43,A,3741.5620960,N,12205.4176880,W,30.3797,241.4508,070923,,,,A*5e
$GPGGA,193501.43,3741.5578060,N,12205.4272760,W,1,0,0.0,22.8844,M,0.0000,M,0.0000,0000*56
$GPRMC,193501.43,A,3741.5578060,N,12205.4272760,W,32.3099,240.0190,070923,,,,A*55
$GPGGA,193502.43,3741.5531620,N,12205.4371820,W,1,0,0.0,23.4557,M,0.0000,M,0.0000,0000*51
$GPRMC,193502.43,A,3741.5531620,N,12205.4371820,W,33.3630,238.9265,070923,,,,A*5b
$GPGGA,193503.43,3741.5483080,N,12205.4470640,W,1,0,0.0,23.9944,M,0.0000,M,0.0000,0000*59
$GPRMC,193503.43,A,3741.5483080,N,12205.4470640,W,32.7961,237.6725,070923,,,,A*5f
$GPGGA,193504.43,3741.5434360,N,12205.4565440,W,1,0,0.0,24.5267,M,0.0000,M,0.0000,0000*59
$GPRMC,193504.43,A,3741.5434360,N,12205.4565440,W,31.6500,236.2585,070923,,,,A*5a
$GPGGA,193505.43,3741.5384560,N,12205.4656400,W,1,0,0.0,25.0967,M,0.0000,M,0.0000,0000*5a
$GPRMC,193505.43,A,3741.5384560,N,12205.4656400,W,31.7179,235.2573,070923,,,,A*57
$GPGGA,193506.43,3741.5333680,N,12205.4748680,W,1,0,0.0,25.5754,M,0.0000,M,0.0000,0000*57
$GPRMC,193506.43,A,3741.5333680,N,12205.4748680,W,32.5176,234.8965,070923,,,,A*5f
$GPGGA,193507.43,3741.5280400,N,12205.4842820,W,1,0,0.0,25.8978,M,0.0000,M,0.0000,0000*59
$GPRMC,193507.43,A,3741.5280400,N,12205.4842820,W,33.5494,234.4380,070923,,,,A*59
$GPGGA,193508.43,3741.5225200,N,12205.4939780,W,1,0,0.0,26.0904,M,0.0000,M,0.0000,0000*57
$GPRMC,193508.43,A,3741.5225200,N,12205.4939780,W,34.5714,233.9983,070923,,,,A*58
$GPGGA,193509.43,3741.5167660,N,12205.5038540,W,1,0,0.0,26.2373,M,0.0000,M,0.0000,0000*5e
$GPRMC,193509.43,A,3741.5167660,N,12205.5038540,W,35.3996,233.5371,070923,,,,A*51
$GPGGA,193510.43,3741.5108380,N,12205.5139100,W,1,0,0.0,26.3870,M,0.0000,M,0.0000,0000*5d
$GPRMC,193510.43,A,3741.5108380,N,12205.5139100,W,36.1258,233.2746,070923,,,,A*54
$GPGGA,193511.43,3741.5047840,N,12205.5241700,W,1,0,0.0,26.3962,M,0.0000,M,0.0000,0000*59
$GPRMC,193511.43,A,3741.5047840,N,12205.5241700,W,36.9875,233.5190,070923,,,,A*55
$GPGGA,193512.43,3741.4986580,N,12205.5347720,W,1,0,0.0,26.1374,M,0.0000,M,0.0000,0000*54
$GPRMC,193512.43,A,3741.4986580,N,12205.5347720,W,37.8585,234.3392,070923,,,,A*54
$GPGGA,193513.43,3741.4925800,N,12205.5456080,W,1,0,0.0,25.7608,M,0.0000,M,0.0000,0000*58
$GPRMC,193513.43,A,3741.4925800,N,12205.5456080,W,37.8629,235.0799,070923,,,,A*5b
$GPGGA,193514.43,3741.4865860,N,12205.5564980,W,1,0,0.0,25.0675,M,0.0000,M,0.0000,0000*58
$GPRMC,193514.43,A,3741.4865860,N,12205.5564980,W,37.8735,235.5919,070923,,,,A*59
$GPGGA,193515.43,3741.4806880,N,12205.5676580,W,1,0,0.0,24.1068,M,0.0000,M,0.0000,0000*54
$GPRMC,193515.43,A,3741.4806880,N,12205.5676580,W,38.9554,236.5959,070923,,,,A*53
$GPGGA,193516.43,3741.4747720,N,12205.5793340,W,1,0,0.0,23.4700,M,0.0000,M,0.0000,0000*53
$GPRMC,193516.43,A,3741.4747720,N,12205.5793340,W,40.1853,238.1924,070923,,,,A*52
$GPGGA,193517.43,3741.4690360,N,12205.5915800,W,1,0,0.0,23.2444,M,0.0000,M,0.0000,0000*53
$GPRMC,193517.43,A,3741.4690360,N,12205.5915800,W,40.9119,240.8897,070923,,,,A*57
$GPGGA,193518.43,3741.4640380,N,12205.6043240,W,1,0,0.0,23.5225,M,0.0000,M,0.0000,0000*5e
$GPRMC,193518.43,A,3741.4640380,N,12205.6043240,W,40.2723,246.0626,070923,,,,A*52
$GPGGA,193519.43,3741.4599640,N,12205.6173440,W,1,0,0.0,23.6641,M,0.0000,M,0.0000,0000*50
$GPRMC,193519.43,A,3741.4599640,N,12205.6173440,W,39.9292,250.3735,070923,,,,A*54
$GPGGA,193520.43,3741.4566580,N,12205.6307180,W,1,0,0.0,23.7812,M,0.0000,M,0.0000,0000*54
$GPRMC,193520.43,A,3741.4566580,N,12205.6307180,W,40.1773,254.1794,070923,,,,A*58
$GPGGA,193521.43,3741.4540720,N,12205.6444640,W,1,0,0.0,23.7832,M,0.0000,M,0.0000,0000*50
$GPRMC,193521.43,A,3741.4540720,N,12205.6444640,W,40.6806,258.1216,070923,,,,A*57
$GPGGA,193522.43,3741.4521580,N,12205.6586300,W,1,0,0.0,23.6291,M,0.0000,M,0.0000,0000*50
$GPRMC,193522.43,A,3741.4521580,N,12205.6586300,W,41.5074,261.5899,070923,,,,A*59
$GPGGA,193523.43,3741.4507120,N,12205.6731980,W,1,0,0.0,23.2849,M,0.0000,M,0.0000,0000*5c
$GPRMC,193523.43,A,3741.4507120,N,12205.6731980,W,42.4961,263.3912,070923,,,,A*57
$GPGGA,193524.43,3741.4494640,N,12205.6881680,W,1,0,0.0,22.8458,M,0.0000,M,0.0000,0000*5d
$GPRMC,193524.43,A,3741.4494640,N,12205.6881680,W,43.5344,264.1603,070923,,,,A*56
$GPGGA,193525.43,3741.4483300,N,12205.7035400,W,1,0,0.0,22.3055,M,0.0000,M,0.0000,0000*55
$GPRMC,193525.43,A,3741.4483300,N,12205.7035400,W,44.6207,264.8625,070923,,,,A*53
$GPGGA,193526.43,3741.4473340,N,12205.7192480,W,1,0,0.0,21.7318,M,0.0000,M,0.0000,0000*54
$GPRMC,193526.43,A,3741.4473340,N,12205.7192480,W,45.2932,265.7065,070923,,,,A*5b
$GPGGA,193527.43,3741.4465180,N,12205.7351060,W,1,0,0.0,21.1104,M,0.0000,M,0.0000,0000*52
$GPRMC,193527.43,A,3741.4465180,N,12205.7351060,W,45.7370,266.4909,070923,,,,A*5e
$GPGGA,193528.43,3741.4458280,N,12205.7513360,W,1,0,0.0,20.4644,M,0.0000,M,0.0000,0000*54
$GPRMC,193528.43,A,3741.4458280,N,12205.7513360,W,47.2971,267.0193,070923,,,,A*5d
$GPGGA,193529.43,3741.4453000,N,12205.7681540,W,1,0,0.0,19.9693,M,0.0000,M,0.0000,0000*55
$GPRMC,193529.43,A,3741.4453000,N,12205.7681540,W,48.7411,267.9919,070923,,,,A*53
$GPGGA,193530.43,3741.4450960,N,12205.7852120,W,1,0,0.0,19.7067,M,0.0000,M,0.0000,0000*50
$GPRMC,193530.43,A,3741.4450960,N,12205.7852120,W,48.6097,270.2278,070923,,,,A*5f
$GPGGA,193531.43,3741.4455280,N,12205.8021260,W,1,0,0.0,19.5289,M,0.0000,M,0.0000,0000*55
$GPRMC,193531.43,A,3741.4455280,N,12205.8021260,W,48.0959,273.1011,070923,,,,A*5a
$GPGGA,193532.43,3741.4466560,N,12205.8187820,W,1,0,0.0,19.4242,M,0.0000,M,0.0000,0000*5a
$GPRMC,193532.43,A,3741.4466560,N,12205.8187820,W,47.4711,276.3577,070923,,,,A*58
$GPGGA,193533.43,3741.4484680,N,12205.8351620,W,1,0,0.0,19.3686,M,0.0000,M,0.0000,0000*56
$GPRMC,193533.43,A,3741.4484680,N,12205.8351620,W,47.3397,279.0475,070923,,,,A*5d
$GPGGA,193534.43,3741.4508620,N,12205.8515660,W,1,0,0.0,19.3780,M,0.0000,M,0.0000,0000*5b
$GPRMC,193534.43,A,3741.4508620,N,12205.8515660,W,48.0118,281.2421,070923,,,,A*5a
$GPGGA,193535.43,3741.4538140,N,12205.8680900,W,1,0,0.0,19.4193,M,0.0000,M,0.0000,0000*5d
$GPRMC,193535.43,A,3741.4538140,N,12205.8680900,W,48.8232,283.7468,070923,,,,A*56
$GPGGA,193536.43,3741.4573720,N,12205.8847220,W,1,0,0.0,19.4550,M,0.0000,M,0.0000,0000*56
$GPRMC,193536.43,A,3741.4573720,N,12205.8847220,W,49.6418,286.0610,070923,,,,A*58
$GPGGA,193537.43,3741.4613860,N,12205.9015280,W,1,0,0.0,19.4796,M,0.0000,M,0.0000,0000*55
$GPRMC,193537.43,A,3741.4613860,N,12205.9015280,W,50.7664,286.9566,070923,,,,A*58
$GPGGA,193538.43,3741.4657720,N,12205.9186700,W,1,0,0.0,19.4926,M,0.0000,M,0.0000,0000*52
$GPRMC,193538.43,A,3741.4657720,N,12205.9186700,W,52.1703,288.5302,070923,,,,A*58
$GPGGA,193539.43,3741.4707460,N,12205.9359860,W,1,0,0.0,19.5006,M,0.0000,M,0.0000,0000*53
$GPRMC,193539.43,A,3741.4707460,N,12205.9359860,W,52.8296,291.0555,070923,,,,A*5a
$GPGGA,193540.43,3741.4764700,N,12205.9530260,W,1,0,0.0,19.4596,M,0.0000,M,0.0000,0000*53
$GPRMC,193540.43,A,3741.4764700,N,12205.9530260,W,52.9292,294.4672,070923,,,,A*55
$GPGGA,193541.43,3741.4829200,N,12205.9697000,W,1,0,0.0,19.3302,M,0.0000,M,0.0000,0000*57
$GPRMC,193541.43,A,3741.4829200,N,12205.9697000,W,53.1050,297.2848,070923,,,,A*5a
$GPGGA,193542.43,3741.4900600,N,12205.9859960,W,1,0,0.0,19.1888,M,0.0000,M,0.0000,0000*52
$GPRMC,193542.43,A,3741.4900600,N,12205.9859960,W,53.2858,300.0062,070923,,,,A*5a
$GPGGA,193543.43,3741.4977760,N,12206.0019500,W,1,0,0.0,19.0839,M,0.0000,M,0.0000,0000*53
$GPRMC,193543.43,A,3741.4977760,N,12206.0019500,W,53.4326,302.4210,070923,,,,A*55
$GPGGA,193544.43,3741.5060380,N,12206.0175080,W,1,0,0.0,19.0015,M,0.0000,M,0.0000,0000*50
$GPRMC,193544.43,A,3741.5060380,N,12206.0175080,W,53.5593,304.9982,070923,,,,A*52
$GPGGA,193545.43,3741.5149300,N,12206.0325560,W,1,0,0.0,18.8891,M,0.0000,M,0.0000,0000*52
$GPRMC,193545.43,A,3741.5149300,N,12206.0325560,W,53.6595,308.2123,070923,,,,A*5c
$GPGGA,193546.43,3741.5244580,N,12206.0470400,W,1,0,0.0,18.7261,M,0.0000,M,0.0000,0000*5b
$GPRMC,193546.43,A,3741.5244580,N,12206.0470400,W,53.8227,310.7218,070923,,,,A*58
$GPGGA,193547.43,3741.5344780,N,12206.0610680,W,1,0,0.0,18.5517,M,0.0000,M,0.0000,0000*53
$GPRMC,193547.43,A,3741.5344780,N,12206.0610680,W,53.9821,313.0159,070923,,,,A*5b
$GPGGA,193548.43,3741.5449180,N,12206.0746820,W,1,0,0.0,18.3358,M,0.0000,M,0.0000,0000*5d
$GPRMC,193548.43,A,3741.5449180,N,12206.0746820,W,54.2014,314.8008,070923,,,,A*56
$GPGGA,193549.43,3741.5557420,N,12206.0879720,W,1,0,0.0,18.1338,M,0.0000,M,0.0000,0000*55
$GPRMC,193549.43,A,3741.5557420,N,12206.0879720,W,54.7162,316.6196,070923,,,,A*55
$GPGGA,193550.43,3741.5671540,N,12206.1009140,W,1,0,0.0,17.9305,M,0.0000,M,0.0000,0000*5a
$GPRMC,193550.43,A,3741.5671540,N,12206.1009140,W,55.8407,319.0447,070923,,,,A*5b
$GPGGA,193551.43,3741.5793220,N,12206.1135260,W,1,0,0.0,17.7104,M,0.0000,M,0.0000,0000*55
$GPRMC,193551.43,A,3741.5793220,N,12206.1135260,W,57.7514,322.0017,070923,,,,A*5e
$GPGGA,193552.43,3741.5923960,N,12206.1258860,W,1,0,0.0,17.5381,M,0.0000,M,0.0000,0000*53
$GPRMC,193552.43,A,3741.5923960,N,12206.1258860,W,59.8543,323.7266,070923,,,,A*54
$GPGGA,193553.43,3741.6059620,N,12206.1381380,W,1,0,0.0,17.3635,M,0.0000,M,0.0000,0000*52
$GPRMC,193553.43,A,3741.6059620,N,12206.1381380,W,59.9173,324.6145,070923,,,,A*5b
$GPGGA,193554.43,3741.6195100,N,12206.1501920,W,1,0,0.0,17.1444,M,0.0000,M,0.0000,0000*59
$GPRMC,193554.43,A,3741.6195100,N,12206.1501920,W,59.4364,324.6978,070923,,,,A*59
$GPGGA,193555.43,3741.6329440,N,12206.1621440,W,1,0,0.0,16.9187,M,0.0000,M,0.0000,0000*55
$GPRMC,193555.43,A,3741.6329440,N,12206.1621440,W,58.8205,324.5850,070923,,,,A*55
$GPGGA,193556.43,3741.6462460,N,12206.1739160,W,1,0,0.0,16.6907,M,0.0000,M,0.0000,0000*5c
$GPRMC,193556.43,A,3741.6462460,N,12206.1739160,W,58.1180,324.8151,070923,,,,A*51
$GPGGA,193557.43,3741.6593860,N,12206.1855440,W,1,0,0.0,16.4317,M,0.0000,M,0.0000,0000*55
$GPRMC,193557.43,A,3741.6593860,N,12206.1855440,W,57.4449,324.7392,070923,,,,A*59
$GPGGA,193558.43,3741.6723700,N,12206.1970520,W,1,0,0.0,16.1687,M,0.0000,M,0.0000,0000*52
$GPRMC,193558.43,A,3741.6723700,N,12206.1970520,W,56.7851,324.5956,070923,,,,A*50
$GPGGA,193559.43,3741.6851860,N,12206.2084640,W,1,0,0.0,15.9915,M,0.0000,M,0.0000,0000*5b
$GPRMC,193559.43,A,3741.6851860,N,12206.2084640,W,56.0894,324.5958,070923,,,,A*56
$GPGGA,193600.43,3741.6978220,N,12206.2197740,W,1,0,0.0,15.7718,M,0.0000,M,0.0000,0000*5f
$GPRMC,193600.43,A,3741.6978220,N,12206.2197740,W,55.4351,324.2877,070923,,,,A*51
$GPGGA,193601.43,3741.7102960,N,12206.2310000,W,1,0,0.0,15.5951,M,0.0000,M,0.0000,0000*5a
$GPRMC,193601.43,A,3741.7102960,N,12206.2310000,W,54.8611,324.4083,070923,,,,A*5c
$GPGGA,193602.43,3741.7226680,N,12206.2421000,W,1,0,0.0,15.4597,M,0.0000,M,0.0000,0000*5f
$GPRMC,193602.43,A,3741.7226680,N,12206.2421000,W,54.4979,324.3120,070923,,,,A*5c
$GPGGA,193603.43,3741.7349560,N,12206.2531520,W,1,0,0.0,15.2535,M,0.0000,M,0.0000,0000*52
$GPRMC,193603.43,A,3741.7349560,N,12206.2531520,W,54.0500,324.3101,070923,,,,A*5a
$GPGGA,193604.43,3741.7471420,N,12206.2640900,W,1,0,0.0,15.0437,M,0.0000,M,0.0000,0000*56
$GPRMC,193604.43,A,3741.7471420,N,12206.2640900,W,53.5499,324.6357,070923,,,,A*58
$GPGGA,193605.43,3741.7593100,N,12206.2748780,W,1,0,0.0,14.8048,M,0.0000,M,0.0000,0000*57
$GPRMC,193605.43,A,3741.7593100,N,12206.2748780,W,53.6451,324.6661,070923,,,,A*5b
$GPGGA,193606.43,3741.7715440,N,12206.2857380,W,1,0,0.0,14.6172,M,0.0000,M,0.0000,0000*5a
$GPRMC,193606.43,A,3741.7715440,N,12206.2857380,W,53.9996,324.6870,070923,,,,A*57
$GPGGA,193607.43,3741.7838680,N,12206.2966700,W,1,0,0.0,14.4131,M,0.0000,M,0.0000,0000*5f
$GPRMC,193607.43,A,3741.7838680,N,12206.2966700,W,54.4469,324.7269,070923,,,,A*53
$GPGGA,193608.43,3741.7963000,N,12206.3076920,W,1,0,0.0,14.2081,M,0.0000,M,0.0000,0000*58
$GPRMC,193608.43,A,3741.7963000,N,12206.3076920,W,54.9301,324.6817,070923,,,,A*5e
$GPGGA,193609.43,3741.8088460,N,12206.3188280,W,1,0,0.0,13.9701,M,0.0000,M,0.0000,0000*5a
$GPRMC,193609.43,A,3741.8088460,N,12206.3188280,W,55.4435,324.5775,070923,,,,A*5b
$GPGGA,193610.43,3741.8214700,N,12206.3301200,W,1,0,0.0,13.7551,M,0.0000,M,0.0000,0000*52
$GPRMC,193610.43,A,3741.8214700,N,12206.3301200,W,55.9403,324.5148,070923,,,,A*5a
$GPGGA,193611.43,3741.8341900,N,12206.3414660,W,1,0,0.0,13.5501,M,0.0000,M,0.0000,0000*5a
$GPRMC,193611.43,A,3741.8341900,N,12206.3414660,W,56.0646,324.6311,070923,,,,A*51
$GPGGA,193612.43,3741.8468740,N,12206.3527400,W,1,0,0.0,13.3521,M,0.0000,M,0.0000,0000*5e
$GPRMC,193612.43,A,3741.8468740,N,12206.3527400,W,55.5972,324.6035,070923,,,,A*5a
$GPGGA,193613.43,3741.8594440,N,12206.3639420,W,1,0,0.0,13.1508,M,0.0000,M,0.0000,0000*59
$GPRMC,193613.43,A,3741.8594440,N,12206.3639420,W,55.2835,324.5728,070923,,,,A*59
$GPGGA,193614.43,3741.8719780,N,12206.3751200,W,1,0,0.0,12.9342,M,0.0000,M,0.0000,0000*5c
$GPRMC,193614.43,A,3741.8719780,N,12206.3751200,W,55.0983,324.5081,070923,,,,A*57
$GPGGA,193615.43,3741.8844280,N,12206.3862200,W,1,0,0.0,12.7090,M,0.0000,M,0.0000,0000*52
$GPRMC,193615.43,A,3741.8844280,N,12206.3862200,W,54.6236,324.6916,070923,,,,A*5d
$GPGGA,193616.43,3741.8967820,N,12206.3971700,W,1,0,0.0,12.5271,M,0.0000,M,0.0000,0000*58
$GPRMC,193616.43,A,3741.8967820,N,12206.3971700,W,54.0454,324.6979,070923,,,,A*55
$GPGGA,193617.43,3741.9090100,N,12206.4080360,W,1,0,0.0,12.3081,M,0.0000,M,0.0000,0000*5b
$GPRMC,193617.43,A,3741.9090100,N,12206.4080360,W,53.7296,324.5292,070923,,,,A*58
$GPGGA,193618.43,3741.9212260,N,12206.4189380,W,1,0,0.0,12.1522,M,0.0000,M,0.0000,0000*51
$GPRMC,193618.43,A,3741.9212260,N,12206.4189380,W,53.9774,324.5491,070923,,,,A*5e
$GPGGA,193619.43,3741.9334360,N,12206.4298580,W,1,0,0.0,12.0676,M,0.0000,M,0.0000,0000*52
$GPRMC,193619.43,A,3741.9334360,N,12206.4298580,W,53.6293,324.4992,070923,,,,A*52
$GPGGA,193620.43,3741.9454900,N,12206.4407120,W,1,0,0.0,12.0883,M,0.0000,M,0.0000,0000*5f
$GPRMC,193620.43,A,3741.9454900,N,12206.4407120,W,52.9577,324.2485,070923,,,,A*55
$GPGGA,193621.43,3741.9573160,N,12206.4515420,W,1,0,0.0,12.1179,M,0.0000,M,0.0000,0000*5e
$GPRMC,193621.43,A,3741.9573160,N,12206.4515420,W,52.2138,323.3531,070923,,,,A*55
$GPGGA,193622.43,3741.9688300,N,12206.4625220,W,1,0,0.0,11.9795,M,0.0000,M,0.0000,0000*57
$GPRMC,193622.43,A,3741.9688300,N,12206.4625220,W,51.8386,322.3473,070923,,,,A*5b
$GPGGA,193623.43,3741.9802120,N,12206.4738080,W,1,0,0.0,11.7791,M,0.0000,M,0.0000,0000*55
$GPRMC,193623.43,A,3741.9802120,N,12206.4738080,W,52.4985,321.0000,070923,,,,A*55
$GPGGA,193624.43,3741.9915460,N,12206.4856100,W,1,0,0.0,11.5871,M,0.0000,M,0.0000,0000*59
$GPRMC,193624.43,A,3741.9915460,N,12206.4856100,W,53.2420,319.7206,070923,,,,A*57
$GPGGA,193625.43,3742.0028020,N,12206.4978980,W,1,0,0.0,11.3504,M,0.0000,M,0.0000,0000*51
$GPRMC,193625.43,A,3742.0028020,N,12206.4978980,W,53.9136,318.3502,070923,,,,A*59
$GPGGA,193626.43,3742.0139140,N,12206.5107020,W,1,0,0.0,11.0599,M,0.0000,M,0.0000,0000*51
$GPRMC,193626.43,A,3742.0139140,N,12206.5107020,W,54.3401,316.5414,070923,,,,A*5c
$GPGGA,193627.43,3742.0247680,N,12206.5240100,W,1,0,0.0,10.7160,M,0.0000,M,0.0000,0000*56
$GPRMC,193627.43,A,3742.0247680,N,12206.5240100,W,54.6684,314.9171,070923,,,,A*5d
$GPGGA,193628.43,3742.0353940,N,12206.5377680,W,1,0,0.0,10.2168,M,0.0000,M,0.0000,0000*59
$GPRMC,193628.43,A,3742.0353940,N,12206.5377680,W,54.9116,313.4617,070923,,,,A*51
$GPGGA,193629.43,3742.0458040,N,12206.5518860,W,1,0,0.0,9.5726,M,0.0000,M,0.0000,0000*61
$GPRMC,193629.43,A,3742.0458040,N,12206.5518860,W,55.1519,312.0842,070923,,,,A*53
$GPGGA,193630.43,3742.0559500,N,12206.5663460,W,1,0,0.0,8.9617,M,0.0000,M,0.0000,0000*65
$GPRMC,193630.43,A,3742.0559500,N,12206.5663460,W,55.0421,310.6338,070923,,,,A*50
$GPGGA,193631.43,3742.0657180,N,12206.5811240,W,1,0,0.0,8.2943,M,0.0000,M,0.0000,0000*6f
$GPRMC,193631.43,A,3742.0657180,N,12206.5811240,W,54.7319,308.8517,070923,,,,A*59
$GPGGA,193632.43,3742.0751440,N,12206.5961300,W,1,0,0.0,7.4168,M,0.0000,M,0.0000,0000*69
$GPRMC,193632.43,A,3742.0751440,N,12206.5961300,W,54.7527,307.8113,070923,,,,A*53
$GPGGA,193633.43,3742.0845400,N,12206.6113640,W,1,0,0.0,6.3870,M,0.0000,M,0.0000,0000*6f
$GPRMC,193633.43,A,3742.0845400,N,12206.6113640,W,55.4761,307.6812,070923,,,,A*57
$GPGGA,193634.43,3742.0940620,N,12206.6268320,W,1,0,0.0,5.3785,M,0.0000,M,0.0000,0000*66
$GPRMC,193634.43,A,3742.0940620,N,12206.6268320,W,56.2751,307.6053,070923,,,,A*53
$GPGGA,193635.43,3742.1036980,N,12206.6425040,W,1,0,0.0,4.5367,M,0.0000,M,0.0000,0000*6e
$GPRMC,193635.43,A,3742.1036980,N,12206.6425040,W,56.9571,307.6620,070923,,,,A*5d
$GPGGA,193636.43,3742.1134540,N,12206.6583260,W,1,0,0.0,3.8398,M,0.0000,M,0.0000,0000*69
$GPRMC,193636.43,A,3742.1134540,N,12206.6583260,W,57.4512,307.7970,070923,,,,A*52
$GPGGA,193637.43,3742.1232640,N,12206.6742320,W,1,0,0.0,3.3770,M,0.0000,M,0.0000,0000*6d
$GPRMC,193637.43,A,3742.1232640,N,12206.6742320,W,57.5491,307.5830,070923,,,,A*53
$GPGGA,193638.43,3742.1330500,N,12206.6901740,W,1,0,0.0,3.1271,M,0.0000,M,0.0000,0000*6b
$GPRMC,193638.43,A,3742.1330500,N,12206.6901740,W,57.5614,307.5716,070923,,,,A*57
$GPGGA,193639.43,3742.1428660,N,12206.7060800,W,1,0,0.0,2.9442,M,0.0000,M,0.0000,0000*6a
$GPRMC,193639.43,A,3742.1428660,N,12206.7060800,W,57.5946,307.8486,070923,,,,A*56
$GPGGA,193640.43,3742.1527480,N,12206.7220100,W,1,0,0.0,2.8002,M,0.0000,M,0.0000,0000*68
$GPRMC,193640.43,A,3742.1527480,N,12206.7220100,W,57.9156,307.8489,070923,,,,A*5f
$GPGGA,193641.43,3742.1626720,N,12206.7380780,W,1,0,0.0,2.6295,M,0.0000,M,0.0000,0000*65
$GPRMC,193641.43,A,3742.1626720,N,12206.7380780,W,58.3539,307.6117,070923,,,,A*54
$GPGGA,193642.43,3742.1726260,N,12206.7542960,W,1,0,0.0,2.4445,M,0.0000,M,0.0000,0000*67
$GPRMC,193642.43,A,3742.1726260,N,12206.7542960,W,58.7663,307.5592,070923,,,,A*5d
$GPGGA,193643.43,3742.1826520,N,12206.7706580,W,1,0,0.0,2.2465,M,0.0000,M,0.0000,0000*6e
$GPRMC,193643.43,A,3742.1826520,N,12206.7706580,W,59.3725,307.5125,070923,,,,A*5e
$GPGGA,193644.43,3742.1927920,N,12206.7872120,W,1,0,0.0,2.0581,M,0.0000,M,0.0000,0000*6e
$GPRMC,193644.43,A,3742.1927920,N,12206.7872120,W,60.0652,307.5292,070923,,,,A*50
$GPGGA,193645.43,3742.2030340,N,12206.8039580,W,1,0,0.0,1.8555,M,0.0000,M,0.0000,0000*6b
$GPRMC,193645.43,A,3742.2030340,N,12206.8039580,W,60.6049,307.3945,070923,,,,A*5a
$GPGGA,193646.43,3742.2133180,N,12206.8208360,W,1,0,0.0,1.6655,M,0.0000,M,0.0000,0000*61
$GPRMC,193646.43,A,3742.2133180,N,12206.8208360,W,60.9206,307.3198,070923,,,,A*53
$GPGGA,193647.43,3742.2236380,N,12206.8377980,W,1,0,0.0,1.4678,M,0.0000,M,0.0000,0000*64
$GPRMC,193647.43,A,3742.2236380,N,12206.8377980,W,61.0968,307.4003,070923,,,,A*54
$GPGGA,193648.43,3742.2340060,N,12206.8547720,W,1,0,0.0,1.2641,M,0.0000,M,0.0000,0000*6b
$GPRMC,193648.43,A,3742.2340060,N,12206.8547720,W,61.2106,307.4522,070923,,,,A*53
$GPGGA,193649.43,3742.2444220,N,12206.8717220,W,1,0,0.0,1.1155,M,0.0000,M,0.0000,0000*6c
$GPRMC,193649.43,A,3742.2444220,N,12206.8717220,W,61.2449,307.7850,070923,,,,A*50
$GPGGA,193650.43,3742.2548800,N,12206.8886540,W,1,0,0.0,1.0429,M,0.0000,M,0.0000,0000*68
$GPRMC,193650.43,A,3742.2548800,N,12206.8886540,W,61.3051,307.6933,070923,,,,A*52
$GPGGA,193651.43,3742.2652780,N,12206.9055740,W,1,0,0.0,0.9405,M,0.0000,M,0.0000,0000*65
$GPRMC,193651.43,A,3742.2652780,N,12206.9055740,W,60.8284,307.5255,070923,,,,A*51
$GPGGA,193652.43,3742.2755200,N,12206.9224400,W,1,0,0.0,0.6593,M,0.0000,M,0.0000,0000*6f
$GPRMC,193652.43,A,3742.2755200,N,12206.9224400,W,60.5981,306.9730,070923,,,,A*52
$GPGGA,193653.43,3742.2855760,N,12206.9395040,W,1,0,0.0,0.2252,M,0.0000,M,0.0000,0000*67
$GPRMC,193653.43,A,3742.2855760,N,12206.9395040,W,60.8038,306.0311,070923,,,,A*5c
$GPGGA,193654.43,3742.2954880,N,12206.9568020,W,1,0,0.0,-0.3168,M,0.0000,M,0.0000,0000*45
$GPRMC,193654.43,A,3742.2954880,N,12206.9568020,W,60.9014,305.3553,070923,,,,A*57
$GPGGA,193655.43,3742.3051900,N,12206.9742080,W,1,0,0.0,-0.9683,M,0.0000,M,0.0000,0000*48
$GPRMC,193655.43,A,3742.3051900,N,12206.9742080,W,60.5912,304.5698,070923,,,,A*52
$GPGGA,193656.43,3742.3147000,N,12206.9916920,W,1,0,0.0,-1.7330,M,0.0000,M,0.0000,0000*4a
$GPRMC,193656.43,A,3742.3147000,N,12206.9916920,W,60.5854,304.0761,070923,,,,A*53
$GPGGA,193657.43,3742.3241020,N,12207.0093500,W,1,0,0.0,-2.5808,M,0.0000,M,0.0000,0000*4f
$GPRMC,193657.43,A,3742.3241020,N,12207.0093500,W,60.9051,303.2881,070923,,,,A*52
$GPGGA,193658.43,3742.3333420,N,12207.0272780,W,1,0,0.0,-3.5319,M,0.0000,M,0.0000,0000*4d
$GPRMC,193658.43,A,3742.3333420,N,12207.0272780,W,61.0777,302.4620,070923,,,,A*53
$GPGGA,193659.43,3742.3423660,N,12207.0453500,W,1,0,0.0,-4.4571,M,0.0000,M,0.0000,0000*4d
$GPRMC,193659.43,A,3742.3423660,N,12207.0453500,W,60.8734,301.6884,070923,,,,A*52
$GPGGA,193700.43,3742.3511980,N,12207.0634880,W,1,0,0.0,-5.3831,M,0.0000,M,0.0000,0000*48
$GPRMC,193700.43,A,3742.3511980,N,12207.0634880,W,60.6382,301.0151,070923,,,,A*58
$GPGGA,193701.43,3742.3597960,N,12207.0816860,W,1,0,0.0,-6.3148,M,0.0000,M,0.0000,0000*4d
$GPRMC,193701.43,A,3742.3597960,N,12207.0816860,W,60.3725,300.1883,070923,,,,A*53
$GPGGA,193702.43,3742.3681660,N,12207.0999620,W,1,0,0.0,-7.2279,M,0.0000,M,0.0000,0000*48
$GPRMC,193702.43,A,3742.3681660,N,12207.0999620,W,60.1360,299.6481,070923,,,,A*58
$GPGGA,193703.43,3742.3763740,N,12207.1182560,W,1,0,0.0,-8.2005,M,0.0000,M,0.0000,0000*45
$GPRMC,193703.43,A,3742.3763740,N,12207.1182560,W,59.9276,299.0516,070923,,,,A*5e
$GPGGA,193704.43,3742.3844380,N,12207.1366040,W,1,0,0.0,-9.2549,M,0.0000,M,0.0000,0000*43
$GPRMC,193704.43,A,3742.3844380,N,12207.1366040,W,59.9549,298.6146,070923,,,,A*59
$GPGGA,193705.43,3742.3924780,N,12207.1550720,W,1,0,0.0,-10.3192,M,0.0000,M,0.0000,0000*78
$GPRMC,193705.43,A,3742.3924780,N,12207.1550720,W,60.3649,298.5648,070923,,,,A*50
$GPGGA,193706.43,3742.4005960,N,12207.1736360,W,1,0,0.0,-11.3111,M,0.0000,M,0.0000,0000*7e
$GPRMC,193706.43,A,3742.4005960,N,12207.1736360,W,60.7367,298.8113,070923,,,,A*55
$GPGGA,193707.43,3742.4088100,N,12207.1922780,W,1,0,0.0,-12.2973,M,0.0000,M,0.0000,0000*7b
$GPRMC,193707.43,A,3742.4088100,N,12207.1922780,W,60.9583,298.9654,070923,,,,A*59
$GPGGA,193708.43,3742.4171080,N,12207.2108720,W,1,0,0.0,-13.4717,M,0.0000,M,0.0000,0000*78
$GPRMC,193708.43,A,3742.4171080,N,12207.2108720,W,60.8731,299.4792,070923,,,,A*5c
$GPGGA,193709.43,3742.4257120,N,12207.2291720,W,1,0,0.0,-14.6740,M,0.0000,M,0.0000,0000*71
$GPRMC,193709.43,A,3742.4257120,N,12207.2291720,W,60.6787,302.0842,070923,,,,A*54
$GPGGA,193710.43,3742.4350360,N,12207.2468240,W,1,0,0.0,-15.6845,M,0.0000,M,0.0000,0000*71
$GPRMC,193710.43,A,3742.4350360,N,12207.2468240,W,60.4782,304.7963,070923,,,,A*5b
$GPGGA,193711.43,3742.4449540,N,12207.2638460,W,1,0,0.0,-16.6288,M,0.0000,M,0.0000,0000*70
$GPRMC,193711.43,A,3742.4449540,N,12207.2638460,W,60.1805,307.6304,070923,,,,A*5e
$GPGGA,193712.43,3742.4555260,N,12207.2801720,W,1,0,0.0,-17.5605,M,0.0000,M,0.0000,0000*7a
$GPRMC,193712.43,A,3742.4555260,N,12207.2801720,W,60.2471,310.4750,070923,,,,A*5a
$GPGGA,193713.43,3742.4667640,N,12207.2958440,W,1,0,0.0,-18.3573,M,0.0000,M,0.0000,0000*7c
$GPRMC,193713.43,A,3742.4667640,N,12207.2958440,W,60.3876,313.2507,070923,,,,A*58
$GPGGA,193714.43,3742.4784700,N,12207.3110000,W,1,0,0.0,-18.8651,M,0.0000,M,0.0000,0000*7f
$GPRMC,193714.43,A,3742.4784700,N,12207.3110000,W,60.3770,314.5636,070923,,,,A*5b
$GPGGA,193715.43,3742.4903020,N,12207.3259820,W,1,0,0.0,-19.2674,M,0.0000,M,0.0000,0000*72
$GPRMC,193715.43,A,3742.4903020,N,12207.3259820,W,60.2942,314.7603,070923,,,,A*50
$GPGGA,193716.43,3742.5021100,N,12207.3409460,W,1,0,0.0,-19.6053,M,0.0000,M,0.0000,0000*76
$GPRMC,193716.43,A,3742.5021100,N,12207.3409460,W,60.2209,314.5395,070923,,,,A*5f
$GPGGA,193717.43,3742.5138640,N,12207.3559160,W,1,0,0.0,-19.7751,M,0.0000,M,0.0000,0000*78
$GPRMC,193717.43,A,3742.5138640,N,12207.3559160,W,60.0120,314.5754,070923,,,,A*56
$GPGGA,193718.43,3742.5255760,N,12207.3708260,W,1,0,0.0,-19.7509,M,0.0000,M,0.0000,0000*76
$GPRMC,193718.43,A,3742.5255760,N,12207.3708260,W,59.7480,314.6140,070923,,,,A*55
$GPGGA,193719.43,3742.5372580,N,12207.3856400,W,1,0,0.0,-19.6667,M,0.0000,M,0.0000,0000*71
$GPRMC,193719.43,A,3742.5372580,N,12207.3856400,W,59.5864,314.7125,070923,,,,A*5e
$GPGGA,193720.43,3742.5489160,N,12207.4004600,W,1,0,0.0,-19.5809,M,0.0000,M,0.0000,0000*7d
$GPRMC,193720.43,A,3742.5489160,N,12207.4004600,W,59.5749,314.5215,070923,,,,A*55
$GPGGA,193721.43,3742.5605560,N,12207.4153400,W,1,0,0.0,-19.3361,M,0.0000,M,0.0000,0000*7c
$GPRMC,193721.43,A,3742.5605560,N,12207.4153400,W,59.7169,314.4339,070923,,,,A*5f
$GPGGA,193722.43,3742.5721840,N,12207.4302860,W,1,0,0.0,-19.0041,M,0.0000,M,0.0000,0000*79
$GPRMC,193722.43,A,3742.5721840,N,12207.4302860,W,59.8426,314.2551,070923,,,,A*57
$GPGGA,193723.43,3742.5837400,N,12207.4453940,W,1,0,0.0,-18.6154,M,0.0000,M,0.0000,0000*7a
$GPRMC,193723.43,A,3742.5837400,N,12207.4453940,W,59.9055,313.2170,070923,,,,A*57
$GPGGA,193724.43,3742.5949840,N,12207.4608260,W,1,0,0.0,-18.1693,M,0.0000,M,0.0000,0000*73
$GPRMC,193724.43,A,3742.5949840,N,12207.4608260,W,59.7160,311.7692,070923,,,,A*50
$GPGGA,193725.43,3742.6058320,N,12207.4765940,W,1,0,0.0,-17.6246,M,0.0000,M,0.0000,0000*72
$GPRMC,193725.43,A,3742.6058320,N,12207.4765940,W,59.4645,309.7713,070923,,,,A*57
$GPGGA,193726.43,3742.6162060,N,12207.4927520,W,1,0,0.0,-17.0923,M,0.0000,M,0.0000,0000*72
$GPRMC,193726.43,A,3742.6162060,N,12207.4927520,W,59.1881,307.9581,070923,,,,A*53
$GPGGA,193727.43,3742.6261180,N,12207.5092460,W,1,0,0.0,-16.5636,M,0.0000,M,0.0000,0000*70
$GPRMC,193727.43,A,3742.6261180,N,12207.5092460,W,59.0054,306.2276,070923,,,,A*5a
$GPGGA,193728.43,3742.6356580,N,12207.5260400,W,1,0,0.0,-16.0193,M,0.0000,M,0.0000,0000*7a
$GPRMC,193728.43,A,3742.6356580,N,12207.5260400,W,58.9569,304.6591,070923,,,,A*56
$GPGGA,193729.43,3742.6448080,N,12207.5431640,W,1,0,0.0,-15.5944,M,0.0000,M,0.0000,0000*76
$GPRMC,193729.43,A,3742.6448080,N,12207.5431640,W,58.9399,303.1418,070923,,,,A*57
$GPGGA,193730.43,3742.6536700,N,12207.5605280,W,1,0,0.0,-15.2330,M,0.0000,M,0.0000,0000*7a
$GPRMC,193730.43,A,3742.6536700,N,12207.5605280,W,58.8738,302.2135,070923,,,,A*53
$GPGGA,193731.43,3742.6624060,N,12207.5778680,W,1,0,0.0,-14.5887,M,0.0000,M,0.0000,0000*74
$GPRMC,193731.43,A,3742.6624060,N,12207.5778680,W,58.3905,302.2781,070923,,,,A*5e
$GPGGA,193732.43,3742.6710400,N,12207.5949380,W,1,0,0.0,-13.5635,M,0.0000,M,0.0000,0000*7a
$GPRMC,193732.43,A,3742.6710400,N,12207.5949380,W,57.1547,302.4304,070923,,,,A*58
$GPGGA,193733.43,3742.6795060,N,12207.6115940,W,1,0,0.0,-12.5506,M,0.0000,M,0.0000,0000*72
$GPRMC,193733.43,A,3742.6795060,N,12207.6115940,W,55.8310,302.3883,070923,,,,A*5e
$GPGGA,193734.43,3742.6877860,N,12207.6279560,W,1,0,0.0,-11.6423,M,0.0000,M,0.0000,0000*7f
$GPRMC,193734.43,A,3742.6877860,N,12207.6279560,W,55.0833,302.3659,070923,,,,A*5e
$GPGGA,193735.43,3742.6959760,N,12207.6441260,W,1,0,0.0,-10.8454,M,0.0000,M,0.0000,0000*79
$GPRMC,193735.43,A,3742.6959760,N,12207.6441260,W,54.5120,302.4908,070923,,,,A*54
$GPGGA,193736.43,3742.7041840,N,12207.6600860,W,1,0,0.0,-10.3047,M,0.0000,M,0.0000,0000*76
$GPRMC,193736.43,A,3742.7041840,N,12207.6600860,W,54.1324,303.0052,070923,,,,A*57
$GPGGA,193737.43,3742.7125300,N,12207.6758180,W,1,0,0.0,-9.8740,M,0.0000,M,0.0000,0000*43
$GPRMC,193737.43,A,3742.7125300,N,12207.6758180,W,53.9663,304.3973,070923,,,,A*56
$GPGGA,193738.43,3742.7212060,N,12207.6912140,W,1,0,0.0,-9.3923,M,0.0000,M,0.0000,0000*42
$GPRMC,193738.43,A,3742.7212060,N,12207.6912140,W,53.9605,305.9409,070923,,,,A*5c
$GPGGA,193739.43,3742.7302540,N,12207.7062920,W,1,0,0.0,-8.9597,M,0.0000,M,0.0000,0000*4d
$GPRMC,193739.43,A,3742.7302540,N,12207.7062920,W,54.0068,307.9925,070923,,,,A*59
$GPGGA,193740.43,3742.7397400,N,12207.7209560,W,1,0,0.0,-8.5340,M,0.0000,M,0.0000,0000*4d
$GPRMC,193740.43,A,3742.7397400,N,12207.7209560,W,54.1105,309.9744,070923,,,,A*55
$GPGGA,193741.43,3742.7496040,N,12207.7353080,W,1,0,0.0,-8.1124,M,0.0000,M,0.0000,0000*4b
$GPRMC,193741.43,A,3742.7496040,N,12207.7353080,W,54.3786,311.4981,070923,,,,A*5b
$GPGGA,193742.43,3742.7598880,N,12207.7493780,W,1,0,0.0,-7.7438,M,0.0000,M,0.0000,0000*4e
$GPRMC,193742.43,A,3742.7598880,N,12207.7493780,W,54.9096,313.3739,070923,,,,A*5b
$GPGGA,193743.43,3742.7706160,N,12207.7631960,W,1,0,0.0,-7.4542,M,0.0000,M,0.0000,0000*48
$GPRMC,193743.43,A,3742.7706160,N,12207.7631960,W,55.4894,315.1387,070923,,,,A*51
$GPGGA,193744.43,3742.7818120,N,12207.7766840,W,1,0,0.0,-7.2363,M,0.0000,M,0.0000,0000*48
$GPRMC,193744.43,A,3742.7818120,N,12207.7766840,W,55.9979,317.0440,070923,,,,A*52
$GPGGA,193745.43,3742.7934580,N,12207.7898240,W,1,0,0.0,-7.1333,M,0.0000,M,0.0000,0000*4a
$GPRMC,193745.43,A,3742.7934580,N,12207.7898240,W,56.5226,318.9849,070923,,,,A*5b
$GPGGA,193746.43,3742.8055540,N,12207.8026100,W,1,0,0.0,-7.0637,M,0.0000,M,0.0000,0000*41
$GPRMC,193746.43,A,3742.8055540,N,12207.8026100,W,57.1026,320.6909,070923,,,,A*56
$GPGGA,193747.43,3742.8180820,N,12207.8150360,W,1,0,0.0,-6.9870,M,0.0000,M,0.0000,0000*43
$GPRMC,193747.43,A,3742.8180820,N,12207.8150360,W,57.6310,322.6252,070923,,,,A*57
$GPGGA,193748.43,3742.8310360,N,12207.8270660,W,1,0,0.0,-6.9063,M,0.0000,M,0.0000,0000*46
$GPRMC,193748.43,A,3742.8310360,N,12207.8270660,W,58.1464,324.3249,070923,,,,A*5d
$GPGGA,193749.43,3742.8443620,N,12207.8386580,W,1,0,0.0,-6.8300,M,0.0000,M,0.0000,0000*45
$GPRMC,193749.43,A,3742.8443620,N,12207.8386580,W,58.2388,326.2991,070923,,,,A*52
$GPGGA,193750.43,3742.8579520,N,12207.8495480,W,1,0,0.0,-6.7529,M,0.0000,M,0.0000,0000*40
$GPRMC,193750.43,A,3742.8579520,N,12207.8495480,W,57.6310,328.4905,070923,,,,A*5a
$GPGGA,193751.43,3742.8716680,N,12207.8597120,W,1,0,0.0,-6.6823,M,0.0000,M,0.0000,0000*49
$GPRMC,193751.43,A,3742.8716680,N,12207.8597120,W,56.8401,330.3246,070923,,,,A*5f
$GPGGA,193752.43,3742.8854500,N,12207.8691680,W,1,0,0.0,-6.6084,M,0.0000,M,0.0000,0000*45
$GPRMC,193752.43,A,3742.8854500,N,12207.8691680,W,56.1153,332.2625,070923,,,,A*5f
$GPGGA,193753.43,3742.8993760,N,12207.8779880,W,1,0,0.0,-6.5500,M,0.0000,M,0.0000,0000*49
$GPRMC,193753.43,A,3742.8993760,N,12207.8779880,W,56.0818,333.9268,070923,,,,A*59
$GPGGA,193754.43,3742.9134700,N,12207.8862860,W,1,0,0.0,-6.4863,M,0.0000,M,0.0000,0000*4e
$GPRMC,193754.43,A,3742.9134700,N,12207.8862860,W,55.7177,335.8037,070923,,,,A*5c
$GPGGA,193755.43,3742.9276060,N,12207.8939480,W,1,0,0.0,-6.3749,M,0.0000,M,0.0000,0000*46
$GPRMC,193755.43,A,3742.9276060,N,12207.8939480,W,54.9744,337.2523,070923,,,,A*55
$GPGGA,193756.43,3742.9416700,N,12207.9011180,W,1,0,0.0,-6.1827,M,0.0000,M,0.0000,0000*46
$GPRMC,193756.43,A,3742.9416700,N,12207.9011180,W,54.1830,338.4713,070923,,,,A*5c
$GPGGA,193757.43,3742.9556380,N,12207.9079520,W,1,0,0.0,-6.2897,M,0.0000,M,0.0000,0000*46
$GPRMC,193757.43,A,3742.9556380,N,12207.9079520,W,53.5871,338.6861,070923,,,,A*5a
$GPGGA,193758.43,3742.9694800,N,12207.9146780,W,1,0,0.0,-6.5758,M,0.0000,M,0.0000,0000*49
$GPRMC,193758.43,A,3742.9694800,N,12207.9146780,W,53.1116,338.8365,070923,,,,A*53
$GPGGA,193759.43,3742.9832020,N,12207.9213260,W,1,0,0.0,-6.8612,M,0.0000,M,0.0000,0000*4a
$GPRMC,193759.43,A,3742.9832020,N,12207.9213260,W,52.6791,338.7282,070923,,,,A*5a
$GPGGA,193800.43,3742.9968640,N,12207.9279560,W,1,0,0.0,-7.1082,M,0.0000,M,0.0000,0000*4b
$GPRMC,193800.43,A,3742.9968640,N,12207.9279560,W,52.6556,338.7949,070923,,,,A*59
$GPGGA,193801.43,3743.0105140,N,12207.9346100,W,1,0,0.0,-7.1970,M,0.0000,M,0.0000,0000*4d
$GPRMC,193801.43,A,3743.0105140,N,12207.9346100,W,52.5764,338.6269,070923,,,,A*53
$GPGGA,193802.43,3743.0241160,N,12207.9412880,W,1,0,0.0,-7.0979,M,0.0000,M,0.0000,0000*40
$GPRMC,193802.43,A,3743.0241160,N,12207.9412880,W,52.3906,338.5052,070923,,,,A*53
$GPGGA,193803.43,3743.0376520,N,12207.9479480,W,1,0,0.0,-6.9109,M,0.0000,M,0.0000,0000*42
$GPRMC,193803.43,A,3743.0376520,N,12207.9479480,W,52.1772,338.4914,070923,,,,A*53
$GPGGA,193804.43,3743.0511400,N,12207.9545960,W,1,0,0.0,-6.7366,M,0.0000,M,0.0000,0000*49
$GPRMC,193804.43,A,3743.0511400,N,12207.9545960,W,51.9558,338.4612,070923,,,,A*55
$GPGGA,193805.43,3743.0645320,N,12207.9611960,W,1,0,0.0,-6.4818,M,0.0000,M,0.0000,0000*4c
$GPRMC,193805.43,A,3743.0645320,N,12207.9611960,W,51.3521,338.5668,070923,,,,A*59
$GPGGA,193806.43,3743.0777200,N,12207.9676760,W,1,0,0.0,-6.0606,M,0.0000,M,0.0000,0000*46
$GPRMC,193806.43,A,3743.0777200,N,12207.9676760,W,50.4021,338.6155,070923,,,,A*5f
$GPGGA,193807.43,3743.0906680,N,12207.9741080,W,1,0,0.0,-5.5276,M,0.0000,M,0.0000,0000*4a
$GPRMC,193807.43,A,3743.0906680,N,12207.9741080,W,49.8711,338.2570,070923,,,,A*51
$GPGGA,193808.43,3743.1035080,N,12207.9806120,W,1,0,0.0,-5.0237,M,0.0000,M,0.0000,0000*4c
$GPRMC,193808.43,A,3743.1035080,N,12207.9806120,W,49.6735,337.6915,070923,,,,A*5b
$GPGGA,193809.43,3743.1162520,N,12207.9872600,W,1,0,0.0,-4.5757,M,0.0000,M,0.0000,0000*40
$GPRMC,193809.43,A,3743.1162520,N,12207.9872600,W,49.5444,337.1757,070923,,,,A*59
$GPGGA,193810.43,3743.1289180,N,12207.9940580,W,1,0,0.0,-4.1534,M,0.0000,M,0.0000,0000*48
$GPRMC,193810.43,A,3743.1289180,N,12207.9940580,W,49.4839,336.5507,070923,,,,A*57
$GPGGA,193811.43,3743.1415540,N,12208.0010300,W,1,0,0.0,-3.6813,M,0.0000,M,0.0000,0000*4e
$GPRMC,193811.43,A,3743.1415540,N,12208.0010300,W,49.8488,336.0098,070923,,,,A*55
$GPGGA,193812.43,3743.1543100,N,12208.0082360,W,1,0,0.0,-3.2994,M,0.0000,M,0.0000,0000*48
$GPRMC,193812.43,A,3743.1543100,N,12208.0082360,W,50.7430,335.5732,070923,,,,A*5c
$GPGGA,193813.43,3743.1672340,N,12208.0157000,W,1,0,0.0,-3.0015,M,0.0000,M,0.0000,0000*40
$GPRMC,193813.43,A,3743.1672340,N,12208.0157000,W,51.5019,334.9403,070923,,,,A*56
$GPGGA,193814.43,3743.1802720,N,12208.0234820,W,1,0,0.0,-2.7659,M,0.0000,M,0.0000,0000*48
$GPRMC,193814.43,A,3743.1802720,N,12208.0234820,W,52.2676,334.2104,070923,,,,A*54
$GPGGA,193815.43,3743.1934360,N,12208.0315880,W,1,0,0.0,-2.6280,M,0.0000,M,0.0000,0000*44
$GPRMC,193815.43,A,3743.1934360,N,12208.0315880,W,53.0975,333.5748,070923,,,,A*58
$GPGGA,193816.43,3743.2066660,N,12208.0399340,W,1,0,0.0,-2.5744,M,0.0000,M,0.0000,0000*42
$GPRMC,193816.43,A,3743.2066660,N,12208.0399340,W,53.0765,332.9953,070923,,,,A*56
$GPGGA,193817.43,3743.2197160,N,12208.0484120,W,1,0,0.0,-2.6245,M,0.0000,M,0.0000,0000*43
$GPRMC,193817.43,A,3743.2197160,N,12208.0484120,W,52.5144,332.2446,070923,,,,A*53
$GPGGA,193818.43,3743.2325320,N,12208.0569920,W,1,0,0.0,-2.7849,M,0.0000,M,0.0000,0000*4c
$GPRMC,193818.43,A,3743.2325320,N,12208.0569920,W,51.8994,331.6528,070923,,,,A*5e
$GPGGA,193819.43,3743.2451440,N,12208.0656320,W,1,0,0.0,-3.0240,M,0.0000,M,0.0000,0000*48
$GPRMC,193819.43,A,3743.2451440,N,12208.0656320,W,51.3275,331.0681,070923,,,,A*56
$GPGGA,193820.43,3743.2575520,N,12208.0743320,W,1,0,0.0,-3.3450,M,0.0000,M,0.0000,0000*43
$GPRMC,193820.43,A,3743.2575520,N,12208.0743320,W,50.8311,330.5553,070923,,,,A*58
$GPGGA,193821.43,3743.2697680,N,12208.0831400,W,1,0,0.0,-3.7601,M,0.0000,M,0.0000,0000*49
$GPRMC,193821.43,A,3743.2697680,N,12208.0831400,W,50.4083,329.6627,070923,,,,A*5f
$GPGGA,193822.43,3743.2817860,N,12208.0921040,W,1,0,0.0,-4.2588,M,0.0000,M,0.0000,0000*4c
$GPRMC,193822.43,A,3743.2817860,N,12208.0921040,W,50.0551,328.9860,070923,,,,A*57
$GPGGA,193823.43,3743.2936840,N,12208.1011220,W,1,0,0.0,-4.8813,M,0.0000,M,0.0000,0000*47
$GPRMC,193823.43,A,3743.2936840,N,12208.1011220,W,49.8050,328.8063,070923,,,,A*57
$GPGGA,193824.43,3743.3054920,N,12208.1101760,W,1,0,0.0,-5.6243,M,0.0000,M,0.0000,0000*4a
$GPRMC,193824.43,A,3743.3054920,N,12208.1101760,W,49.6408,328.3496,070923,,,,A*58
$GPGGA,193825.43,3743.3172340,N,12208.1192420,W,1,0,0.0,-6.3777,M,0.0000,M,0.0000,0000*4b
$GPRMC,193825.43,A,3743.3172340,N,12208.1192420,W,49.4246,328.4712,070923,,,,A*5b
$GPGGA,193826.43,3743.3289820,N,12208.1283020,W,1,0,0.0,-7.1093,M,0.0000,M,0.0000,0000*4b
$GPRMC,193826.43,A,3743.3289820,N,12208.1283020,W,49.8504,328.3493,070923,,,,A*55
$GPGGA,193827.43,3743.3408980,N,12208.1375000,W,1,0,0.0,-7.6464,M,0.0000,M,0.0000,0000*4f
$GPRMC,193827.43,A,3743.3408980,N,12208.1375000,W,50.6241,328.3701,070923,,,,A*52
$GPGGA,193828.43,3743.3528800,N,12208.1467580,W,1,0,0.0,-7.9402,M,0.0000,M,0.0000,0000*4c
$GPRMC,193828.43,A,3743.3528800,N,12208.1467580,W,50.3469,328.3980,070923,,,,A*50
$GPGGA,193829.43,3743.3647480,N,12208.1559620,W,1,0,0.0,-8.0451,M,0.0000,M,0.0000,0000*46
$GPRMC,193829.43,A,3743.3647480,N,12208.1559620,W,50.0195,328.1147,070923,,,,A*5e
$GPGGA,193830.43,3743.3766160,N,12208.1652020,W,1,0,0.0,-7.9983,M,0.0000,M,0.0000,0000*4d
$GPRMC,193830.43,A,3743.3766160,N,12208.1652020,W,50.3630,328.2708,070923,,,,A*54
$GPGGA,193831.43,3743.3886100,N,12208.1744660,W,1,0,0.0,-7.9714,M,0.0000,M,0.0000,0000*4f
$GPRMC,193831.43,A,3743.3886100,N,12208.1744660,W,50.8309,328.4440,070923,,,,A*5b
$GPGGA,193832.43,3743.4007540,N,12208.1837540,W,1,0,0.0,-7.9787,M,0.0000,M,0.0000,0000*4a
$GPRMC,193832.43,A,3743.4007540,N,12208.1837540,W,51.3752,328.7151,070923,,,,A*52
$GPGGA,193833.43,3743.4130600,N,12208.1930960,W,1,0,0.0,-8.0848,M,0.0000,M,0.0000,0000*4b
$GPRMC,193833.43,A,3743.4130600,N,12208.1930960,W,52.0137,328.7717,070923,,,,A*58
$GPGGA,193834.43,3743.4255700,N,12208.2024200,W,1,0,0.0,-8.1744,M,0.0000,M,0.0000,0000*4d
$GPRMC,193834.43,A,3743.4255700,N,12208.2024200,W,52.4009,330.0845,070923,,,,A*52
$GPGGA,193835.43,3743.4383020,N,12208.2111440,W,1,0,0.0,-8.0065,M,0.0000,M,0.0000,0000*43
$GPRMC,193835.43,A,3743.4383020,N,12208.2111440,W,51.7609,332.3646,070923,,,,A*53
$GPGGA,193836.43,3743.4511420,N,12208.2191480,W,1,0,0.0,-7.6317,M,0.0000,M,0.0000,0000*42
$GPRMC,193836.43,A,3743.4511420,N,12208.2191480,W,51.5114,334.5378,070923,,,,A*5c
$GPGGA,193837.43,3743.4642040,N,12208.2265580,W,1,0,0.0,-7.1009,M,0.0000,M,0.0000,0000*46
$GPRMC,193837.43,A,3743.4642040,N,12208.2265580,W,51.5420,336.6962,070923,,,,A*51
$GPGGA,193838.43,3743.4774760,N,12208.2333260,W,1,0,0.0,-6.3883,M,0.0000,M,0.0000,0000*4a
$GPRMC,193838.43,A,3743.4774760,N,12208.2333260,W,51.4394,338.8694,070923,,,,A*5b
$GPGGA,193839.43,3743.4909040,N,12208.2394400,W,1,0,0.0,-5.5697,M,0.0000,M,0.0000,0000*49
$GPRMC,193839.43,A,3743.4909040,N,12208.2394400,W,51.2888,340.9749,070923,,,,A*59
$GPGGA,193840.43,3743.5044580,N,12208.2449300,W,1,0,0.0,-4.7711,M,0.0000,M,0.0000,0000*43
$GPRMC,193840.43,A,3743.5044580,N,12208.2449300,W,51.1099,342.9637,070923,,,,A*5e
$GPGGA,193841.43,3743.5181080,N,12208.2498260,W,1,0,0.0,-4.0098,M,0.0000,M,0.0000,0000*45
$GPRMC,193841.43,A,3743.5181080,N,12208.2498260,W,51.0088,344.9718,070923,,,,A*52
$GPGGA,193842.43,3743.5318780,N,12208.2540500,W,1,0,0.0,-3.3302,M,0.0000,M,0.0000,0000*42
$GPRMC,193842.43,A,3743.5318780,N,12208.2540500,W,50.9658,347.3436,070923,,,,A*54
$GPGGA,193843.43,3743.5457620,N,12208.2575960,W,1,0,0.0,-2.7419,M,0.0000,M,0.0000,0000*40
$GPRMC,193843.43,A,3743.5457620,N,12208.2575960,W,50.9467,349.3743,070923,,,,A*5f
$GPGGA,193844.43,3743.5597420,N,12208.2605180,W,1,0,0.0,-2.2116,M,0.0000,M,0.0000,0000*45
$GPRMC,193844.43,A,3743.5597420,N,12208.2605180,W,50.9992,351.2484,070923,,,,A*52
$GPGGA,193845.43,3743.5737880,N,12208.2629960,W,1,0,0.0,-1.6122,M,0.0000,M,0.0000,0000*42
$GPRMC,193845.43,A,3743.5737880,N,12208.2629960,W,50.9944,352.5641,070923,,,,A*51
$GPGGA,193846.43,3743.5878700,N,12208.2651500,W,1,0,0.0,-1.1374,M,0.0000,M,0.0000,0000*41
$GPRMC,193846.43,A,3743.5878700,N,12208.2651500,W,51.0730,353.2102,070923,,,,A*57
$GPGGA,193847.43,3743.6020060,N,12208.2672620,W,1,0,0.0,-0.8311,M,0.0000,M,0.0000,0000*4c
$GPRMC,193847.43,A,3743.6020060,N,12208.2672620,W,51.2592,352.9834,070923,,,,A*5f
$GPGGA,193848.43,3743.6161660,N,12208.2694220,W,1,0,0.0,-0.3876,M,0.0000,M,0.0000,0000*4c
$GPRMC,193848.43,A,3743.6161660,N,12208.2694220,W,51.2604,352.9967,070923,,,,A*55
$GPGGA,193849.43,3743.6302840,N,12208.2715580,W,1,0,0.0,0.1678,M,0.0000,M,0.0000,0000*6c
$GPRMC,193849.43,A,3743.6302840,N,12208.2715580,W,51.0259,353.1935,070923,,,,A*5a
$GPGGA,193850.43,3743.6443360,N,12208.2736460,W,1,0,0.0,0.8656,M,0.0000,M,0.0000,0000*64
$GPRMC,193850.43,A,3743.6443360,N,12208.2736460,W,50.7041,353.0345,070923,,,,A*56
$GPGGA,193851.43,3743.6582860,N,12208.2757820,W,1,0,0.0,1.5305,M,0.0000,M,0.0000,0000*62
$GPRMC,193851.43,A,3743.6582860,N,12208.2757820,W,50.2316,352.9215,070923,,,,A*57
$GPGGA,193852.43,3743.6720500,N,12208.2779720,W,1,0,0.0,2.0754,M,0.0000,M,0.0000,0000*65
$GPRMC,193852.43,A,3743.6720500,N,12208.2779720,W,49.6909,352.6229,070923,,,,A*5e
$GPGGA,193853.43,3743.6857360,N,12208.2802700,W,1,0,0.0,2.4826,M,0.0000,M,0.0000,0000*64
$GPRMC,193853.43,A,3743.6857360,N,12208.2802700,W,49.6770,351.9937,070923,,,,A*59
$GPGGA,193854.43,3743.6994760,N,12208.2827780,W,1,0,0.0,2.7585,M,0.0000,M,0.0000,0000*61
$GPRMC,193854.43,A,3743.6994760,N,12208.2827780,W,50.2116,351.3445,070923,,,,A*53
$GPGGA,193855.43,3743.7133420,N,12208.2855020,W,1,0,0.0,2.9174,M,0.0000,M,0.0000,0000*6f
$GPRMC,193855.43,A,3743.7133420,N,12208.2855020,W,50.7334,350.7129,070923,,,,A*54
$GPGGA,193856.43,3743.7273400,N,12208.2884780,W,1,0,0.0,2.9836,M,0.0000,M,0.0000,0000*67
$GPRMC,193856.43,A,3743.7273400,N,12208.2884780,W,51.3436,349.8748,070923,,,,A*55
$GPGGA,193857.43,3743.7413380,N,12208.2917780,W,1,0,0.0,2.9515,M,0.0000,M,0.0000,0000*6e
$GPRMC,193857.43,A,3743.7413380,N,12208.2917780,W,50.9554,348.8584,070923,,,,A*5d
$GPGGA,193858.43,3743.7551440,N,12208.2953060,W,1,0,0.0,2.8658,M,0.0000,M,0.0000,0000*6f
$GPRMC,193858.43,A,3743.7551440,N,12208.2953060,W,50.2947,348.1920,070923,,,,A*59
$GPGGA,193859.43,3743.7687460,N,12208.2989360,W,1,0,0.0,2.6414,M,0.0000,M,0.0000,0000*64
$GPRMC,193859.43,A,3743.7687460,N,12208.2989360,W,49.6692,347.7402,070923,,,,A*59
$GPGGA,193900.43,3743.7821560,N,12208.3026380,W,1,0,0.0,2.3685,M,0.0000,M,0.0000,0000*66
$GPRMC,193900.43,A,3743.7821560,N,12208.3026380,W,49.1226,347.4346,070923,,,,A*5c
$GPGGA,193901.43,3743.7954100,N,12208.3063760,W,1,0,0.0,2.1745,M,0.0000,M,0.0000,0000*62
$GPRMC,193901.43,A,3743.7954100,N,12208.3063760,W,48.5301,347.2118,070923,,,,A*59
$GPGGA,193902.43,3743.8084960,N,12208.3100480,W,1,0,0.0,1.9965,M,0.0000,M,0.0000,0000*6a
$GPRMC,193902.43,A,3743.8084960,N,12208.3100480,W,47.9320,347.3145,070923,,,,A*5f
$GPGGA,193903.43,3743.8214920,N,12208.3137200,W,1,0,0.0,1.9349,M,0.0000,M,0.0000,0000*6a
$GPRMC,193903.43,A,3743.8214920,N,12208.3137200,W,47.8804,347.1650,070923,,,,A*56
$GPGGA,193904.43,3743.8344880,N,12208.3173980,W,1,0,0.0,1.9362,M,0.0000,M,0.0000,0000*68
$GPRMC,193904.43,A,3743.8344880,N,12208.3173980,W,47.9309,347.2481,070923,,,,A*57
$GPGGA,193905.43,3743.8475080,N,12208.3210940,W,1,0,0.0,1.9169,M,0.0000,M,0.0000,0000*67
$GPRMC,193905.43,A,3743.8475080,N,12208.3210940,W,48.0746,347.0359,070923,,,,A*58
$GPGGA,193906.43,3743.8605640,N,12208.3248740,W,1,0,0.0,1.8630,M,0.0000,M,0.0000,0000*62
$GPRMC,193906.43,A,3743.8605640,N,12208.3248740,W,48.2146,346.8445,070923,,,,A*50
$GPGGA,193907.43,3743.8736260,N,12208.3286780,W,1,0,0.0,1.8720,M,0.0000,M,0.0000,0000*6a
$GPRMC,193907.43,A,3743.8736260,N,12208.3286780,W,48.1111,346.9561,070923,,,,A*5f
$GPGGA,193908.43,3743.8865860,N,12208.3323860,W,1,0,0.0,1.8060,M,0.0000,M,0.0000,0000*6a
$GPRMC,193908.43,A,3743.8865860,N,12208.3323860,W,47.4654,347.1918,070923,,,,A*5b
$GPGGA,193909.43,3743.8993660,N,12208.3359980,W,1,0,0.0,1.7896,M,0.0000,M,0.0000,0000*61
$GPRMC,193909.43,A,3743.8993660,N,12208.3359980,W,46.7809,347.2180,070923,,,,A*50
$GPGGA,193910.43,3743.9119780,N,12208.3395500,W,1,0,0.0,1.7589,M,0.0000,M,0.0000,0000*6a
$GPRMC,193910.43,A,3743.9119780,N,12208.3395500,W,46.1330,347.3190,070923,,,,A*5f
$GPGGA,193911.43,3743.9244400,N,12208.3430600,W,1,0,0.0,1.7305,M,0.0000,M,0.0000,0000*62
$GPRMC,193911.43,A,3743.9244400,N,12208.3430600,W,45.9358,347.1960,070923,,,,A*55
$GPGGA,193912.43,3743.9370100,N,12208.3465640,W,1,0,0.0,1.7012,M,0.0000,M,0.0000,0000*63
$GPRMC,193912.43,A,3743.9370100,N,12208.3465640,W,46.6779,347.4753,070923,,,,A*51
$GPGGA,193913.43,3743.9497900,N,12208.3500380,W,1,0,0.0,1.6719,M,0.0000,M,0.0000,0000*62
$GPRMC,193913.43,A,3743.9497900,N,12208.3500380,W,47.3223,347.9031,070923,,,,A*5d
$GPGGA,193914.43,3743.9627680,N,12208.3534340,W,1,0,0.0,1.6423,M,0.0000,M,0.0000,0000*6a
$GPRMC,193914.43,A,3743.9627680,N,12208.3534340,W,47.9331,348.3301,070923,,,,A*52
$GPGGA,193915.43,3743.9758480,N,12208.3567340,W,1,0,0.0,1.6163,M,0.0000,M,0.0000,0000*67
$GPRMC,193915.43,A,3743.9758480,N,12208.3567340,W,48.0206,348.7863,070923,,,,A*56
