MessageType,Provider,LatitudeDegrees,LongitudeDegrees,AltitudeMeters,SpeedMps,AccuracyMeters,BearingDegrees,UnixTimeMillis,SpeedAccuracyMps,BearingAccuracyDegrees,elapsedRealtimeNanos,VerticalAccuracyMeters
Fix,GT,37.5240109000,-122.3499207000,147.7216339111328,0.001,0.1,83.631744,1626295844440,,,,
Fix,GT,37.5240109000,-122.3499207000,147.72163831358057,0.0010000002,0.1,83.631676,1626295845440,,,,
Fix,GT,37.5240109000,-122.3499207000,147.72163831358057,0.0012447878,0.1,83.63174,1626295846440,,,,
Fix,GT,37.5240109000,-122.3499207000,147.72163831358057,0.001750377,0.1,83.63182,1626295847440,,,,
Fix,GT,37.5240109000,-122.3499207000,147.7216339111328,0.0017503769,0.1,83.631615,1626295848440,,,,
Fix,GT,37.5240109000,-122.3499207000,147.72163831358057,0.001,0.1,83.63186,1626295849440,,,,
Fix,GT,37.5240109000,-122.3499207000,147.72163831358057,0.0015055896,0.1,83.63176,1626295850440,,,,
Fix,GT,37.5240109000,-122.3499207000,147.72162950868506,0.0005784565,0.1,83.63156,1626295851440,,,,
Fix,GT,37.5240109000,-122.3499207000,147.7216339111328,0.003605551,0.1,83.63138,1626295852440,,,,
Fix,GT,37.5240109000,-122.3499207000,147.7216339111328,0.001,0.1,83.63244,1626295853440,,,,
Fix,GT,37.5240109000,-122.3499207000,147.72163831358057,0.000835757,0.1,83.63178,1626295854440,,,,
Fix,GT,37.5240109000,-122.3499207000,147.72163831358057,0.0,0.1,83.631256,1626295855440,,,,
Fix,GT,37.5240109000,-122.3499207000,147.72162950868506,0.001,0.1,83.63088,1626295856440,,,,
Fix,GT,37.5240109000,-122.3499207000,147.72162950868506,0.0,0.1,83.63101,1626295857440,,,,
Fix,GT,37.5240109000,-122.3499207000,147.72163831358057,0.0,0.1,83.63093,1626295858440,,,,
Fix,GT,37.5240109000,-122.3499207000,147.72163831358057,0.0,0.1,83.63086,1626295859440,,,,
Fix,GT,37.5240109000,-122.3499207000,147.7216339111328,0.0,0.1,83.630806,1626295860440,,,,
Fix,GT,37.5240109000,-122.3499207000,147.7216339111328,0.0012447875,0.1,83.63063,1626295861440,,,,
Fix,GT,37.5240109000,-122.3499207000,147.72162950868506,0.000578457,0.1,83.6304,1626295862440,,,,
Fix,GT,37.5240109000,-122.3499207000,147.72162950868506,0.0,0.1,83.63049,1626295863440,,,,
Fix,GT,37.5240109000,-122.3499207000,147.72162950868506,0.0,0.1,83.63043,1626295864440,,,,
Fix,GT,37.5240109000,-122.3499207000,147.7206268310547,0.0,0.1,83.6304,1626295865440,,,,
Fix,GT,37.5240109000,-122.3499207000,147.72063123347243,0.0,0.1,83.6303,1626295866440,,,,
Fix,GT,37.5240109000,-122.3499207000,147.7206268310547,0.001,0.1,83.63023,1626295867440,,,,
Fix,GT,37.5240109000,-122.3499207000,147.72062242863694,0.0016538184,0.1,83.63099,1626295868440,,,,
Fix,GT,37.5240110000,-122.3499198000,147.713623046875,0.35127038,0.1,83.63843,1626295869440,,,,
Fix,GT,37.5240116000,-122.3499103000,147.6859914601273,1.3413076,0.1,84.47454,1626295870440,,,,
Fix,GT,37.5240101000,-122.3498895000,147.646811171011,2.286901,0.1,91.36168,1626295871440,,,,
Fix,GT,37.5240030000,-122.3498599000,147.60221868798908,3.1554165,0.1,103.80589,1626295872440,,,,
Fix,GT,37.5239875000,-122.3498234000,147.5539500652958,4.1406236,0.1,116.82205,1626295873440,,,,
Fix,GT,37.5239622000,-122.3497810000,147.44622346404003,5.1314855,0.1,127.627174,1626295874440,,,,
Fix,GT,37.5239268000,-122.3497380000,147.51313022899558,5.7898426,0.1,136.69574,1626295875440,,,,
Fix,GT,37.5238839000,-122.3496982000,147.60708235825223,5.903892,0.1,145.60777,1626295876440,,,,
Fix,GT,37.5238369000,-122.3496690000,147.64912108985345,5.7399635,0.1,155.22829,1626295877440,,,,
Fix,GT,37.5237886000,-122.3496485000,147.58026376875932,5.5395584,0.1,161.60222,1626295878440,,,,
Fix,GT,37.5237431000,-122.3496289000,147.69222298229715,5.111109,0.1,159.93214,1626295879440,,,,
Fix,GT,37.5237051000,-122.3496043000,147.88695335352077,4.2523007,0.1,152.05875,1626295880440,,,,
Fix,GT,37.5236774000,-122.3495805000,148.06839545651246,3.27708,0.1,146.01573,1626295881440,,,,
Fix,GT,37.5236567000,-122.3495605000,148.26885977924576,2.632491,0.1,142.93639,1626295882440,,,,
Fix,GT,37.5236383000,-122.3495440000,148.46231312927557,2.4437413,0.1,144.71086,1626295883440,,,,
Fix,GT,37.5236168000,-122.3495367000,148.353307958409,2.3716388,0.1,161.22485,1626295884440,,,,
Fix,GT,37.5235947000,-122.3495447000,148.28807502281597,2.5193317,0.1,187.05325,1626295885440,,,,
Fix,GT,37.5235738000,-122.3495641000,148.3920816035461,3.120882,0.1,211.0432,1626295886440,,,,
Fix,GT,37.5235527000,-122.3495955000,148.3767648784924,4.1321163,0.1,227.40887,1626295887440,,,,
Fix,GT,37.5235261000,-122.3496362000,148.26112499117335,5.1516504,0.1,230.38043,1626295888440,,,,
Fix,GT,37.5234942000,-122.3496859000,148.08358341539133,6.01653,0.1,231.0223,1626295889440,,,,
Fix,GT,37.5234590000,-122.3497398000,147.83399534541877,6.247449,0.1,230.6389,1626295890440,,,,
Fix,GT,37.5234233000,-122.3497936000,147.5820008478404,6.064212,0.1,229.98508,1626295891440,,,,
Fix,GT,37.5233898000,-122.3498430000,147.34904115771678,5.269357,0.1,229.69751,1626295892440,,,,
Fix,GT,37.5233634000,-122.3498819000,147.17030664216782,3.6614704,0.1,229.49677,1626295893440,,,,
Fix,GT,37.5233473000,-122.3499055000,147.0801734900424,1.896382,0.1,229.44786,1626295894440,,,,
Fix,GT,37.5233399000,-122.3499163000,147.0338179740329,1.107882,0.1,229.44363,1626295895440,,,,
Fix,GT,37.5233307000,-122.3499298000,146.98217716530598,2.2089021,0.1,229.45044,1626295896440,,,,
Fix,GT,37.5233136000,-122.3499552000,146.92777314013756,3.6576047,0.1,229.84305,1626295897440,,,,
Fix,GT,37.5232897000,-122.3499915000,146.88816776797876,4.3378496,0.1,230.26888,1626295898440,,,,
Fix,GT,37.5232654000,-122.3500286000,146.89285538683544,4.106755,0.1,230.6349,1626295899440,,,,
Fix,GT,37.5232429000,-122.3500632000,146.96507970081257,3.7728615,0.1,230.97679,1626295900440,,,,
Fix,GT,37.5232228000,-122.3500948000,147.04831436207496,3.3835359,0.1,231.33307,1626295901440,,,,
Fix,GT,37.5232049000,-122.3501232000,147.1537176344582,2.992207,0.1,231.56259,1626295902440,,,,
Fix,GT,37.5231891000,-122.3501483000,147.24090183850876,2.703423,0.1,231.613,1626295903440,,,,
Fix,GT,37.5231745000,-122.3501713000,147.33813783862843,2.4948215,0.1,231.54745,1626295904440,,,,
Fix,GT,37.5231610000,-122.3501926000,147.44771773437196,2.3316758,0.1,231.48782,1626295905440,,,,
Fix,GT,37.5231482000,-122.3502128000,147.54831876327216,2.2311776,0.1,231.46095,1626295906440,,,,
Fix,GT,37.5231345000,-122.3502342000,147.63795143971583,2.772974,0.1,231.08426,1626295907440,,,,
Fix,GT,37.5231162000,-122.3502618000,147.79399051975088,3.6466808,0.1,230.56754,1626295908440,,,,
Fix,GT,37.5230918000,-122.3502988000,147.99685225242774,4.8791833,0.1,230.20775,1626295909440,,,,
Fix,GT,37.5230597000,-122.3503460000,148.2424093223608,6.0578575,0.1,229.4872,1626295910440,,,,
Fix,GT,37.5230210000,-122.3504024000,148.5571293874209,7.078115,0.1,229.29008,1626295911440,,,,
Fix,GT,37.5229790000,-122.3504635000,148.92894921933976,6.986066,0.1,229.33548,1626295912440,,,,
Fix,GT,37.5229399000,-122.3505211000,149.25449930327432,6.2085624,0.1,229.64919,1626295913440,,,,
Fix,GT,37.5229096000,-122.3505662000,149.50680469276222,4.1642294,0.1,229.99667,1626295914440,,,,
Fix,GT,37.5228916000,-122.3505935000,149.63208697347045,2.2989244,0.1,230.2096,1626295915440,,,,
Fix,GT,37.5228788000,-122.3506142000,149.70131870751266,2.4946513,0.1,231.96214,1626295916440,,,,
Fix,GT,37.5228657000,-122.3506414000,149.79171627362757,3.127807,0.1,238.24399,1626295917440,,,,
Fix,GT,37.5228593000,-122.3506778000,149.84321777467676,3.2845902,0.1,256.5649,1626295918440,,,,
Fix,GT,37.5228654000,-122.3507157000,149.78490195051927,3.5552893,0.1,279.3102,1626295919440,,,,
Fix,GT,37.5228854000,-122.3507542000,149.8010450573929,4.6003833,0.1,302.23355,1626295920440,,,,
Fix,GT,37.5229186000,-122.3507985000,149.77740217813698,6.1771817,0.1,313.39566,1626295921440,,,,
Fix,GT,37.5229646000,-122.3508530000,149.7244066244266,7.9321904,0.1,317.3235,1626295922440,,,,
Fix,GT,37.5230239000,-122.3509190000,149.57899481680215,9.588295,0.1,318.84427,1626295923440,,,,
Fix,GT,37.5230958000,-122.3509961000,149.2131787627468,11.402909,0.1,319.7918,1626295924440,,,,
Fix,GT,37.5231770000,-122.3510835000,148.58481352826493,12.160089,0.1,319.54623,1626295925440,,,,
Fix,GT,37.5232620000,-122.3511741000,147.8335419369214,12.637301,0.1,319.7754,1626295926440,,,,
Fix,GT,37.5233509000,-122.3512682000,147.01350597437886,13.190573,0.1,319.72443,1626295927440,,,,
Fix,GT,37.5234437000,-122.3513666000,146.14754890963013,13.76687,0.1,320.12686,1626295928440,,,,
Fix,GT,37.5235403000,-122.3514690000,145.29831578363792,14.213579,0.1,319.64798,1626295929440,,,,
Fix,GT,37.5236385000,-122.3515738000,144.5718130035093,14.388012,0.1,319.77673,1626295930440,,,,
Fix,GT,37.5237380000,-122.3516788000,144.03376773605487,14.4264,0.1,320.20413,1626295931440,,,,
Fix,GT,37.5238377000,-122.3517833000,143.5528174807223,14.419456,0.1,320.11557,1626295932440,,,,
Fix,GT,37.5239374000,-122.3518880000,143.07300068366567,14.42009,0.1,320.15042,1626295933440,,,,
Fix,GT,37.5240369000,-122.3519928000,142.5679580112287,14.437536,0.1,319.99725,1626295934440,,,,
Fix,GT,37.5241365000,-122.3520982000,142.0643133615522,14.455214,0.1,319.8381,1626295935440,,,,
Fix,GT,37.5242357000,-122.3522040000,141.56804406125775,14.418236,0.1,319.74707,1626295936440,,,,
Fix,GT,37.5243322000,-122.3523058000,141.1011705292176,13.274691,0.1,320.0492,1626295937440,,,,
Fix,GT,37.5244173000,-122.3523951000,140.68172708700877,11.285447,0.1,319.9692,1626295938440,,,,
Fix,GT,37.5244874000,-122.3524697000,140.32222924172947,9.084429,0.1,319.55954,1626295939440,,,,
Fix,GT,37.5245415000,-122.3525278000,140.02485690928052,6.705742,0.1,319.66196,1626295940440,,,,
Fix,GT,37.5245802000,-122.3525688000,139.81349054745078,4.615199,0.1,319.81006,1626295941440,,,,
Fix,GT,37.5246052000,-122.3525957000,139.67512224373104,2.7247887,0.1,319.71045,1626295942440,,,,
Fix,GT,37.5246188000,-122.3526102000,139.6395848960674,1.4029734,0.1,319.60242,1626295943440,,,,
Fix,GT,37.5246302000,-122.3526227000,139.59117089297297,2.0831683,0.1,319.28046,1626295944440,,,,
Fix,GT,37.5246467000,-122.3526443000,139.51836021828058,3.184033,0.1,314.71634,1626295945440,,,,
Fix,GT,37.5246629000,-122.3526802000,139.44318421208663,3.9529474,0.1,300.15192,1626295946440,,,,
Fix,GT,37.5246686000,-122.3527255000,139.3612722070684,4.021643,0.1,278.2342,1626295947440,,,,
Fix,GT,37.5246569000,-122.3527722000,139.20630645168785,4.537625,0.1,252.14543,1626295948440,,,,
Fix,GT,37.5246313000,-122.3528173000,139.03767900788444,5.220406,0.1,234.90723,1626295949440,,,,
Fix,GT,37.5245986000,-122.3528666000,138.8416315729337,6.194064,0.1,229.99173,1626295950440,,,,
Fix,GT,37.5245583000,-122.3529246000,138.5671272241043,7.3968515,0.1,229.1025,1626295951440,,,,
Fix,GT,37.5245122000,-122.3529911000,138.1794483276317,8.275209,0.1,228.89932,1626295952440,,,,
Fix,GT,37.5244587000,-122.3530655000,137.72831058006568,9.410538,0.1,227.51686,1626295953440,,,,
Fix,GT,37.5243960000,-122.3531443000,137.2040455379647,10.208063,0.1,224.20488,1626295954440,,,,
Fix,GT,37.5243273000,-122.3532262000,136.6993559999828,10.830417,0.1,223.70215,1626295955440,,,,
Fix,GT,37.5242546000,-122.3533131000,136.1154514094742,11.393033,0.1,223.67445,1626295956440,,,,
Fix,GT,37.5241789000,-122.3534029000,135.41736082041643,11.721573,0.1,223.33527,1626295957440,,,,
Fix,GT,37.5241003000,-122.3534928000,134.6272731638146,11.800037,0.1,221.84975,1626295958440,,,,
Fix,GT,37.5240184000,-122.3535767000,133.7275373073985,11.672976,0.1,217.86107,1626295959440,,,,
Fix,GT,37.5239323000,-122.3536526000,132.74768047039288,11.760262,0.1,213.68558,1626295960440,,,,
Fix,GT,37.5238399000,-122.3537202000,131.69790220506002,11.93953,0.1,208.37076,1626295961440,,,,
Fix,GT,37.5237419000,-122.3537769000,130.5937764675973,12.019524,0.1,202.77757,1626295962440,,,,
Fix,GT,37.5236400000,-122.3538268000,129.48281316416615,12.364709,0.1,200.71356,1626295963440,,,,
Fix,GT,37.5235343000,-122.3538774000,128.3826366883659,12.612928,0.1,201.35304,1626295964440,,,,
Fix,GT,37.5234328000,-122.3539370000,127.24859261006213,12.271236,0.1,208.1565,1626295965440,,,,
Fix,GT,37.5233433000,-122.3540166000,126.09895094457784,12.130682,0.1,219.87025,1626295966440,,,,
Fix,GT,37.5232697000,-122.3541167000,124.95964001290417,11.963897,0.1,231.5132,1626295967440,,,,
Fix,GT,37.5232155000,-122.3542310000,123.84995614142917,11.618079,0.1,243.77132,1626295968440,,,,
Fix,GT,37.5231820000,-122.3543548000,122.85250047794761,11.553764,0.1,255.19437,1626295969440,,,,
Fix,GT,37.5231688000,-122.3544867000,121.75663330861425,11.999149,0.1,267.15048,1626295970440,,,,
Fix,GT,37.5231774000,-122.3546239000,120.72790926414245,12.3630905,0.1,278.95868,1626295971440,,,,
Fix,GT,37.5232068000,-122.3547616000,119.70468565465649,12.951342,0.1,287.7641,1626295972440,,,,
Fix,GT,37.5232516000,-122.3549041000,118.63523340475308,14.12844,0.1,294.05405,1626295973440,,,,
Fix,GT,37.5233119000,-122.3550492000,117.32868507175408,14.930411,0.1,299.86163,1626295974440,,,,
Fix,GT,37.5233887000,-122.3551968000,115.79849994145161,16.268978,0.1,305.39496,1626295975440,,,,
Fix,GT,37.5234821000,-122.3553486000,114.32368325639982,17.651157,0.1,309.4693,1626295976440,,,,
Fix,GT,37.5235914000,-122.3555038000,112.82677194922326,18.968582,0.1,312.75797,1626295977440,,,,
Fix,GT,37.5237122000,-122.3556659000,111.39386365291375,20.241913,0.1,313.26825,1626295978440,,,,
Fix,GT,37.5238407000,-122.3558377000,110.15268000003562,21.40217,0.1,313.1884,1626295979440,,,,
Fix,GT,37.5239771000,-122.3560183000,108.8018638742542,22.60617,0.1,314.1338,1626295980440,,,,
Fix,GT,37.5241244000,-122.3562040000,107.41432301784198,23.72137,0.1,315.62546,1626295981440,,,,
Fix,GT,37.5242822000,-122.3563941000,106.0516788563234,24.786102,0.1,316.97363,1626295982440,,,,
Fix,GT,37.5244499000,-122.3565863000,104.86895623195733,25.559967,0.1,318.43204,1626295983440,,,,
Fix,GT,37.5246249000,-122.3567787000,104.02685880271179,26.052866,0.1,319.85605,1626295984440,,,,
Fix,GT,37.5248082000,-122.3569664000,103.3197276284393,26.443966,0.1,322.07938,1626295985440,,,,
Fix,GT,37.5249989000,-122.3571504000,102.4712678922624,27.002728,0.1,322.86023,1626295986440,,,,
Fix,GT,37.5251969000,-122.3573371000,101.56858645904708,28.08287,0.1,323.20697,1626295987440,,,,
Fix,GT,37.5254030000,-122.3575328000,100.52945081276107,29.08582,0.1,322.66388,1626295988440,,,,
Fix,GT,37.5256109000,-122.3577334000,99.40631709678064,29.140175,0.1,322.50107,1626295989440,,,,
Fix,GT,37.5258190000,-122.3579345000,98.22008753005048,29.101662,0.1,322.57382,1626295990440,,,,
Fix,GT,37.5260283000,-122.3581316000,97.03754236387567,28.991936,0.1,323.86588,1626295991440,,,,
Fix,GT,37.5262413000,-122.3583209000,95.77713428997777,28.983072,0.1,325.6331,1626295992440,,,,
Fix,GT,37.5264602000,-122.3585025000,94.542906105175,29.28401,0.1,327.58194,1626295993440,,,,
Fix,GT,37.5266870000,-122.3586754000,93.40809100190427,29.631897,0.1,330.06335,1626295994440,,,,
Fix,GT,37.5269222000,-122.3588377000,92.47563225079921,29.936882,0.1,332.46,1626295995440,,,,
Fix,GT,37.5271653000,-122.3589880000,91.75586015409044,30.200943,0.1,335.16412,1626295996440,,,,
Fix,GT,37.5274152000,-122.3591264000,91.25626386289264,30.400194,0.1,337.35947,1626295997440,,,,
Fix,GT,37.5276701000,-122.3592534000,91.0029957582392,30.4696,0.1,339.50336,1626295998440,,,,
Fix,GT,37.5279289000,-122.3593681000,91.24453552777914,30.42934,0.1,341.44495,1626295999440,,,,
Fix,GT,37.5281886000,-122.3594772000,91.50699569321068,30.381489,0.1,341.79282,1626296000440,,,,
Fix,GT,37.5284486000,-122.3595833000,91.92549242555015,30.285116,0.1,342.0835,1626296001440,,,,
Fix,GT,37.5287074000,-122.3596898000,92.43976535287288,30.149158,0.1,341.8062,1626296002440,,,,
Fix,GT,37.5289639000,-122.3597982000,93.18162769702349,29.946762,0.1,341.0594,1626296003440,,,,
Fix,GT,37.5292183000,-122.3599081000,94.06831067530675,29.737114,0.1,341.18878,1626296004440,,,,
Fix,GT,37.5294712000,-122.3600158000,95.0034476825274,29.546005,0.1,341.4957,1626296005440,,,,
Fix,GT,37.5297225000,-122.3601213000,95.88062842726822,29.299026,0.1,341.49347,1626296006440,,,,
Fix,GT,37.5299719000,-122.3602262000,96.70498831400278,29.090984,0.1,341.4637,1626296007440,,,,
Fix,GT,37.5302195000,-122.3603320000,97.56748760880237,28.967339,0.1,341.07184,1626296008440,,,,
Fix,GT,37.5304661000,-122.3604384000,98.50908092244731,28.895525,0.1,340.97723,1626296009440,,,,
Fix,GT,37.5307119000,-122.3605450000,99.35735823799678,28.84771,0.1,340.91272,1626296010440,,,,
Fix,GT,37.5309575000,-122.3606514000,100.17853389301672,28.814117,0.1,341.04172,1626296011440,,,,
Fix,GT,37.5312028000,-122.3607577000,101.08549088104337,28.767597,0.1,341.19284,1626296012440,,,,
Fix,GT,37.5314482000,-122.3608614000,101.9461703915822,28.70875,0.1,341.60156,1626296013440,,,,
Fix,GT,37.5316933000,-122.3609645000,102.79180746932252,28.674454,0.1,341.47522,1626296014440,,,,
Fix,GT,37.5319382000,-122.3610680000,103.6573560373547,28.684784,0.1,341.36987,1626296015440,,,,
Fix,GT,37.5321829000,-122.3611724000,104.51721792457988,28.650839,0.1,341.17755,1626296016440,,,,
Fix,GT,37.5324268000,-122.3612774000,105.3814854603113,28.620869,0.1,341.07346,1626296017440,,,,
Fix,GT,37.5326708000,-122.3613828000,106.19576627815513,28.638157,0.1,341.15033,1626296018440,,,,
Fix,GT,37.5329147000,-122.3614878000,107.13008036155225,28.610104,0.1,341.13217,1626296019440,,,,
Fix,GT,37.5331585000,-122.3615925000,108.0869025263396,28.566818,0.1,341.26636,1626296020440,,,,
Fix,GT,37.5334017000,-122.3616965000,109.14649352299489,28.481777,0.1,341.363,1626296021440,,,,
Fix,GT,37.5336440000,-122.3618007000,110.26771502310112,28.386967,0.1,340.84424,1626296022440,,,,
Fix,GT,37.5338850000,-122.3619069000,111.36339964191211,28.294064,0.1,340.98425,1626296023440,,,,
Fix,GT,37.5341254000,-122.3620116000,112.48585087241236,28.195011,0.1,341.01566,1626296024440,,,,
Fix,GT,37.5343651000,-122.3621148000,113.60562661878339,28.034748,0.1,341.0736,1626296025440,,,,
Fix,GT,37.5346023000,-122.3622199000,114.73684696229861,27.803574,0.1,340.26727,1626296026440,,,,
Fix,GT,37.5348354000,-122.3623275000,115.83839823720336,27.259588,0.1,339.58142,1626296027440,,,,
Fix,GT,37.5350625000,-122.3624357000,116.91258417696349,26.688343,0.1,339.2089,1626296028440,,,,
Fix,GT,37.5352848000,-122.3625432000,117.98957756837285,26.205425,0.1,338.89536,1626296029440,,,,
Fix,GT,37.5355022000,-122.3626530000,119.02817374282904,25.818401,0.1,337.36545,1626296030440,,,,
Fix,GT,37.5357153000,-122.3627674000,120.03794078995702,25.663204,0.1,336.61798,1626296031440,,,,
Fix,GT,37.5359269000,-122.3628848000,121.05594663747706,25.689661,0.1,335.8926,1626296032440,,,,
Fix,GT,37.5361376000,-122.3630050000,122.06912531055582,25.701017,0.1,335.72165,1626296033440,,,,
Fix,GT,37.5363484000,-122.3631257000,123.09553427618994,25.710407,0.1,335.3222,1626296034440,,,,
Fix,GT,37.5365582000,-122.3632492000,124.05726452248837,25.683582,0.1,334.93237,1626296035440,,,,
Fix,GT,37.5367656000,-122.3633709000,124.94480783933977,25.097649,0.1,335.10736,1626296036440,,,,
Fix,GT,37.5369679000,-122.3634904000,125.80099621034196,24.579203,0.1,334.6388,1626296037440,,,,
Fix,GT,37.5371665000,-122.3636090000,126.65144880533376,24.269957,0.1,334.6377,1626296038440,,,,
Fix,GT,37.5373636000,-122.3637266000,127.57090477021961,24.226662,0.1,334.67502,1626296039440,,,,
Fix,GT,37.5375620000,-122.3638444000,128.54049722407808,24.51018,0.1,334.67923,1626296040440,,,,
Fix,GT,37.5377629000,-122.3639643000,129.52513044441002,24.879784,0.1,334.62988,1626296041440,,,,
Fix,GT,37.5379668000,-122.3640862000,130.53394373454648,25.236437,0.1,334.53964,1626296042440,,,,
Fix,GT,37.5381734000,-122.3642101000,131.55435376532841,25.594799,0.1,334.62756,1626296043440,,,,
Fix,GT,37.5383830000,-122.3643357000,132.58717142126397,25.935856,0.1,334.45724,1626296044440,,,,
Fix,GT,37.5385952000,-122.3644630000,133.63099232352852,26.258503,0.1,334.6841,1626296045440,,,,
Fix,GT,37.5388101000,-122.3645912000,134.6819872408032,26.556389,0.1,334.64844,1626296046440,,,,
Fix,GT,37.5390274000,-122.3647208000,135.75221713381325,26.843803,0.1,334.66116,1626296047440,,,,
Fix,GT,37.5392472000,-122.3648514000,136.8654400544765,27.111944,0.1,334.68362,1626296048440,,,,
Fix,GT,37.5394688000,-122.3649838000,137.93303655049385,27.380903,0.1,334.57825,1626296049440,,,,
Fix,GT,37.5396925000,-122.3651182000,139.03221186516885,27.658913,0.1,334.3831,1626296050440,,,,
Fix,GT,37.5399181000,-122.3652543000,140.1374958861079,27.88797,0.1,334.53662,1626296051440,,,,
Fix,GT,37.5401457000,-122.3653903000,141.318756185472,28.06811,0.1,334.50537,1626296052440,,,,
Fix,GT,37.5403746000,-122.3655282000,142.63244118688772,28.266155,0.1,334.40244,1626296053440,,,,
Fix,GT,37.5406048000,-122.3656675000,143.98109146608886,28.45808,0.1,334.45007,1626296054440,,,,
Fix,GT,37.5408364000,-122.3658083000,145.26590788754584,28.673557,0.1,333.94852,1626296055440,,,,
Fix,GT,37.5410681000,-122.3659545000,146.41366702401228,28.864561,0.1,332.90152,1626296056440,,,,
Fix,GT,37.5412986000,-122.3661062000,147.56167547014002,28.900055,0.1,331.92606,1626296057440,,,,
Fix,GT,37.5415272000,-122.3662634000,148.7064922237514,28.981487,0.1,330.8124,1626296058440,,,,
Fix,GT,37.5417541000,-122.3664267000,149.85407976500255,29.061487,0.1,329.73056,1626296059440,,,,
Fix,GT,37.5419792000,-122.3665962000,150.9461739258786,29.217945,0.1,328.47913,1626296060440,,,,
Fix,GT,37.5422027000,-122.3667716000,151.931262674776,29.219742,0.1,327.6295,1626296061440,,,,
Fix,GT,37.5424233000,-122.3669508000,152.80999579612762,29.158632,0.1,326.61606,1626296062440,,,,
Fix,GT,37.5426418000,-122.3671358000,153.58026683841126,29.33116,0.1,325.60028,1626296063440,,,,
Fix,GT,37.5428593000,-122.3673263000,154.26039593757696,29.530792,0.1,324.7302,1626296064440,,,,
Fix,GT,37.5430757000,-122.3675225000,154.84031181193677,29.696308,0.1,323.68475,1626296065440,,,,
Fix,GT,37.5432893000,-122.3677235000,155.28817088276082,29.51917,0.1,322.7674,1626296066440,,,,
Fix,GT,37.5434990000,-122.3679277000,155.50912376027736,29.394123,0.1,321.75296,1626296067440,,,,
Fix,GT,37.5437054000,-122.3681351000,155.5447685641043,29.21991,0.1,321.1646,1626296068440,,,,
Fix,GT,37.5439081000,-122.3683426000,155.52985512705982,28.873634,0.1,320.5341,1626296069440,,,,
Fix,GT,37.5441075000,-122.3685489000,155.6451737728994,28.468582,0.1,320.60333,1626296070440,,,,
Fix,GT,37.5443045000,-122.3687531000,155.80694913719526,28.272072,0.1,320.47018,1626296071440,,,,
Fix,GT,37.5445007000,-122.3689564000,155.95472184905339,28.151838,0.1,320.55936,1626296072440,,,,
Fix,GT,37.5446954000,-122.3691575000,156.14268403620554,27.817581,0.1,320.73236,1626296073440,,,,
Fix,GT,37.5448884000,-122.3693553000,156.3153551160549,27.448662,0.1,320.68823,1626296074440,,,,
Fix,GT,37.5450783000,-122.3695509000,156.45922224593824,27.091923,0.1,320.9083,1626296075440,,,,
Fix,GT,37.5452683000,-122.3697401000,156.62776354826474,26.733276,0.1,322.40216,1626296076440,,,,
Fix,GT,37.5454600000,-122.3699201000,156.7461233034719,26.383818,0.1,324.07617,1626296077440,,,,
Fix,GT,37.5456523000,-122.3700919000,156.921630859375,26.011469,0.1,325.27478,1626296078440,,,,
Fix,GT,37.5458443000,-122.3702572000,157.07608537578062,25.646383,0.1,325.83896,1626296079440,,,,
Fix,GT,37.5460334000,-122.3704196000,157.4003646417459,25.193642,0.1,325.61075,1626296080440,,,,
Fix,GT,37.5462191000,-122.3705789000,157.8055860156751,24.73526,0.1,325.85773,1626296081440,,,,
Fix,GT,37.5464017000,-122.3707347000,158.25495658924592,24.292145,0.1,326.00354,1626296082440,,,,
Fix,GT,37.5465816000,-122.3708878000,158.43930116276033,23.961918,0.1,325.7205,1626296083440,,,,
Fix,GT,37.5467582000,-122.3710413000,158.418584551192,23.71507,0.1,325.24417,1626296084440,,,,
Fix,GT,37.5469324000,-122.3711931000,158.22926314095457,23.222336,0.1,325.35764,1626296085440,,,,
Fix,GT,37.5470987000,-122.3713374000,158.05335175156188,21.475756,0.1,325.52853,1626296086440,,,,
Fix,GT,37.5472495000,-122.3714682000,157.85966472935934,19.219164,0.1,325.55045,1626296087440,,,,
Fix,GT,37.5473819000,-122.3715821000,157.7053142088589,16.356247,0.1,325.8671,1626296088440,,,,
Fix,GT,37.5474929000,-122.3716762000,157.58817788862325,13.330959,0.1,326.05652,1626296089440,,,,
Fix,GT,37.5475803000,-122.3717505000,157.45076349317333,9.930075,0.1,325.70294,1626296090440,,,,
Fix,GT,37.5476389000,-122.3718014000,157.51194946293617,5.947258,0.1,325.28094,1626296091440,,,,
Fix,GT,37.5476699000,-122.3718286000,157.59608101439153,2.5779624,0.1,325.2955,1626296092440,,,,
Fix,GT,37.5476799000,-122.3718372000,157.6064058332886,0.50567126,0.1,325.29623,1626296093440,,,,
Fix,GT,37.5476850000,-122.3718420000,157.60463421358554,1.1848757,0.1,324.76773,1626296094440,,,,
Fix,GT,37.5477005000,-122.3718596000,157.6511358781545,3.5772738,0.1,319.5944,1626296095440,,,,
Fix,GT,37.5477220000,-122.3719038000,157.767584235919,5.2359514,0.1,299.2317,1626296096440,,,,
Fix,GT,37.5477228000,-122.3719674000,157.87308438095397,6.120108,0.1,265.35367,1626296097440,,,,
Fix,GT,37.5476934000,-122.3720344000,157.900634765625,7.427308,0.1,236.34991,1626296098440,,,,
Fix,GT,37.5476448000,-122.3721060000,157.89144270216912,9.311742,0.1,229.40494,1626296099440,,,,
Fix,GT,37.5475844000,-122.3721945000,157.93313513304292,11.224783,0.1,229.48189,1626296100440,,,,
Fix,GT,37.5475153000,-122.3722966000,158.01367457905872,12.256942,0.1,229.88333,1626296101440,,,,
Fix,GT,37.5474445000,-122.3724022000,158.07190956484465,12.067802,0.1,230.05191,1626296102440,,,,
Fix,GT,37.5473750000,-122.3725050000,158.1499457268701,11.782799,0.1,229.56856,1626296103440,,,,
Fix,GT,37.5473072000,-122.3726038000,158.24477284239856,11.13579,0.1,229.40765,1626296104440,,,,
Fix,GT,37.5472467000,-122.3726929000,158.36876577316798,9.47539,0.1,229.64795,1626296105440,,,,
Fix,GT,37.5471964000,-122.3727661000,158.55363772165538,7.646308,0.1,229.18878,1626296106440,,,,
Fix,GT,37.5471494000,-122.3728204000,158.7348021453331,6.7967577,0.1,218.30547,1626296107440,,,,
Fix,GT,37.5470928000,-122.3728484000,158.93453423528126,6.944316,0.1,197.22192,1626296108440,,,,
Fix,GT,37.5470253000,-122.3728483000,159.01508428942861,8.275304,0.1,174.30351,1626296109440,,,,
Fix,GT,37.5469506000,-122.3728096000,158.92367826145346,9.584254,0.1,152.2924,1626296110440,,,,
Fix,GT,37.5468744000,-122.3727406000,159.03880936182668,11.374573,0.1,140.58893,1626296111440,,,,
Fix,GT,37.5467917000,-122.3726479000,159.10713590766272,13.2507515,0.1,138.13817,1626296112440,,,,
Fix,GT,37.5466961000,-122.3725400000,159.21912593737807,15.280524,0.1,138.06305,1626296113440,,,,
Fix,GT,37.5465875000,-122.3724162000,159.28527055092945,17.26383,0.1,137.76907,1626296114440,,,,
Fix,GT,37.5464657000,-122.3722782000,159.3619467022545,19.120361,0.1,138.03525,1626296115440,,,,
Fix,GT,37.5463319000,-122.3721265000,159.4559075922407,20.802048,0.1,137.91022,1626296116440,,,,
Fix,GT,37.5461873000,-122.3719627000,159.48631087025296,22.41137,0.1,137.9826,1626296117440,,,,
Fix,GT,37.5460316000,-122.3717860000,159.3256350676479,24.165062,0.1,137.89899,1626296118440,,,,
Fix,GT,37.5458645000,-122.3715965000,158.93367730899627,25.752014,0.1,138.17691,1626296119440,,,,
Fix,GT,37.5456857000,-122.3713996000,158.3026198017992,27.061104,0.1,139.57874,1626296120440,,,,
Fix,GT,37.5454932000,-122.3712002000,157.4970742879409,28.32027,0.1,141.4395,1626296121440,,,,
Fix,GT,37.5452889000,-122.3709977000,156.6607122777241,29.483356,0.1,142.10405,1626296122440,,,,
Fix,GT,37.5450760000,-122.3707884000,155.77839964951636,30.379906,0.1,141.95735,1626296123440,,,,
Fix,GT,37.5448599000,-122.3705738000,154.9356351672459,30.684385,0.1,141.54909,1626296124440,,,,
Fix,GT,37.5446434000,-122.3703587000,154.05540157765472,30.561611,0.1,141.81615,1626296125440,,,,
Fix,GT,37.5444278000,-122.3701449000,153.17313115630986,30.475315,0.1,142.00313,1626296126440,,,,
Fix,GT,37.5442102000,-122.3699329000,152.34967875562143,30.691479,0.1,142.42303,1626296127440,,,,
Fix,GT,37.5439902000,-122.3697197000,151.54772982044005,31.00478,0.1,142.50735,1626296128440,,,,
Fix,GT,37.5437671000,-122.3695063000,150.83720981938632,31.218906,0.1,143.0839,1626296129440,,,,
Fix,GT,37.5435416000,-122.3692940000,150.20449440560105,31.339064,0.1,143.17242,1626296130440,,,,
Fix,GT,37.5433151000,-122.3690817000,149.6010810134685,31.381207,0.1,143.51901,1626296131440,,,,
Fix,GT,37.5430876000,-122.3688700000,149.00566956209605,31.488617,0.1,143.53914,1626296132440,,,,
Fix,GT,37.5428591000,-122.3686581000,148.39525693521728,31.564392,0.1,143.70477,1626296133440,,,,
Fix,GT,37.5426292000,-122.3684471000,147.80704122653333,31.640308,0.1,144.24669,1626296134440,,,,
Fix,GT,37.5423970000,-122.3682383000,147.1935014757728,31.76,0.1,144.91592,1626296135440,,,,
Fix,GT,37.5421615000,-122.3680330000,146.5832691384785,31.878754,0.1,145.70822,1626296136440,,,,
Fix,GT,37.5419229000,-122.3678309000,145.96208845356887,32.01615,0.1,146.489,1626296137440,,,,
Fix,GT,37.5416814000,-122.3676317000,145.3460848538598,32.111416,0.1,147.13782,1626296138440,,,,
Fix,GT,37.5414376000,-122.3674357000,144.73649619238222,32.141315,0.1,147.80772,1626296139440,,,,
Fix,GT,37.5411916000,-122.3672433000,144.12126799486578,32.20726,0.1,148.75018,1626296140440,,,,
Fix,GT,37.5409419000,-122.3670560000,143.50508754591647,32.38585,0.1,149.67442,1626296141440,,,,
Fix,GT,37.5406886000,-122.3668711000,142.90367331923835,32.65071,0.1,150.23315,1626296142440,,,,
Fix,GT,37.5404317000,-122.3666882000,142.27327112625244,32.879276,0.1,150.94954,1626296143440,,,,
Fix,GT,37.5401715000,-122.3665092000,141.6029487753367,32.96162,0.1,151.61977,1626296144440,,,,
Fix,GT,37.5399099000,-122.3663316000,140.83872051783965,33.031273,0.1,151.71474,1626296145440,,,,
Fix,GT,37.5396485000,-122.3661549000,139.97316962705645,32.850178,0.1,151.79208,1626296146440,,,,
Fix,GT,37.5393889000,-122.3659789000,138.99790256590495,32.64125,0.1,151.68744,1626296147440,,,,
Fix,GT,37.5391314000,-122.3658034000,137.9187577462576,32.41205,0.1,151.65414,1626296148440,,,,
Fix,GT,37.5388748000,-122.3656302000,136.72163627659438,32.256153,0.1,151.93452,1626296149440,,,,
Fix,GT,37.5386190000,-122.3654580000,135.52130008310223,32.140343,0.1,151.77853,1626296150440,,,,
Fix,GT,37.5383647000,-122.3652855000,134.2354005662637,32.021545,0.1,151.75485,1626296151440,,,,
Fix,GT,37.5381112000,-122.3651137000,132.91826864923814,31.91692,0.1,151.71034,1626296152440,,,,
Fix,GT,37.5378588000,-122.3649420000,131.63554410079632,31.806086,0.1,151.60342,1626296153440,,,,
Fix,GT,37.5376069000,-122.3647712000,130.35440353222657,31.798038,0.1,151.81012,1626296154440,,,,
Fix,GT,37.5373537000,-122.3646003000,129.08143797417188,32.01329,0.1,151.72649,1626296155440,,,,
Fix,GT,37.5370990000,-122.3644270000,127.80817397561987,32.27278,0.1,151.56723,1626296156440,,,,
Fix,GT,37.5368425000,-122.3642523000,126.50199620619969,32.504284,0.1,151.63498,1626296157440,,,,
Fix,GT,37.5365842000,-122.3640781000,125.20599020542568,32.51895,0.1,152.01472,1626296158440,,,,
Fix,GT,37.5363262000,-122.3639047000,123.90148977190256,32.44017,0.1,151.70015,1626296159440,,,,
Fix,GT,37.5360694000,-122.3637306000,122.60744905694423,32.349834,0.1,151.7114,1626296160440,,,,
Fix,GT,37.5358132000,-122.3635568000,121.30944928297572,32.29273,0.1,151.58064,1626296161440,,,,
Fix,GT,37.5355575000,-122.3633829000,120.03230763299007,32.268253,0.1,151.7721,1626296162440,,,,
Fix,GT,37.5353015000,-122.3632102000,118.74889485524636,32.24429,0.1,151.8556,1626296163440,,,,
Fix,GT,37.5350458000,-122.3630374000,117.45262787849015,32.232445,0.1,151.78462,1626296164440,,,,
Fix,GT,37.5347889000,-122.3628670000,116.09467163085264,32.225914,0.1,152.6504,1626296165440,,,,
Fix,GT,37.5345301000,-122.3627025000,114.79203344081088,32.17752,0.1,153.93025,1626296166440,,,,
Fix,GT,37.5342686000,-122.3625460000,113.49626633773391,32.11827,0.1,155.34883,1626296167440,,,,
Fix,GT,37.5340046000,-122.3623981000,112.2040391507212,32.044697,0.1,156.6876,1626296168440,,,,
Fix,GT,37.5337390000,-122.3622570000,110.93890024218126,31.991842,0.1,157.5505,1626296169440,,,,
Fix,GT,37.5334716000,-122.3621228000,109.77080262298728,31.911488,0.1,158.9308,1626296170440,,,,
Fix,GT,37.5332027000,-122.3619965000,108.67826237969439,31.822693,0.1,160.3567,1626296171440,,,,
Fix,GT,37.5329324000,-122.3618788000,107.72681087366664,31.688623,0.1,161.44637,1626296172440,,,,
Fix,GT,37.5326621000,-122.3617653000,106.79017000702652,31.574438,0.1,161.5388,1626296173440,,,,
Fix,GT,37.5323928000,-122.3616521000,105.82971948140585,31.458115,0.1,161.4616,1626296174440,,,,
Fix,GT,37.5321247000,-122.3615384000,104.85922194526097,31.354988,0.1,161.3477,1626296175440,,,,
Fix,GT,37.5318582000,-122.3614240000,103.93621599853509,31.18382,0.1,161.11908,1626296176440,,,,
Fix,GT,37.5315931000,-122.3613099000,102.97630726921102,30.980883,0.1,161.2372,1626296177440,,,,
Fix,GT,37.5313299000,-122.3611972000,102.09167841782983,30.745611,0.1,161.23515,1626296178440,,,,
Fix,GT,37.5310687000,-122.3610851000,101.18125972532539,30.54375,0.1,161.19646,1626296179440,,,,
Fix,GT,37.5308089000,-122.3609743000,100.20894088936438,30.386597,0.1,161.43626,1626296180440,,,,
Fix,GT,37.5305504000,-122.3608640000,99.33899429843382,30.18608,0.1,161.20581,1626296181440,,,,
Fix,GT,37.5302944000,-122.3607534000,98.43803592707991,29.93958,0.1,161.15152,1626296182440,,,,
Fix,GT,37.5300410000,-122.3606451000,97.46549034118652,29.370237,0.1,161.53326,1626296183440,,,,
Fix,GT,37.5297930000,-122.3605416000,96.63594374851209,28.623764,0.1,161.55402,1626296184440,,,,
Fix,GT,37.5295522000,-122.3604387000,95.82994681766013,27.852703,0.1,161.14688,1626296185440,,,,
Fix,GT,37.5293172000,-122.3603381000,95.00607760420644,27.295273,0.1,161.31467,1626296186440,,,,
Fix,GT,37.5290864000,-122.3602386000,94.17349219645689,26.91444,0.1,161.16275,1626296187440,,,,
Fix,GT,37.5288581000,-122.3601401000,93.39035208994756,26.669037,0.1,161.15588,1626296188440,,,,
Fix,GT,37.5286311000,-122.3600433000,92.68731175771063,26.55417,0.1,161.568,1626296189440,,,,
Fix,GT,37.5284046000,-122.3599494000,92.16039812314557,26.399738,0.1,161.99884,1626296190440,,,,
Fix,GT,37.5281783000,-122.3598599000,91.76294757436244,26.27666,0.1,163.1763,1626296191440,,,,
Fix,GT,37.5279515000,-122.3597764000,91.53326292142356,26.16989,0.1,164.21729,1626296192440,,,,
Fix,GT,37.5277250000,-122.3596981000,91.67717690990548,25.98499,0.1,164.97855,1626296193440,,,,
Fix,GT,37.5274998000,-122.3596221000,92.11077036572715,25.755959,0.1,165.11006,1626296194440,,,,
Fix,GT,37.5272769000,-122.3595447000,92.58186095265432,25.599602,0.1,164.2166,1626296195440,,,,
Fix,GT,37.5270562000,-122.3594629000,92.94645029597177,25.40485,0.1,163.2614,1626296196440,,,,
Fix,GT,37.5268395000,-122.3593779000,93.38027411314306,24.943567,0.1,162.49602,1626296197440,,,,
Fix,GT,37.5266282000,-122.3592916000,93.83258473343449,24.36929,0.1,161.58107,1626296198440,,,,
Fix,GT,37.5264250000,-122.3591998000,94.25736330810219,23.50139,0.1,158.96886,1626296199440,,,,
Fix,GT,37.5262346000,-122.3591021000,94.49981209498128,22.097204,0.1,156.75186,1626296200440,,,,
Fix,GT,37.5260580000,-122.3590048000,94.6477718441879,20.71347,0.1,156.20526,1626296201440,,,,
Fix,GT,37.5258935000,-122.3589131000,94.7954040930922,19.201982,0.1,156.07527,1626296202440,,,,
Fix,GT,37.5257449000,-122.3588317000,94.78222199777974,16.741327,0.1,156.71255,1626296203440,,,,
Fix,GT,37.5256169000,-122.3587605000,94.7632216833099,14.373089,0.1,156.036,1626296204440,,,,
Fix,GT,37.5255076000,-122.3587003000,94.67631386669018,12.077377,0.1,156.47606,1626296205440,,,,
Fix,GT,37.5254173000,-122.3586507000,94.56408672253201,9.8297615,0.1,156.18861,1626296206440,,,,
Fix,GT,37.5253454000,-122.3586108000,94.48744392666094,7.5753736,0.1,156.23972,1626296207440,,,,
Fix,GT,37.5252923000,-122.3585821000,94.3741760177113,5.222623,0.1,156.6163,1626296208440,,,,
Fix,GT,37.5252553000,-122.3585615000,94.34558561130689,4.002848,0.1,156.05043,1626296209440,,,,
Fix,GT,37.5252237000,-122.3585426000,94.30462646484375,3.7894611,0.1,154.58308,1626296210440,,,,
Fix,GT,37.5251933000,-122.3585246000,94.25213143489123,3.692678,0.1,154.65231,1626296211440,,,,
Fix,GT,37.5251627000,-122.3585066000,94.213769343379,3.8692875,0.1,154.65494,1626296212440,,,,
Fix,GT,37.5251310000,-122.3584881000,94.20799123147845,3.6605291,0.1,155.13719,1626296213440,,,,
Fix,GT,37.5251080000,-122.3584753000,94.14426724558871,1.9827492,0.1,155.76144,1626296214440,,,,
Fix,GT,37.5250942000,-122.3584675000,94.10667416281603,1.8009245,0.1,155.78352,1626296215440,,,,
Fix,GT,37.5250748000,-122.3584561000,94.07422461113833,3.1394858,0.1,153.94188,1626296216440,,,,
Fix,GT,37.5250447000,-122.3584308000,94.02149626995356,4.934604,0.1,145.83783,1626296217440,,,,
Fix,GT,37.5250064000,-122.3583862000,93.92917628853002,6.5851955,0.1,135.17737,1626296218440,,,,
Fix,GT,37.5249658000,-122.3583215000,93.88994752632425,7.9687543,0.1,126.69701,1626296219440,,,,
Fix,GT,37.5249235000,-122.3582415000,94.00335822861416,9.082392,0.1,122.64372,1626296220440,,,,
Fix,GT,37.5248775000,-122.3581488000,94.41367523099143,10.187044,0.1,121.91738,1626296221440,,,,
Fix,GT,37.5248256000,-122.3580471000,95.05686227661931,11.270907,0.1,123.42912,1626296222440,,,,
Fix,GT,37.5247636000,-122.3579385000,95.72131394687563,12.285677,0.1,126.72977,1626296223440,,,,
Fix,GT,37.5246909000,-122.3578271000,96.41326641427236,13.105602,0.1,130.34143,1626296224440,,,,
Fix,GT,37.5246108000,-122.3577149000,97.10335868087168,13.376141,0.1,133.00128,1626296225440,,,,
Fix,GT,37.5245265000,-122.3576101000,97.6347734994074,12.848432,0.1,136.79347,1626296226440,,,,
Fix,GT,37.5244399000,-122.3575198000,98.35781436836851,12.326686,0.1,142.43034,1626296227440,,,,
Fix,GT,37.5243467000,-122.3574418000,99.11245020022102,12.682528,0.1,148.5686,1626296228440,,,,
Fix,GT,37.5242432000,-122.3573735000,100.00863849418147,13.248327,0.1,154.46837,1626296229440,,,,
Fix,GT,37.5241325000,-122.3573184000,100.84872488956353,13.145397,0.1,160.73941,1626296230440,,,,
Fix,GT,37.5240214000,-122.3572766000,101.73918206224425,12.513369,0.1,164.4232,1626296231440,,,,
Fix,GT,37.5239164000,-122.3572407000,102.52018486233351,11.643228,0.1,164.7657,1626296232440,,,,
Fix,GT,37.5238191000,-122.3572016000,103.28286339747501,11.228792,0.1,161.33319,1626296233440,,,,
Fix,GT,37.5237219000,-122.3571607000,103.98686581074799,11.5877695,0.1,162.17702,1626296234440,,,,
Fix,GT,37.5236200000,-122.3571228000,104.63417576068832,11.893904,0.1,164.28622,1626296235440,,,,
Fix,GT,37.5235182000,-122.3570893000,105.13122295176026,11.419844,0.1,165.84488,1626296236440,,,,
Fix,GT,37.5234210000,-122.3570590000,105.5673588659979,10.783501,0.1,166.19818,1626296237440,,,,
Fix,GT,37.5233325000,-122.3570318000,105.82345003018327,9.248278,0.1,166.21391,1626296238440,,,,
Fix,GT,37.5232620000,-122.3570095000,105.94108909109195,6.7212667,0.1,165.90846,1626296239440,,,,
Fix,GT,37.5232156000,-122.3569945000,105.98403626335266,3.8807786,0.1,165.62433,1626296240440,,,,
Fix,GT,37.5231923000,-122.3569869000,105.97881478611362,1.733057,0.1,165.43214,1626296241440,,,,
Fix,GT,37.5231838000,-122.3569840000,105.97062998922547,0.34858054,0.1,165.36084,1626296242440,,,,
Fix,GT,37.5231833000,-122.3569839000,105.96462696896106,0.0044122175,0.1,165.35963,1626296243440,,,,
Fix,GT,37.5231833000,-122.3569839000,105.96462696896106,0.0018997891,0.1,165.35823,1626296244440,,,,
Fix,GT,37.5231833000,-122.3569839000,105.96562641961486,0.01162668,0.1,165.35735,1626296245440,,,,
Fix,GT,37.5231804000,-122.3569829000,105.95863026503821,0.72314084,0.1,165.33379,1626296246440,,,,
Fix,GT,37.5231710000,-122.3569798000,105.95462483302867,1.3758742,0.1,165.23964,1626296247440,,,,
Fix,GT,37.5231562000,-122.3569742000,105.94163065974794,2.1988935,0.1,163.85515,1626296248440,,,,
Fix,GT,37.5231334000,-122.3569595000,105.92981252632808,3.4890196,0.1,154.13036,1626296249440,,,,
Fix,GT,37.5231078000,-122.3569239000,105.90340259990717,4.923546,0.1,131.7017,1626296250440,,,,
Fix,GT,37.5230897000,-122.3568627000,105.80871863753191,6.518874,0.1,106.877205,1626296251440,,,,
Fix,GT,37.5230852000,-122.3567817000,105.87468324269526,7.724175,0.1,92.35738,1626296252440,,,,
Fix,GT,37.5230856000,-122.3566906000,106.32400344878374,8.38209,0.1,89.3949,1626296253440,,,,
Fix,GT,37.5230874000,-122.3565917000,107.10540927512943,9.053756,0.1,88.846756,1626296254440,,,,
Fix,GT,37.5230895000,-122.3564855000,108.0548648011254,9.807489,0.1,88.88024,1626296255440,,,,
Fix,GT,37.5230909000,-122.3563701000,108.9686393958309,10.505546,0.1,89.31077,1626296256440,,,,
Fix,GT,37.5230932000,-122.3562473000,109.99722981196282,11.200968,0.1,88.76861,1626296257440,,,,
Fix,GT,37.5230957000,-122.3561173000,111.10990826680427,11.771164,0.1,88.794044,1626296258440,,,,
Fix,GT,37.5230979000,-122.3559868000,112.2428228707231,11.129435,0.1,88.98614,1626296259440,,,,
Fix,GT,37.5231000000,-122.3558665000,113.26049956304792,10.137726,0.1,88.83126,1626296260440,,,,
Fix,GT,37.5231018000,-122.3557579000,114.14154026520168,9.035803,0.1,88.98189,1626296261440,,,,
Fix,GT,37.5231036000,-122.3556630000,114.81954119215607,7.7107515,0.1,88.68408,1626296262440,,,,
Fix,GT,37.5231058000,-122.3555828000,115.31522115598477,6.5530224,0.1,87.90744,1626296263440,,,,
Fix,GT,37.5231115000,-122.3555141000,115.69590325017248,5.6730633,0.1,82.3576,1626296264440,,,,
Fix,GT,37.5231285000,-122.3554561000,115.96899258156327,5.571888,0.1,66.592476,1626296265440,,,,
Fix,GT,37.5231640000,-122.3554058000,116.13822217125562,6.347762,0.1,45.04647,1626296266440,,,,
Fix,GT,37.5232193000,-122.3553716000,116.21017491191833,7.3300076,0.1,20.973286,1626296267440,,,,
Fix,GT,37.5232869000,-122.3553694000,116.00122161074137,7.744588,0.1,354.73975,1626296268440,,,,
Fix,GT,37.5233577000,-122.3554046000,115.42503201812724,9.352229,0.1,333.91855,1626296269440,,,,
Fix,GT,37.5234356000,-122.3554712000,114.56167086003916,11.650131,0.1,322.7492,1626296270440,,,,
Fix,GT,37.5235237000,-122.3555652000,113.41225579363118,14.023949,0.1,318.86377,1626296271440,,,,
Fix,GT,37.5236263000,-122.3556794000,112.0954359295979,16.452574,0.1,318.28522,1626296272440,,,,
Fix,GT,37.5237439000,-122.3558119000,110.83375712550014,18.525373,0.1,318.2247,1626296273440,,,,
Fix,GT,37.5238753000,-122.3559590000,109.62266037906488,20.487879,0.1,318.70563,1626296274440,,,,
Fix,GT,37.5240210000,-122.3561185000,108.32789284926548,22.374832,0.1,318.99026,1626296275440,,,,
Fix,GT,37.5241782000,-122.3562911000,106.89443935207237,23.954998,0.1,318.86594,1626296276440,,,,
Fix,GT,37.5243446000,-122.3564748000,105.60912152890614,25.148582,0.1,318.94043,1626296277440,,,,
Fix,GT,37.5245179000,-122.3566648000,104.54689259740826,25.888649,0.1,319.4805,1626296278440,,,,
Fix,GT,37.5246994000,-122.3568545000,103.80785340617695,26.587046,0.1,320.79285,1626296279440,,,,
Fix,GT,37.5248898000,-122.3570454000,103.00502526523678,27.536055,0.1,322.31522,1626296280440,,,,
Fix,GT,37.5250898000,-122.3572375000,102.14229961329647,28.172863,0.1,322.93933,1626296281440,,,,
Fix,GT,37.5252910000,-122.3574321000,101.15157957695692,28.19643,0.1,321.3499,1626296282440,,,,
Fix,GT,37.5254886000,-122.3576326000,100.13593761008906,28.192326,0.1,320.7854,1626296283440,,,,
Fix,GT,37.5256842000,-122.3578356000,98.9947594300711,28.155117,0.1,320.13025,1626296284440,,,,
Fix,GT,37.5258789000,-122.3580395000,97.91179762983666,28.128096,0.1,320.7404,1626296285440,,,,
Fix,GT,37.5260800000,-122.3582365000,96.78839802729772,28.575666,0.1,323.4606,1626296286440,,,,
Fix,GT,37.5262931000,-122.3584247000,95.58934402266277,29.332733,0.1,326.36752,1626296287440,,,,
Fix,GT,37.5265196000,-122.3586046000,94.37634370525143,30.172283,0.1,328.93808,1626296288440,,,,
Fix,GT,37.5267584000,-122.3587771000,93.28530239423071,30.940578,0.1,331.37436,1626296289440,,,,
Fix,GT,37.5270085000,-122.3589395000,92.39012183340901,31.573444,0.1,333.86435,1626296290440,,,,
Fix,GT,37.5272684000,-122.3590920000,91.73535125849594,32.094784,0.1,336.3542,1626296291440,,,,
Fix,GT,37.5275378000,-122.3592314000,91.31675956483537,32.575966,0.1,338.92993,1626296292440,,,,
Fix,GT,37.5278150000,-122.3593594000,91.28326815475157,32.969154,0.1,340.74207,1626296293440,,,,
Fix,GT,37.5280974000,-122.3594807000,91.56495187108158,33.2827,0.1,341.33005,1626296294440,,,,
Fix,GT,37.5283828000,-122.3596015000,91.93091219832854,33.58861,0.1,341.59668,1626296295440,,,,
Fix,GT,37.5286706000,-122.3597224000,92.50609523850699,33.73752,0.1,341.5625,1626296296440,,,,
Fix,GT,37.5289591000,-122.3598443000,93.31454696206129,33.814102,0.1,341.3825,1626296297440,,,,
Fix,GT,37.5292475000,-122.3599666000,94.33404538257128,33.70771,0.1,341.44812,1626296298440,,,,
Fix,GT,37.5295345000,-122.3600881000,95.37573038661935,33.525078,0.1,341.38275,1626296299440,,,,
Fix,GT,37.5298199000,-122.3602089000,96.34759332662043,33.296783,0.1,341.5208,1626296300440,,,,
Fix,GT,37.5301017000,-122.3603277000,97.23754589717282,32.647114,0.1,341.20566,1626296301440,,,,
Fix,GT,37.5303765000,-122.3604459000,98.3391857280717,31.879562,0.1,341.18762,1626296302440,,,,
Fix,GT,37.5306455000,-122.3605603000,99.2824606254062,31.174213,0.1,341.37183,1626296303440,,,,
Fix,GT,37.5309094000,-122.3606721000,100.12186902807343,30.66732,0.1,341.36212,1626296304440,,,,
Fix,GT,37.5311697000,-122.3607834000,101.10264197610832,30.399101,0.1,341.11096,1626296305440,,,,
Fix,GT,37.5314277000,-122.3608950000,102.01959423593962,30.174261,0.1,341.0441,1626296306440,,,,
Fix,GT,37.5316839000,-122.3610051000,102.90322945215485,29.910076,0.1,341.36603,1626296307440,,,,
Fix,GT,37.5319369000,-122.3611116000,103.8003200936937,29.279251,0.1,341.63828,1626296308440,,,,
Fix,GT,37.5321846000,-122.3612146000,104.66323167135306,28.67588,0.1,341.56213,1626296309440,,,,
Fix,GT,37.5324274000,-122.3613186000,105.52468358810961,28.302273,0.1,341.1811,1626296310440,,,,
Fix,GT,37.5326674000,-122.3614226000,106.31800204210049,28.067957,0.1,340.89514,1626296311440,,,,
Fix,GT,37.5329052000,-122.3615259000,107.21845639245953,27.790857,0.1,341.04138,1626296312440,,,,
Fix,GT,37.5331407000,-122.3616282000,108.13032217335967,27.514751,0.1,340.7499,1626296313440,,,,
Fix,GT,37.5333743000,-122.3617304000,109.10895862585767,27.398043,0.1,341.31287,1626296314440,,,,
Fix,GT,37.5336075000,-122.3618302000,110.14277499609989,27.296219,0.1,341.17676,1626296315440,,,,
Fix,GT,37.5338393000,-122.3619316000,111.18900656158348,27.23275,0.1,340.97583,1626296316440,,,,
Fix,GT,37.5340717000,-122.3620320000,112.26864547015703,27.315777,0.1,341.35132,1626296317440,,,,
Fix,GT,37.5343055000,-122.3621318000,113.37300478954057,27.536728,0.1,341.08392,1626296318440,,,,
Fix,GT,37.5345406000,-122.3622355000,114.48046208332744,27.743526,0.1,340.4146,1626296319440,,,,
Fix,GT,37.5347762000,-122.3623435000,115.59886733976327,27.93259,0.1,339.52524,1626296320440,,,,
Fix,GT,37.5350119000,-122.3624571000,116.72263698318329,28.083223,0.1,338.74774,1626296321440,,,,
Fix,GT,37.5352474000,-122.3625745000,117.85910059205389,28.146984,0.1,338.1666,1626296322440,,,,
Fix,GT,37.5354822000,-122.3626949000,118.97987184164094,28.233261,0.1,337.64633,1626296323440,,,,
Fix,GT,37.5357181000,-122.3628194000,120.10310049788677,28.588089,0.1,336.8605,1626296324440,,,,
Fix,GT,37.5359559000,-122.3629492000,121.24546181343612,28.953676,0.1,336.40884,1626296325440,,,,
Fix,GT,37.5361953000,-122.3630840000,122.4065101385072,29.238138,0.1,335.53857,1626296326440,,,,
Fix,GT,37.5364341000,-122.3632229000,123.5630500452944,29.16915,0.1,335.0684,1626296327440,,,,
Fix,GT,37.5366719000,-122.3633628000,124.62919171717613,29.1044,0.1,334.83658,1626296328440,,,,
Fix,GT,37.5369086000,-122.3635040000,125.67596448645622,29.064817,0.1,334.55048,1626296329440,,,,
Fix,GT,37.5371450000,-122.3636447000,126.71105264862445,29.00243,0.1,334.78418,1626296330440,,,,
Fix,GT,37.5373811000,-122.3637846000,127.83327807111618,28.94506,0.1,334.79996,1626296331440,,,,
Fix,GT,37.5376167000,-122.3639243000,128.97991696441386,28.909542,0.1,334.62747,1626296332440,,,,
Fix,GT,37.5378517000,-122.3640649000,130.14487403435714,28.884075,0.1,334.62524,1626296333440,,,,
Fix,GT,37.5380866000,-122.3642048000,131.29392535387115,28.826408,0.1,334.70715,1626296334440,,,,
Fix,GT,37.5383216000,-122.3643449000,132.45251221170474,28.92205,0.1,334.61194,1626296335440,,,,
Fix,GT,37.5385573000,-122.3644857000,133.60409294143392,28.997726,0.1,334.64755,1626296336440,,,,
Fix,GT,37.5387937000,-122.3646265000,134.7632786752647,29.034859,0.1,334.6979,1626296337440,,,,
Fix,GT,37.5390299000,-122.3647669000,135.92391750398383,28.945953,0.1,334.74792,1626296338440,,,,
Fix,GT,37.5392647000,-122.3649064000,137.10223412044525,28.734932,0.1,334.63684,1626296339440,,,,
Fix,GT,37.5394973000,-122.3650468000,138.23087314723534,28.538527,0.1,334.17734,1626296340440,,,,
Fix,GT,37.5397283000,-122.3651865000,139.3666427818639,28.378345,0.1,334.4786,1626296341440,,,,
Fix,GT,37.5399581000,-122.3653253000,140.50615045406266,28.233002,0.1,334.43027,1626296342440,,,,
Fix,GT,37.5401874000,-122.3654628000,141.6941879679125,28.20355,0.1,334.6357,1626296343440,,,,
Fix,GT,37.5404168000,-122.3655996000,142.9844176005704,28.176163,0.1,334.65063,1626296344440,,,,
Fix,GT,37.5406457000,-122.3657375000,144.27488127851075,28.135578,0.1,334.1241,1626296345440,,,,
Fix,GT,37.5408722000,-122.3658789000,145.4676367807615,28.024382,0.1,333.31378,1626296346440,,,,
Fix,GT,37.5410966000,-122.3660236000,146.5698309395957,27.94772,0.1,332.53534,1626296347440,,,,
Fix,GT,37.5413187000,-122.3661713000,147.67747414729047,27.864754,0.1,331.7868,1626296348440,,,,
Fix,GT,37.5415388000,-122.3663228000,148.78287139632812,27.892359,0.1,330.78845,1626296349440,,,,
Fix,GT,37.5417579000,-122.3664805000,149.89145908210776,28.157303,0.1,329.75458,1626296350440,,,,
Fix,GT,37.5419766000,-122.3666449000,150.94337342733616,28.429241,0.1,328.69897,1626296351440,,,,
Fix,GT,37.5421950000,-122.3668161000,151.90405233591628,28.743805,0.1,327.4871,1626296352440,,,,
Fix,GT,37.5424133000,-122.3669946000,152.76577966092736,29.070328,0.1,326.5847,1626296353440,,,,
Fix,GT,37.5426333000,-122.3671802000,153.53549814935786,29.74025,0.1,325.76288,1626296354440,,,,
Fix,GT,37.5428528000,-122.3673708000,154.22500092742484,29.402964,0.1,325.21564,1626296355440,,,,
Fix,GT,37.5430673000,-122.3675609000,154.7975009672582,28.869896,0.1,324.49963,1626296356440,,,,
Fix,GT,37.5432770000,-122.3677499000,155.23377013783193,28.463623,0.1,324.5017,1626296357440,,,,
Fix,GT,37.5434845000,-122.3679387000,155.47594226768751,28.49769,0.1,323.6558,1626296358440,,,,
Fix,GT,37.5436907000,-122.3681333000,155.5354062418255,28.768349,0.1,322.56207,1626296359440,,,,
Fix,GT,37.5438945000,-122.3683332000,155.52364049922335,28.554516,0.1,321.57825,1626296360440,,,,
Fix,GT,37.5440938000,-122.3685347000,155.62377271448895,28.226036,0.1,320.9149,1626296361440,,,,
Fix,GT,37.5442894000,-122.3687362000,155.78735278265322,27.947144,0.1,320.51596,1626296362440,,,,
Fix,GT,37.5444822000,-122.3689365000,155.93176674244205,27.567287,0.1,320.4517,1626296363440,,,,
Fix,GT,37.5446723000,-122.3691332000,156.1061794879688,27.123692,0.1,320.58676,1626296364440,,,,
Fix,GT,37.5448595000,-122.3693268000,156.27599918197666,26.700268,0.1,320.47708,1626296365440,,,,
Fix,GT,37.5450434000,-122.3695178000,156.41912917257196,26.29226,0.1,320.57565,1626296366440,,,,
Fix,GT,37.5452265000,-122.3697028000,156.5759959970028,25.877354,0.1,322.22748,1626296367440,,,,
Fix,GT,37.5454121000,-122.3698764000,156.6997229168419,25.491714,0.1,324.24658,1626296368440,,,,
Fix,GT,37.5455978000,-122.3700422000,156.8189015644257,25.051214,0.1,325.1702,1626296369440,,,,
Fix,GT,37.5457818000,-122.3702029000,156.9774091083964,24.70871,0.1,325.39114,1626296370440,,,,
Fix,GT,37.5459639000,-122.3703602000,157.22117721029144,24.334614,0.1,325.51358,1626296371440,,,,
Fix,GT,37.5461432000,-122.3705147000,157.61414429540764,23.925924,0.1,325.73187,1626296372440,,,,
Fix,GT,37.5463196000,-122.3706658000,158.0703208112809,23.479465,0.1,325.70447,1626296373440,,,,
Fix,GT,37.5464930000,-122.3708142000,158.34617564732116,23.10972,0.1,325.6686,1626296374440,,,,
Fix,GT,37.5466635000,-122.3709612000,158.4342192256845,22.80162,0.1,325.5524,1626296375440,,,,
Fix,GT,37.5468318000,-122.3711069000,158.29567144008251,22.600903,0.1,325.3892,1626296376440,,,,
Fix,GT,37.5469984000,-122.3712513000,158.1092207141046,22.156826,0.1,325.45956,1626296377440,,,,
Fix,GT,37.5471563000,-122.3713879000,157.92671736174998,20.108704,0.1,325.6574,1626296378440,,,,
Fix,GT,37.5472948000,-122.3715069000,157.74304055672837,17.143394,0.1,325.8524,1626296379440,,,,
Fix,GT,37.5474114000,-122.3716051000,157.61271729840382,14.0205345,0.1,326.49197,1626296380440,,,,
Fix,GT,37.5475046000,-122.3716823000,157.50666526526265,10.782896,0.1,326.31332,1626296381440,,,,
Fix,GT,37.5475740000,-122.3717421000,157.37853938247372,8.03871,0.1,325.04318,1626296382440,,,,
Fix,GT,37.5476242000,-122.3717880000,157.40067774903218,5.7278013,0.1,323.85486,1626296383440,,,,
Fix,GT,37.5476580000,-122.3718195000,157.48049205533562,3.6244094,0.1,323.39307,1626296384440,,,,
Fix,GT,37.5476752000,-122.3718357000,157.52662189225475,1.2340595,0.1,323.3914,1626296385440,,,,
Fix,GT,37.5476781000,-122.3718383000,157.51704265441504,0.030415885,0.1,323.3653,1626296386440,,,,
Fix,GT,37.5476781000,-122.3718383000,157.51863567586634,0.0024756358,0.1,323.36462,1626296387440,,,,
Fix,GT,37.5476781000,-122.3718383000,157.51863567586634,0.0014142136,0.1,323.36295,1626296388440,,,,
Fix,GT,37.5476781000,-122.3718383000,157.51863567586634,0.0014092278,0.1,323.36273,1626296389440,,,,
Fix,GT,37.5476781000,-122.3718383000,157.51581876803675,0.028180376,0.1,323.3624,1626296390440,,,,
Fix,GT,37.5476816000,-122.3718417000,157.50945917561194,1.2735966,0.1,323.05853,1626296391440,,,,
Fix,GT,37.5476967000,-122.3718590000,157.55813680585015,3.2509742,0.1,318.91315,1626296392440,,,,
Fix,GT,37.5477168000,-122.3718978000,157.6485882683155,4.718877,0.1,301.78726,1626296393440,,,,
Fix,GT,37.5477222000,-122.3719570000,157.7723151412738,5.7607193,0.1,272.36774,1626296394440,,,,
Fix,GT,37.5476991000,-122.3720220000,157.81308814420072,6.9110756,0.1,240.64552,1626296395440,,,,
Fix,GT,37.5476540000,-122.3720888000,157.80663006921486,8.65607,0.1,229.55945,1626296396440,,,,
Fix,GT,37.5475983000,-122.3721718000,157.83291236466857,10.3920555,0.1,230.03096,1626296397440,,,,
Fix,GT,37.5475339000,-122.3722680000,157.91131216732174,11.7129,0.1,229.81032,1626296398440,,,,
Fix,GT,37.5474653000,-122.3723699000,157.9607292848018,11.742174,0.1,229.9459,1626296399440,,,,
Fix,GT,37.5473974000,-122.3724701000,158.04267606205576,11.504126,0.1,229.60185,1626296400440,,,,
Fix,GT,37.5473311000,-122.3725682000,158.1059472023012,11.198883,0.1,229.82811,1626296401440,,,,
Fix,GT,37.5472688000,-122.3726610000,158.22599157108743,10.031715,0.1,230.05945,1626296402440,,,,
Fix,GT,37.5472153000,-122.3727412000,158.35758794668436,8.450082,0.1,230.07816,1626296403440,,,,
Fix,GT,37.5471645000,-122.3728062000,158.56439961544038,7.77917,0.1,221.5175,1626296404440,,,,
Fix,GT,37.5471021000,-122.3728414000,158.79612817426823,7.692827,0.1,197.76572,1626296405440,,,,
Fix,GT,37.5470294000,-122.3728415000,158.860074077033,8.570874,0.1,174.22752,1626296406440,,,,
Fix,GT,37.5469522000,-122.3728076000,158.76590633512387,9.606976,0.1,156.29674,1626296407440,,,,
Fix,GT,37.5468742000,-122.3727453000,158.8889842349663,11.015701,0.1,142.98045,1626296408440,,,,
Fix,GT,37.5467953000,-122.3726567000,158.93831553860764,12.574385,0.1,137.1593,1626296409440,,,,
Fix,GT,37.5467054000,-122.3725539000,159.0428943987058,14.428467,0.1,137.99298,1626296410440,,,,
Fix,GT,37.5466025000,-122.3724376000,159.0982699435972,16.277996,0.1,137.66774,1626296411440,,,,
Fix,GT,37.5464885000,-122.3723071000,159.15684979379512,17.956131,0.1,137.74368,1626296412440,,,,
Fix,GT,37.5463636000,-122.3721658000,159.23227737685056,19.372164,0.1,138.09016,1626296413440,,,,
Fix,GT,37.5462290000,-122.3720127000,159.27108503514592,20.93296,0.1,137.84914,1626296414440,,,,
Fix,GT,37.5460834000,-122.3718477000,159.18704061815515,22.575855,0.1,137.93364,1626296415440,,,,
Fix,GT,37.5459274000,-122.3716694000,158.89353691793258,24.152264,0.1,137.81274,1626296416440,,,,
Fix,GT,37.5457596000,-122.3714820000,158.36230620042625,25.63367,0.1,139.06918,1626296417440,,,,
Fix,GT,37.5455780000,-122.3712893000,157.61966201567247,27.170433,0.1,140.60603,1626296418440,,,,
Fix,GT,37.5453821000,-122.3710908000,156.77825701797155,28.67745,0.1,141.7292,1626296419440,,,,
Fix,GT,37.5451736000,-122.3708861000,155.9204337488045,30.052826,0.1,141.97589,1626296420440,,,,
Fix,GT,37.5449586000,-122.3706723000,155.06021465060257,30.557304,0.1,141.32217,1626296421440,,,,
Fix,GT,37.5447444000,-122.3704562000,154.2043826178342,30.451378,0.1,141.29755,1626296422440,,,,
Fix,GT,37.5445317000,-122.3702404000,153.3267010362656,30.268253,0.1,141.14224,1626296423440,,,,
Fix,GT,37.5443200000,-122.3700263000,152.50015850511272,30.076977,0.1,141.4275,1626296424440,,,,
Fix,GT,37.5441093000,-122.3698143000,151.6968466510425,29.914204,0.1,141.25537,1626296425440,,,,
Fix,GT,37.5438989000,-122.3696010000,150.98721362457673,30.205713,0.1,141.14249,1626296426440,,,,
Fix,GT,37.5436833000,-122.3693873000,150.31098037497213,30.81797,0.1,142.51515,1626296427440,,,,
Fix,GT,37.5434605000,-122.3691733000,149.74771255232372,31.397636,0.1,142.89359,1626296428440,,,,
Fix,GT,37.5432328000,-122.3689592000,149.13908183112653,31.719158,0.1,143.43889,1626296429440,,,,
Fix,GT,37.5430024000,-122.3687444000,148.53325278411103,31.99245,0.1,143.4207,1626296430440,,,,
Fix,GT,37.5427692000,-122.3685288000,147.93166890270732,32.291092,0.1,144.05537,1626296431440,,,,
Fix,GT,37.5425323000,-122.3683142000,147.30966583353802,32.55828,0.1,144.41685,1626296432440,,,,
Fix,GT,37.5422921000,-122.3681003000,146.68326184330726,32.812103,0.1,145.27795,1626296433440,,,,
Fix,GT,37.5420471000,-122.3678900000,146.05666880816716,33.039955,0.1,146.17021,1626296434440,,,,
Fix,GT,37.5417985000,-122.3676828000,145.42502782210067,33.181023,0.1,146.77193,1626296435440,,,,
Fix,GT,37.5415469000,-122.3674782000,144.78984424222654,33.3677,0.1,147.48953,1626296436440,,,,
Fix,GT,37.5412911000,-122.3672768000,144.14803065970727,33.687885,0.1,148.66093,1626296437440,,,,
Fix,GT,37.5410301000,-122.3670782000,143.5158483402629,34.064457,0.1,149.3015,1626296438440,,,,
Fix,GT,37.5407640000,-122.3668829000,142.87030118748226,34.320255,0.1,150.29585,1626296439440,,,,
Fix,GT,37.5404946000,-122.3666911000,142.21680296990962,34.408615,0.1,150.77748,1626296440440,,,,
Fix,GT,37.5402230000,-122.3665022000,141.5307531857493,34.51808,0.1,151.41057,1626296441440,,,,
Fix,GT,37.5399495000,-122.3663157000,140.74542973850112,34.52119,0.1,151.781,1626296442440,,,,
Fix,GT,37.5396765000,-122.3661308000,139.84775233831533,34.314186,0.1,151.65092,1626296443440,,,,
Fix,GT,37.5394057000,-122.3659452000,138.8853456019424,34.14129,0.1,151.54242,1626296444440,,,,
Fix,GT,37.5391359000,-122.3657615000,137.7815154618238,33.992085,0.1,151.68279,1626296445440,,,,
Fix,GT,37.5388665000,-122.3655794000,136.54646547220273,33.931004,0.1,151.87654,1626296446440,,,,
Fix,GT,37.5385974000,-122.3653978000,135.25337370214993,33.86529,0.1,151.70648,1626296447440,,,,
Fix,GT,37.5383292000,-122.3652157000,133.88593100247317,33.807697,0.1,151.63092,1626296448440,,,,
Fix,GT,37.5380620000,-122.3650330000,132.51038530063215,33.72539,0.1,151.59886,1626296449440,,,,
Fix,GT,37.5377948000,-122.3648523000,131.15451812577703,33.656326,0.1,151.8122,1626296450440,,,,
Fix,GT,37.5375282000,-122.3646715000,129.79588708742176,33.585575,0.1,151.75864,1626296451440,,,,
Fix,GT,37.5372619000,-122.3644916000,128.47556020440334,33.542236,0.1,151.73068,1626296452440,,,,
Fix,GT,37.5369963000,-122.3643112000,127.13033437912236,33.475456,0.1,151.56815,1626296453440,,,,
Fix,GT,37.5367314000,-122.3641313000,125.78919511057211,33.395096,0.1,151.84822,1626296454440,,,,
Fix,GT,37.5364660000,-122.3639528000,124.45115195973995,33.46231,0.1,151.87631,1626296455440,,,,
Fix,GT,37.5361999000,-122.3637731000,123.11183396052184,33.58752,0.1,151.65964,1626296456440,,,,
Fix,GT,37.5359339000,-122.3635912000,121.76419709334732,33.604538,0.1,151.5093,1626296457440,,,,
Fix,GT,37.5356680000,-122.3634102000,120.43038326544911,33.543953,0.1,151.68591,1626296458440,,,,
Fix,GT,37.5354023000,-122.3632298000,119.0987914854577,33.501442,0.1,151.76738,1626296459440,,,,
